,Unnamed: 0,timestamp,thrustinput,Position state,Position state2,PA-ON,PA-ON2,Airspeed[m/s],Differential Pressure[Pa],GPS Altitude[m],GPS Noise Magitude/ms,GPS Satellite Num.,Horizontal accuracy[m],Vertical accuracy[m],Groundspeed[m/s],Roll control,Pitch control,Yaw control,Thrust control,Roll Angular Rate[deg/s],Pitch Angular Rate[deg/s],Yaw Angular Rate[deg/s],Roll angle[deg],Pitch angle[deg],Yaw angle[deg],Local X[m],Local Y[m],X-velocity[m/s],Y-Velocity[m/s],Z-Velocity[m/s],altitude set position,altitude(Tecs),airspeed set position,airspeed(Tecs),X-acceleration[m/s^2],Y-acceleration[m/s^2],Z-acceleration[m/s^2],Battery Voltage[V],Battery Current[A],Inst. power[Ws],Body_Uvelocity[m/s],Body_Vvelocity[m/s],Body_Wvelocity[m/s],A.O.A.[deg]
1723,1723,0.0,0.0,2500.0,-2500.0,0.0,0.0,13.388437073849854,109.79078857575195,87.07411642647119,110.0,10.0,1.475,1.6144841879097815,14.201765631332998,0.11188127702536768,-0.2703434438805087,-0.10870611267242533,0.1232941161780315,-0.3386965143499182,0.12704068889227774,-0.1616969652892908,-7.991655347137237,5.620898204437188,-15.611624232463978,270.41329799676714,-5.765133301131513,-14.817644181618755,1.7621424687680345,1.4906958797598384,166.2518,167.006312965937,6.1358082406913965,13.081336475859265,-0.081378791395883,-2.126555588407689,-11.857505261632669,16.084317156297892,1.5574729000000002e-19,2.505088808593904e-18,-14.820319592208321,-2.2849698996059296,0.26326077574457063,-1.0176666603605429
1724,1724,0.09850299999996537,0.0,2500.0,-2500.0,0.0,0.0,13.333617923728815,108.8935493008475,87.26593945215876,110.0,10.0,1.475,1.6135088522614092,14.110576307676336,0.15324075530573966,-0.2565273481814074,-0.11242024068496237,0.08888431943881593,-0.017829398620082305,0.12793352728971652,-0.2035449505141123,-8.677654935555697,6.136381733275978,-16.818440890161227,269.0658262123106,-5.584628447328364,-14.620504229711482,2.009799085299269,1.6432998731926618,166.2518,167.2178763185561,6.013746985886398,13.187090827836453,0.4482047432103766,-2.242695024270197,-11.412253297904895,16.08954570003092,1.5574729000000002e-19,2.505903140110969e-18,-14.66878898357471,-2.30466934957876,0.3213907391206341,-1.2551402335397022
1725,1725,0.21482499999990523,0.0,2500.0,-2500.0,0.0,0.0,13.231392414237408,107.2302304103722,87.50675131981953,110.0,10.0,1.4753312545877009,1.6120063687254835,13.909976682913893,0.13375425996133575,-0.2721115417174018,-0.11234967173857824,0.07512450351998914,0.17702091383605886,0.12392091600897408,-0.17557280699628466,-8.852828070438363,6.887722144636093,-18.15049311557047,267.4943818944932,-5.349457139611039,-14.372099432399311,2.306480939948,1.7748549801969362,166.2518,167.47345549298942,6.00011147803104,13.249536182799725,1.106765575948773,-2.8428645279147933,-11.467770851145588,16.096253292375483,1.5574729000000002e-19,2.50694782944106e-18,-14.484568443728303,-2.2747626808549657,0.31170134359702817,-1.2327889149960607
1726,1726,0.3093499999999665,0.0,2500.0,-2500.0,0.0,0.0,13.133079970188508,105.64266090530458,87.71199397986244,110.0,10.0,1.4758134871099549,1.6105598640324434,13.687207534547445,0.11157309316035258,-0.28850790724103964,-0.11373408059069112,0.06542485387791698,0.18207098863939986,0.0976043291391918,-0.15779326276090885,-7.821932633463379,7.449999155870818,-19.139920228913173,266.2334817515612,-5.133554953447566,-14.163238633241244,2.5592863224341853,1.9648423118262648,166.2518,167.68456115928274,6.0,13.255008223465358,0.8686169087688381,-2.274674521810469,-13.427331844663591,16.101866785235504,1.5574729000000002e-19,2.5078221157414416e-18,-14.354162141931706,-2.2214161395173435,0.39220052234170977,-1.5651101677312542
1727,1727,0.4060769999999536,0.0,2500.0,-2500.0,0.0,0.0,13.024129797849096,103.89714051239037,87.94753717177205,110.0,10.296321841345444,1.4780743232572342,1.6123706450985793,13.529883758077094,0.10978696574280114,-0.2992116205739866,-0.11565692469507055,0.05596158870936422,0.030696203328802376,0.05287150488659159,-0.15286518237772975,-7.539096987387907,7.975795058568282,-20.161684548321894,264.9679911809447,-4.894601389743784,-13.943207103803033,2.7900202422698266,2.191996613374711,166.2518,167.91392721747818,6.0,13.226806010936327,1.3981419035869025,-1.794729122614069,-11.604898387349756,16.10761104679457,1.5574729000000002e-19,2.508716768912317e-18,-14.218693732894948,-2.194626684972101,0.5227355305117563,-2.1054716831192253
1728,1728,0.501358999999951,0.0,2500.0,-2500.0,0.0,0.0,12.833664793219324,100.88058015417174,88.18438489481072,110.0,10.765732922131004,1.4813601538816248,1.6161258868037558,13.41722509868856,0.09666602101375474,-0.30322168224027085,-0.11709947240424012,0.0476633551761916,0.15720638379680266,-0.009268259425421149,-0.132265226071296,-6.774802314928751,7.970599790575759,-20.882900166272414,263.74263038187,-4.641317184209057,-13.723791143263615,2.9802975107971834,2.331364006102929,166.2518,168.16073430315154,6.0,13.153723904752395,1.3695580182039646,-1.5288149656846215,-10.086081728507967,16.11174389248,1.5574729000000002e-19,2.5093604484278115e-18,-14.073785873554092,-2.132331265402973,0.6730793806828672,-2.73808670388713
1729,1729,0.6246539999999072,0.0,2500.0,-2500.0,0.0,0.0,12.586634055777287,97.0343284146568,88.52651305961291,110.0,11.0,1.4871661320087597,1.6214086603478184,13.336761906849885,0.08451182524918376,-0.31822033862217103,-0.12174772371003915,0.03957210813465424,0.1789157635194518,0.04281093364052512,-0.10747079670323373,-5.5513433633383835,8.108192311119726,-21.7305862409527,262.1712537236176,-4.293145600955237,-13.451016198736765,3.1899202988137025,2.409833559128012,166.2518,168.49598913234706,6.0,12.986594041583373,1.1028491209059237,-1.4542761203204488,-9.459122730858187,16.116385538246664,1.5574729000000002e-19,2.51008337217711e-18,-13.879341087483626,-2.040941396143866,0.7391475451521266,-3.0484203758613475
1730,1730,0.7188170000000014,0.0,2500.0,-2500.0,0.0,0.0,12.471165136969663,95.26210881678273,88.78100129009262,110.0,11.0,1.492345428951593,1.6256462754981529,13.30662808948992,0.09701757190266762,-0.33585678673413577,-0.12812674879816036,0.03546026624451107,0.16390016936832585,0.053690709511044855,-0.08888170680563975,-4.827083179396769,8.462239270917182,-22.324530460631557,260.9912930738372,-4.012947490611493,-13.246296539964767,3.3157899791703067,2.3443871420605547,166.2518,168.75938197633204,6.0,12.826251448144955,0.21308196524813805,-0.2288169300981524,-9.166200435261011,16.119930461320003,1.5574729000000002e-19,2.51063548433904e-18,-13.710839003942736,-1.970784140839383,0.6182304642489285,-2.5817544309013285
1731,1731,0.8148429999999394,0.0,2500.0,-2500.0,0.0,0.0,12.353452042171858,93.47227541117569,89.02684412648041,110.0,10.336345841279767,1.6409994629738236,1.7866088919895082,13.190484507525403,0.12778158495867387,-0.3566518152374892,-0.13519813066071668,0.032920631430155084,0.14883466881276555,0.0896955396722858,-0.07631683096150603,-4.1368354400309935,8.841649247377257,-22.853496906536908,259.8026668371957,-3.7209457529913745,-13.035476503950612,3.4283506678871207,2.246096858112262,166.2518,169.01079189468456,6.0,12.651815971882758,0.3101457564363695,-1.4706378242005056,-9.607792554825128,16.122173680331866,1.5574729000000002e-19,2.5109848596210144e-18,-13.530363496018785,-1.8929711939193783,0.4605529962298451,-1.949508518918872
1732,1732,0.9258019999999476,0.0,2500.0,-2500.0,0.0,0.0,12.320746007410051,92.97797582805106,89.30100516769045,110.0,9.219648059901603,1.8883479657141973,2.055174652576067,13.011254513614206,0.1743253982149726,-0.3751048184805748,-0.1331536088054154,0.03097645922654612,0.06413229562126198,0.022218529543053568,-0.116844758193325,-3.5312495879424475,9.276265997341246,-23.578200315935256,258.4328319257097,-3.366339271266246,-12.792495114887656,3.5639812041504757,2.2156713476337955,166.2518,169.28426045800185,6.0,12.4563715506529,0.5959015047564786,-1.7538584806442716,-8.669392611603168,16.124531433522677,1.5574729000000002e-19,2.5113520732909724e-18,-13.335292837225126,-1.8304842922452265,0.3651382913572825,-1.5684437712971775
1733,1733,1.0226189999999065,0.0,2500.0,-2500.0,0.0,0.0,12.292878965445983,92.55787933785246,89.52050311472685,110.0,9.363634600371286,2.2046350658732665,2.3945441014560336,12.8265471792474,0.1639087403796355,-0.3791852996349662,-0.12894598623170045,0.027604698251681218,0.28623939856658065,-0.036898435808692016,-0.09821859524831192,-2.5313583539922693,9.242015107906216,-24.202722053117448,257.26265639171606,-3.0629224344362416,-12.581039653160786,3.66968032649876,2.1934099191835035,166.2518,169.51526070425382,6.0,12.313483094422564,-0.1372114948076989,-0.4160824044943492,-10.08034547102296,16.12658868521632,1.5574729000000002e-19,2.511672484667105e-18,-13.163400883955472,-1.7907289201362766,0.3710714593942601,-1.6147194569248846
1734,1734,1.1174909999999443,0.0,2500.0,-2500.0,0.0,0.0,12.196220006920415,91.10801472895041,89.7312711250618,110.0,9.82366689456867,2.5432188344025404,2.7570495952868006,12.637473906332277,0.12541965312571074,-0.3811953397426643,-0.12060954816177845,0.02387485046027821,0.3553000086117792,-0.06533807270784356,-0.08236453240646524,-0.7630723623691021,9.043381787476378,-24.65180227538543,256.11838090218305,-2.749926486145494,-12.40025261303571,3.746921128554237,2.128578515060099,166.2518,169.727881204759,6.0,12.185761178964231,-0.2883320735160895,-0.3797890679244623,-9.870315956588062,16.129800615199436,1.5574729000000002e-19,2.5121727340576448e-18,-13.007993010474793,-1.7459249272926316,0.3627044366373333,-1.5971756948590574
1735,1735,1.2359359999999526,0.0,2500.0,-2500.0,0.0,0.0,12.185539834141615,90.94852830261884,89.97512482432613,110.0,9.572317343865608,2.6067092310674354,2.8203002270959465,12.559441125470252,0.014480066748490962,-0.3821457761916968,-0.1117082347746615,0.0199711777927688,0.1843629041954027,-0.05443815769729488,-0.09059643920150158,0.8544869098105468,8.664099581129786,-25.26889797315269,254.71506391820756,-2.375507077188049,-12.192109145251212,3.783440062128604,1.9382611759695896,166.2518,169.9695822120092,6.0,12.05553661274852,-0.18696551006305565,0.05066968287204321,-8.832273218741761,16.13398917167635,1.5574729000000002e-19,2.512825090377937e-18,-12.788260385517814,-1.76246520299831,0.28054675012648866,-1.2567437898314642
1736,1736,1.3310879999999088,0.0,2500.0,-2500.0,0.0,0.0,12.064202016471073,89.146314684599,90.15851550449348,110.0,9.076522264717415,2.5298610433789728,2.732544448507209,12.552995789441324,-0.0743339682746777,-0.3779845787858097,-0.10705779070879806,0.018612326394146967,0.2280464008055932,-0.0923958193053486,-0.08461881136943022,1.9074983580602107,8.346222889786674,-25.715215187230214,253.5946889225228,-2.0643669516397205,-12.052216359399436,3.79937684593393,1.6961634882282914,166.2518,170.1424087071146,6.0,11.954329536635996,0.07703086298131206,-1.4495450448841682,-6.866297777117633,16.13735402055888,1.5574729000000002e-19,2.51334915647265e-18,-12.62087302546852,-1.7917814093440891,0.12500870660532382,-0.5674914136089979
1737,1737,1.427063999999973,0.0,2500.0,-2500.0,0.0,0.0,11.826593746492286,85.66937148363056,90.3209112205172,110.0,9.0,2.457563494930556,2.6521169488939895,12.298973248794427,-0.0705726145076448,-0.3790517460078325,-0.10386540842516072,0.01899502478150106,0.056216143004769716,-0.08555360059498414,-0.07273600235598568,2.3978394682128608,7.942220172385367,-26.115888222615453,252.48558026459907,-1.7656716205924063,-11.923364968144233,3.788155524249573,1.4985530234262328,166.2518,170.29296320474776,6.0,11.829010190504466,0.3876403427938173,-0.9358304752709158,-8.063444459350627,16.14026552029356,1.5574729000000002e-19,2.5138026146661622e-18,-12.461930239326534,-1.8388364434297482,0.029891981372798918,-0.13743305060865246
1738,1738,1.5259859999999605,0.0,2500.0,-2500.0,0.0,0.0,11.58848728445662,82.25456146698626,90.47829863967286,110.0,9.0,2.384018042271152,2.570726800271618,11.99106315893378,-0.05439758941833928,-0.380916403524492,-0.10405250075932143,0.01919199663158767,-0.05109741505813917,-0.04917309529339471,-0.049694033723218685,2.2797214937508565,7.625447833130397,-26.452132636646017,251.34012816148575,-1.4391709409565618,-11.806700017226431,3.793575314243097,1.331082121826563,166.2518,170.43562932444576,6.0,11.676109296884364,0.6187189230642139,-0.9578322506804068,-8.510696665056335,16.14325804917261,1.5574729000000002e-19,2.5142686929293213e-18,-12.3286742879169,-1.8586427660090128,-0.060170213035139815,0.2796303809130581
1739,1739,1.6223759999999459,0.0,2500.0,-2500.0,0.0,0.0,11.396048251685786,79.54535458551533,90.6031015011687,110.0,9.0,2.4068882756687793,2.593953267380276,11.784966712817655,-0.01405825302267343,-0.3745243069431912,-0.10760708516294856,0.01951487234582129,-0.05959225416652535,-0.116391323773568,-0.01681160881233764,1.8717563106617376,7.1784884847946735,-26.65463042264066,250.25558872786547,-1.1359450143022642,-11.691835384475345,3.800382333899971,1.2105042099839929,166.2518,170.56103184254602,6.0,11.511864884422126,0.19957768564337752,-1.0861502585266265,-8.662691115500044,16.146173981509715,1.5574729000000002e-19,2.5147228414886487e-18,-12.21019986388599,-1.844476976806106,-0.08661187829211903,0.4064152846045431
1740,1740,1.7436169999999436,0.0,2500.0,-2500.0,0.0,0.0,11.192777249434423,76.73295407748915,90.74480169113123,110.0,9.0,2.4698831775374326,2.6602929138797493,11.559745842856028,0.05931213348161751,-0.3560467323693336,-0.10730708353162348,0.019521817041674758,0.05740281599987559,-0.1827886908534463,0.0074180525725034046,2.0689256742842392,6.282716577242884,-26.621034741940413,248.89230008143628,-0.7345510705487575,-11.568857390344892,3.822953099355612,1.095934802828201,166.2518,170.702789836236,6.0,11.308391864153938,0.356658786138758,-0.5915352471965073,-8.339253919313299,16.14744870174947,1.5574729000000002e-19,2.5149213757114988e-18,-12.102985364196256,-1.763870534507606,-0.0364994320930061,0.17278853199206834
1741,1741,1.8367930000000001,0.0,2500.0,-2500.0,0.0,0.0,11.082165954343235,75.22382875774592,90.83095753369815,110.0,9.362331277194992,2.5313642112969763,2.722001916252909,11.62036612611429,0.0780378706740519,-0.3358444153607093,-0.1046280112405712,0.020496036564135883,0.16424150177656616,-0.17459083663681846,0.019024765108241002,2.5556713028809286,5.299270512816122,-26.578003648216423,247.8682847705805,-0.4332923802092885,-11.477876439818091,3.837627255172831,0.9400834490389272,166.2518,170.78652663998398,6.0,11.160003560936573,0.2103678006155655,-1.1816401834063843,-8.406570787387707,16.148226946329242,1.5574729000000002e-19,2.515042585195754e-18,-12.01759077583884,-1.7036183804060303,-0.013082907232378704,0.06237482087972485
1742,1742,1.9327079999999626,0.0,2500.0,-2500.0,0.0,0.0,10.984633818652851,73.90559305699483,90.9108125530694,110.0,9.846491272349066,2.598662402207393,2.7888159955841707,11.754478928931967,0.05686618197811559,-0.3159311769991877,-0.09656672742825263,0.021794360864191543,0.2177722325499982,-0.16136627040920234,-0.0022669401290705852,3.6960470960094898,4.424882606848566,-26.547717736112432,246.81062480665528,-0.10754355395509856,-11.410820564039714,3.847436370750791,0.7801557961725091,166.2518,170.85803171790513,6.0,11.02064283613986,0.4909658203749763,-0.9140276785316608,-7.8749345589251645,16.149028068172502,1.5574729000000002e-19,2.5151673577518027e-18,-11.951915683585096,-1.6624500905018986,-0.014152363177876713,0.06784437932116086
1743,1743,2.0294349999999497,0.0,2500.0,-2500.0,0.0,0.0,10.96248070888185,73.6078028952946,90.97204153949127,110.0,9.659539076818914,2.5835707471735314,2.767782977433361,11.691117652890682,0.0238257936236745,-0.3006785172616641,-0.08789665571769527,0.02293709941304731,0.2514254736014583,-0.13043648004571867,-0.0011131836003482963,4.997349839695046,3.6744664623991232,-26.60292464838378,245.75533319242942,0.21410855102677293,-11.352191179268113,3.842074940684337,0.6004656341937993,166.2518,170.91649626399732,6.0,10.91178640210384,0.18221452956132375,-0.8315309392481164,-7.232289080004778,16.15198322036752,1.5574729000000002e-19,2.515627614697714e-18,-11.884928914445714,-1.658928737753175,-0.05529674194565548,0.2665768635052649
1744,1744,2.124994999999984,0.0,2500.0,-2500.0,0.0,0.0,10.80755876553451,71.5420394301268,91.02533753034609,110.0,9.168941848107744,2.531076794641713,2.70694882295373,11.538541914761508,0.012967872726663244,-0.2940960992467225,-0.08069887989188634,0.024392213844545717,0.10450502397195513,-0.07874354352883667,-0.011393083675254509,5.950802048932849,3.1546144771269415,-26.71072900289329,244.7064438358876,0.5418230784038573,-11.318274225654562,3.824170790573734,0.4249985634034161,166.2518,170.95726027579315,6.0,10.815327392355693,0.27477554960411066,-0.9058962907971669,-7.800571209399259,16.15493994217524,1.5574729000000002e-19,2.5160881161065503e-18,-11.834844679907187,-1.6922884764051014,-0.13342812437836404,0.6459353477913451
1745,1745,2.2479189999999107,0.0,2500.0,-2500.0,0.0,0.0,10.799854263157895,71.44008157894737,91.0557159931366,110.0,9.0,2.5251622136841982,2.6968591674511053,11.440392644388854,-0.031140949050391845,-0.28813057653074,-0.07526547995663557,0.025632087593565483,0.0004183119911157426,-0.071761150479245,-0.04286138978752198,6.477965798425824,2.780828766538153,-26.912224545450467,243.36830251349238,0.9366306334885258,-11.290500097257373,3.7834367135063793,0.2700593164860853,166.2518,170.98924023693374,6.0,10.709655406570448,0.6281077923775298,-0.8485411173096353,-9.328834020287829,16.158549620910822,1.5574729000000002e-19,2.516650313787389e-18,-11.779457917132195,-1.768670518508196,-0.21560089332050192,1.0485747452741965
1746,1746,2.343227999999982,0.0,2500.0,-2500.0,0.0,0.0,10.755745882282193,70.85772181462829,91.06973306541056,110.0,9.0,2.5380394304768914,2.708356733361966,11.392103023928886,-0.02611194164791504,-0.26987078350018434,-0.0784370985405536,0.024734768198184886,-0.05572927278139738,-0.1283319122242287,-0.023291465922921587,6.092585808109398,2.3193800146155104,-27.18648649797653,242.32347119674807,1.2498684891530891,-11.294541698456133,3.7631250998741663,0.21496767960033186,166.2518,171.00190875500988,6.0,10.66217077581044,0.6613370248676883,-0.8605428732059829,-9.221917683077274,16.16013953717068,1.5574729000000002e-19,2.5168979389361874e-18,-11.765155396425982,-1.8392078579866835,-0.1865334307045458,0.9083333428926728
1747,1747,2.4386439999999823,0.0,2500.0,-2500.0,0.0,0.0,10.697301621808863,70.08976460125,91.0656523264135,110.0,9.0,2.5603582387922112,2.73151986815908,11.411199450495136,0.006320805287766972,-0.2493079424206789,-0.08007752646963076,0.02416221050308371,0.1404719725393803,-0.13457447366141498,0.02037569868701237,6.2885938391143,1.6108087288900053,-27.27317309738419,241.28328818361103,1.5517968395030226,-11.294984125825856,3.750902210354008,0.1175827211685186,166.2518,171.00237842830558,6.0,10.625341134788505,0.5591134909436879,-0.7638922812099341,-8.609081102652564,16.161731238372553,1.5574729000000002e-19,2.51714584208487e-18,-11.756789638680749,-1.8644199697890016,-0.1599318162739521,0.7793669183877844
1748,1748,2.5589969999999482,0.0,2500.0,-2500.0,0.0,0.0,10.697417162492878,70.09128279538977,91.04716440452069,110.0,8.98014935061716,2.600012194819811,2.7733498538742536,11.459933970595667,0.09173903579816307,-0.23131463551997675,-0.07468804802345917,0.025386374222182585,0.3235319326257496,-0.060361436762497785,0.0562844305237284,7.886821230484817,0.8957090999859141,-27.065740528069444,239.96763570375518,1.9364952013271968,-11.298675964459049,3.735275925185256,-0.09107276283012636,166.2518,170.97754077115403,6.0,10.598555878738114,0.510118505579459,-0.8191040500994067,-7.376854386702195,16.1634873852332,1.5574729000000002e-19,2.5174193571992568e-18,-11.758038407123818,-1.8523327584184377,-0.2439425081876757,1.1885376479341772
1749,1749,2.654352999999986,0.0,2500.0,-2500.0,0.0,0.0,10.790799581550804,71.32033770053476,91.01595011661936,110.0,8.507638486276361,2.8145321272305335,2.995902423727684,11.482141744964256,0.19330430933124276,-0.2269135156096996,-0.06520859049570737,0.028206799806822083,0.3834675654291534,0.005375443835186993,0.0573566003569039,9.733931827066664,0.6940273144602674,-26.797510073195447,238.9201392891806,2.240581488676621,-11.308986975194385,3.7046975602225736,-0.2869830262209232,166.2518,170.93651538170005,6.0,10.6047784787764,0.6442333209142428,-1.1386196455671311,-8.463552070870927,16.16404128358189,1.5574729000000002e-19,2.5175056253660007e-18,-11.760344952051197,-1.8641759802143139,-0.4015796494952161,1.9557149506462332
1750,1750,2.7503759999999886,0.0,2500.0,-2500.0,0.0,0.0,10.824323542464802,71.76417460858927,90.9718694364926,110.0,8.031822483858267,3.0305525923283465,3.2200117132850044,11.504504859169906,0.17192936957770086,-0.22131879777715927,-0.04713239523645495,0.033658849891737085,0.6844706614894104,0.05318784644041899,0.06843041649957822,13.020193218721412,0.9172225840943562,-26.374417364661678,237.85782279999972,2.5485647448000788,-11.350194544000013,3.6464196215999847,-0.3984160611200272,166.2518,170.8884656220366,6.0,10.640598322420416,0.4515911604799455,-1.2578241648000272,-8.251500775999926,16.16459905636112,1.5574729000000002e-19,2.5175924969648024e-18,-11.780734702744587,-1.9073288217386049,-0.5435638312180311,2.6417572064075134
1751,1751,2.8491699999999867,0.0,2500.0,-2500.0,0.0,0.0,10.803517593388785,71.4885468609062,90.90696982445557,110.0,8.906056429899326,3.242520392323696,3.4438460617889737,11.53182333476624,0.06624230791535063,-0.19904930697839404,-0.019372483907316763,0.04372256021978462,0.8237989736946856,0.046934062939339084,0.04658877340690014,17.44498868892791,1.0808814239514877,-25.9915074186535,236.75583395050816,2.866123036588605,-11.40219271895714,3.558449725497127,-0.556806736747683,166.2518,170.82723270643783,6.0,10.68031157896032,0.3741900302518769,-1.3688709903667715,-7.753274447856818,16.165159095776634,1.5574729000000002e-19,2.5176797215860614e-18,-11.795806637821435,-2.031682730398248,-0.7096850067544977,3.4430032174571017
1752,1752,2.9446229999999503,0.0,2500.0,-2500.0,0.0,0.0,10.704344360679608,70.18208175339801,90.83484460301105,110.0,9.842333704432047,3.4466289317995566,3.659657926754902,11.55850747115974,-0.00837520105898492,-0.1888666957444569,0.00886949519086819,0.05530227310608776,0.5147734374420242,0.13849376546019204,0.031072819744603707,21.32140200594765,1.4875524410571264,-25.603189530194243,235.68159200154147,3.1694388935199167,-11.45827774799594,3.4488837497133145,-0.7867944030812974,166.2518,170.74402446950666,6.0,10.696974877652464,0.2685329617604908,-1.3160911439088354,-7.554832238297533,16.165613878013847,1.5574729000000002e-19,2.5177505526870474e-18,-11.799148924659868,-2.2382640638539266,-0.9708245949234292,4.703655915103426
1753,1753,3.0406499999999426,0.0,2500.0,-2500.0,0.0,0.0,10.691809042665348,70.01781039823734,90.74022887893186,110.0,9.61452085703828,3.3726804837319286,3.5822837684700355,11.549894323660158,-0.002468927781630128,-0.21270429091447354,0.021302323212183286,0.06387843347434048,-0.0326370016553159,0.2528878699774912,0.040839436867008534,22.479983139891285,2.5244620939961333,-25.007441810619387,234.60108298404546,3.4633441259895803,-11.52438059186058,3.3062923890415603,-0.9781984813938904,166.2518,170.64143929346469,6.0,10.696574160958047,0.5913085296492573,-1.4990728872719834,-8.38368725236286,16.166071395052516,1.5574729000000002e-19,2.517821809725949e-18,-11.78711399791224,-2.446705722365365,-1.302331051469686,6.3049057995088695
1754,1754,3.1561089999999865,0.0,2500.0,-2500.0,0.0,0.0,10.712802010585524,70.29304599735377,90.62166593883222,110.0,9.057855861763054,3.2162575087265908,3.418067761863342,11.530967157155807,0.0010908639374113745,-0.2275366606389966,0.018139032799699997,0.06815843787256988,-0.020441335369530148,0.14152346273161254,0.18733099084865765,22.240904251636586,3.549274743048412,-23.731478465711714,233.28972456807116,3.803611778209364,-11.618876847239296,3.103890189527502,-1.0982717678302802,166.2518,170.51155174773615,6.0,10.696677489534364,0.7436952613442176,-1.5443205231132298,-9.233575784060204,16.166979667477708,1.5574729000000002e-19,2.5179632706947542e-18,-11.794778524056433,-2.5244783879301025,-1.5820928175484508,7.63976938445005
1755,1755,3.2521349999999813,0.0,2500.0,-2500.0,0.0,0.0,10.866050997222473,72.31853682989666,90.51532415770994,110.0,9.450244610792858,3.0928418276557608,3.2924912137255378,11.802749173606667,-0.005871168541762122,-0.21758751333646192,0.006931721492488229,0.07069048038820776,0.04161765113726674,0.06821091318117077,0.2891557581346146,22.41669239336915,3.6084403808992818,-22.259325432828476,232.1990714851845,4.05758355667149,-11.687827329313958,2.9209597299894776,-1.1800260434180665,166.2518,170.40224809692072,6.0,10.7232904896517,0.7834449895206635,-1.564931743039855,-8.832351358270769,16.169288900341638,1.5574729000000002e-19,2.5183229274552902e-18,-11.825388259519874,-2.455900480183011,-1.6739040931213842,8.056789895064803
1756,1756,3.3508049999999514,0.0,2500.0,-2500.0,0.0,0.0,10.860669029227571,72.24690528183736,90.40120318834043,110.0,9.978957577576006,2.967008194432668,3.1650712301169093,12.124207186123787,-0.021696879774608626,-0.19966487861009805,0.0004672543003952593,0.07321520450780092,0.008983528857475906,0.041044708935461936,0.34568769372211355,22.671391332254945,3.2741825668818785,-20.426557499346103,231.0652167462104,4.2960600891190115,-11.756092594146779,2.7272741735194392,-1.286001630583819,166.2518,170.28781939930354,6.0,10.768265634261947,0.5427819024379461,-1.461179022191207,-8.721521121296714,16.17166171610699,1.5574729000000002e-19,2.5186924870804137e-18,-11.875723551496284,-2.3030007237824197,-1.727093821262866,8.274550312664541
1757,1757,3.4704179999999383,0.0,2500.0,-2500.0,0.0,0.0,10.747776367984383,70.75275579144301,90.2488862618696,110.0,10.0,2.830391133728195,3.021309117116625,11.787617122405887,-0.02536469939989679,-0.16778947486999987,-0.005576541291687036,0.07663995249486154,0.02216218398838326,0.03708666655353858,0.4084635731714578,22.75743074405405,2.490703066099394,-17.94403485010987,229.66097067801516,4.549182768723237,-11.857941573371509,2.4651743959313737,-1.410138600157623,166.2518,170.14011173823127,6.0,10.785915234981287,1.0047866341672154,-1.1953977907140465,-9.218130442295699,16.173432662425057,1.5574729000000002e-19,2.518968307170188e-18,-11.967981034457829,-2.054168950153373,-1.7248072488104702,8.200913785754251
1758,1758,3.567845999999946,0.0,2500.0,-2500.0,0.0,0.0,10.794667708989302,71.37148737937994,90.11526841298472,109.91667479088277,10.0,2.720251844613661,2.9051687835650535,11.563498196424028,-0.1241437978911104,-0.1560762396182483,-0.02633388772749902,0.0804558800040833,0.04598947111772099,0.04813744056217298,0.4133633358584574,23.02538236342146,1.8613994806858547,-15.708995187118347,228.50592647574516,4.732190158944172,-11.953286894068535,2.224237430731836,-1.4707881131017944,166.2518,170.0098941091327,6.0,10.792913419012057,0.8357043149569555,-1.2708864873374122,-9.08051534714872,16.172497647839513,1.5574729000000002e-19,2.518822681182379e-18,-12.054874960075248,-1.8234559925811404,-1.6793124929848298,7.930589522648685
1759,1759,3.660055999999969,0.0,2500.0,-2500.0,0.0,0.0,10.911885364673939,72.92991804891341,89.97701537990334,109.46719441573887,10.0,2.6191188501023603,2.7981923643847315,11.663282839705973,-0.39048935568108295,-0.18453376238832372,-0.09973045765690397,0.0842207618293466,0.029945200593075243,0.09080079114749072,0.4157179874682133,23.464975073531352,1.3308288354589608,-13.50305903387361,227.4141630742265,4.8805172395969985,-12.040452563796348,1.9784602510429867,-1.5124810058498792,166.2518,169.87798692339751,6.0,10.825410890709241,0.5172720015671372,-1.0790678076463178,-9.508035352290436,16.171612710296582,1.5574729000000002e-19,2.518684854558248e-18,-12.131178483730436,-1.602037521754036,-1.6256827754754832,7.6326565853363135
1760,1760,3.7561329999999487,0.0,2500.0,-2500.0,0.0,0.0,10.988149749962403,73.95289758358372,89.83137491518332,109.0,9.998846500391199,2.5138456308217205,2.686844277552812,11.767302216897507,-0.5945479770489749,-0.20476091840899507,-0.16138604583471605,0.08450551525969867,-0.2267396039226779,0.10240135000529414,0.4504740485107199,23.005569114558586,0.8886181315129495,-11.085401942585094,226.26431316627185,5.011363376490072,-12.136788782771966,1.687140594909201,-1.5152376965499643,166.2518,169.73256305260853,6.0,10.882055103959319,0.6898600602490019,-0.8030569790594504,-10.127430113929169,16.170710730515758,1.5574729000000002e-19,2.51854437365175e-18,-12.209755752169068,-1.3440920099318612,-1.55869858538088,7.275034332232437
1761,1761,3.8736569999999517,0.0,2500.0,-2500.0,0.0,0.0,11.03136262661799,74.53571200672087,89.64902774229351,109.0,9.417027238432944,2.4358817333554623,2.6082986771884475,11.919738863530572,-0.5075429038293929,-0.18182391346974947,-0.1733208881538604,0.07635765347609849,-0.7860627614196268,0.05545335136369189,0.4815087712470204,19.375831122325295,0.3007410675079609,-7.974644556960354,224.8509212095409,5.1279324724887765,-12.221001785231927,1.3565233887994241,-1.5611626786157256,166.2518,169.55181415872542,6.0,10.961543325618894,0.485509083434209,-0.8780775663893886,-9.29333724379334,16.169709072311324,1.5574729000000002e-19,2.518388368100903e-18,-12.282652712460074,-0.8914015867906975,-1.5317347068316192,7.108495249805544
1762,1762,3.972870999999941,0.0,2500.0,-2500.0,0.0,0.0,11.047991910868118,74.76060796056981,89.49128234317888,109.0,9.0,2.3710541818666537,2.5429802494853866,12.02826075011971,-0.3792570903903688,-0.1490390851842284,-0.17425278169488145,0.06628125967835159,-0.8316166147953777,0.01093471209656004,0.5566218218771609,14.625301495641839,-0.39979432427605976,-5.086409944624995,223.6504522687738,5.195337274583145,-12.266724137925873,1.1403308819067548,-1.6331566160118882,166.2518,169.3945069182139,6.0,11.017184838170145,0.2516189154864065,-0.5401033257347051,-9.511705314974256,16.168863470416436,1.5574729000000002e-19,2.518256667897356e-18,-12.330614502074914,-0.34235608579006194,-1.4966870230516218,6.920692820711959
1763,1763,4.0687169999999355,0.0,2500.0,-2500.0,0.0,0.0,11.007820121495287,74.21796113981983,89.3338226663967,109.0,9.0,2.3138050074786363,2.4852579414247407,12.023529886527099,-0.27913222278017114,-0.12806852685641829,-0.17115142780118406,0.060310059140528935,-0.6914871956849983,0.035137512797806345,0.5639834542856266,10.311765323408109,-0.909374099358748,-2.0268339487217517,222.48724046654567,5.234959569152712,-12.308025811665633,0.9631410757318598,-1.7043646044429532,166.2518,169.23765084652646,6.0,11.064007098886288,0.3820583677259272,-0.16082312244141245,-9.184025331600614,16.168579501040107,1.5574729000000002e-19,2.5182124404365484e-18,-12.359885795903008,0.2571588320126734,-1.475661232872833,6.808382770807968
1764,1764,4.161602999999985,0.0,2500.0,-2500.0,0.0,0.0,10.811086236414877,71.58884572100568,89.17847463281988,109.0,9.0,2.258035667171272,2.42903015780006,12.020808429734227,-0.21432295457151876,-0.11631960546614345,-0.16493692738325974,0.06026523377566555,-0.4739077386007686,0.0881143772468355,0.5258892150704269,7.307307211404518,-1.0199683456679536,0.9203462114797408,221.3519965768748,5.265111584583519,-12.34484494156653,0.821170180356348,-1.752653764525505,166.2518,169.0783240607513,6.0,11.065855900079928,0.3590500228387718,0.16432171425623926,-9.332535697886534,16.169459219431946,1.5574729000000002e-19,2.518349454192041e-18,-12.35930748610332,0.8242203160413736,-1.5022951470641814,6.9304024719428075
1765,1765,4.282174999999967,0.0,2500.0,-2500.0,0.0,0.0,10.416944904896745,66.46422224433722,88.96950466986128,109.0,9.0,2.1553222945377213,2.325729968995315,12.21332204979384,-0.17593134247128395,-0.12104092094071232,-0.15838845894290318,0.06589103035463448,-0.17813600325662887,0.1483113425971828,0.4547898199169465,5.149138537268283,-0.5837054635422886,4.449522286188751,219.879734497745,5.291281449140492,-12.394138153581537,0.6514245144711449,-1.7608058858948583,166.2518,168.87029922055225,6.0,10.970728350277145,0.6178054760672604,0.4967931659180589,-10.117017431564314,16.170601150465046,1.5574729000000002e-19,2.518527306855814e-18,-12.323544497959494,1.4641546291712464,-1.6123343026806396,7.453877909895081
1766,1766,4.378390999999908,0.0,2500.0,-2500.0,0.0,0.0,10.05086700733553,61.87494579213916,88.8060331954082,109.0,9.061230591279557,2.073100960875298,2.2425500794307234,12.349510484857758,-0.1578696778032565,-0.12912056525325602,-0.15100504116493,0.07355635479062317,-0.1350539036348169,0.13970519292533065,0.3691856896850438,4.248817825420314,0.08208768464902781,6.7835508184406645,218.6955163700317,5.3061111703990855,-12.447388632686492,0.5027491036016325,-1.6812678734227529,166.2518,168.70770477876997,6.0,10.808415668154957,0.7096249165051006,0.5800932843167099,-10.721793557584917,16.17166593274528,1.5574729000000002e-19,2.5186931438104e-18,-12.298444648219464,1.8436321167783676,-1.6970422669642355,7.8565367376711315
1767,1767,4.47631199999995,0.0,2500.0,-2500.0,0.0,0.0,9.688445050783494,57.49292725178442,88.6437766766048,109.0,9.541160210163113,1.9876735367069869,2.1528032406994977,12.369187839196794,-0.16200488532272922,-0.12637523841146608,-0.14467206313694406,0.08333761591449614,-0.002334883976043525,0.074288771858493,0.2746157239477278,3.9676670193436094,0.5137248491942522,8.629816722683548,217.47405406758116,5.283918996154994,-12.48701321960048,0.3426900686039942,-1.6061297582430802,166.2518,168.54821846676657,6.0,10.562973070164874,0.7375639938682071,0.7252780508760539,-10.466743023181706,16.172975661906563,1.5574729000000002e-19,2.5188971305779035e-18,-12.279325161261154,2.0936395159511347,-1.7320198080624407,8.028702004358557
1768,1768,4.572715999999986,0.0,2500.0,-2500.0,0.0,0.0,9.432240833604308,54.49255737127339,88.48855377015772,109.0,9.970521170053331,1.9042461096181733,2.0653051658041246,12.387484627845641,-0.17229851831282814,-0.13052516066728176,-0.13929613770110927,0.09472271097534343,0.018351626392895316,0.08593519904143207,0.1992835023976695,4.1386556134037775,0.8463446125191634,9.982370198411758,216.26880765879798,5.261249657953903,-12.512556655140715,0.16562914246407226,-1.5486143487987531,166.2518,168.3938392509363,6.0,10.28328620973778,0.7878373269261824,0.9897392711770256,-10.759320244543595,16.174265100638436,1.5574729000000002e-19,2.5190979571660143e-18,-12.270203969015556,2.2070001948440017,-1.759981960712826,8.162570366826449
1769,1769,4.66543299999995,0.0,2500.0,-2500.0,0.0,0.0,9.091982487841447,50.63189639684001,88.34741062512079,109.0,8.989477136976898,1.8458739896501253,2.0088950848500287,12.370316602527812,-0.1743792199196404,-0.12889103109247746,-0.13217673879981884,0.10608732162942153,-0.030362392506421632,0.05471735064130565,0.10553866583333933,4.267053572870661,1.2137763856263823,10.831980328127706,215.10191145578383,5.205164083947776,-12.536323810771707,-0.025070861866032832,-1.4461359277089023,166.2518,168.25000914394906,6.0,9.982986065732502,0.7324169986709981,1.0136355983481125,-10.490028591153788,16.175350703969013,1.5574729000000002e-19,2.519267036942766e-18,-12.284272452997037,2.2038084685985027,-1.7513873115921512,8.114063644126302
1770,1770,4.783797999999962,0.0,2500.0,-2500.0,0.0,0.0,8.611710580447985,45.42396920162847,88.18057296664965,109.0,8.247326542494267,1.7688215991266714,1.9341925889404128,12.342489621943992,-0.1834545053078103,-0.12960526081335005,-0.1234202331089614,0.1217088569218894,0.026779068756148838,0.05258181340501576,0.01896509155169198,4.135412344960665,1.4710741914306051,11.240686327625935,213.6091706703547,5.118015918733955,-12.553112630573859,-0.2631217192134057,-1.3380993046688257,166.2518,168.08026631024325,6.0,9.532359762248456,0.7997987652349688,0.9030238399384426,-10.492006428380384,16.176193071026905,1.5574729000000002e-19,2.519398233329218e-18,-12.325169649556338,2.06884087415299,-1.7069451472385258,7.884887155129781
1771,1771,4.879241999999948,0.0,2500.0,-2500.0,0.0,0.0,8.412090266088544,43.34250154419597,88.06496939730965,109.0,9.197221296098057,1.699004334736793,1.86580016668094,12.302119094915831,-0.20539315955704335,-0.1502678098154171,-0.1173417495182093,0.13354288930847408,0.07544560064970825,0.10077376216704023,-0.0351042684583758,4.444046231953842,1.895781687911276,11.198052846511734,212.4052381587932,5.032743408160748,-12.557034616850098,-0.4593637220154986,-1.2071355845571707,166.2518,167.95836546139358,6.0,9.1432291073446,1.0009223766077933,1.0763120807179527,-11.607256921227979,16.17687231642439,1.5574729000000002e-19,2.5195040239591208e-18,-12.360454636450221,1.8615943428907615,-1.677828083778634,7.730174566512603
1772,1772,4.9761799999999425,0.0,2500.0,-2500.0,0.0,0.0,8.588467645929422,45.17913248617597,87.96020901130554,109.0,9.922334729870279,1.6316899160961198,1.799379247249074,12.27033088043862,-0.2279367653675277,-0.17992122847273334,-0.1131286728355184,0.14318001039860934,0.11797371728958712,0.1150105929705038,-0.08199481561995836,5.155385089099663,2.5852827898403548,10.939361349071683,211.18313603630628,4.924668626377978,-12.547616873867927,-0.6727749519030739,-0.9733145110138184,166.2518,167.86076180563225,6.0,8.821231438431766,0.7127565209980263,1.101900137655691,-12.263971144864945,16.17727314711696,1.5574729000000002e-19,2.519566452253238e-18,-12.390709611460965,1.5810395797313876,-1.6051816889968908,7.381398068813812
1773,1773,5.097687999999948,0.0,2500.0,-2500.0,0.0,0.0,9.129354653764764,51.04904804373122,87.86190649901053,109.0,9.342526936621333,1.5696504822184827,1.7350205242176615,12.287724534428296,-0.2604296801793116,-0.18190463217387068,-0.1175075847831609,0.15005069842289154,0.12379091927125307,-0.026892022749016236,-0.14115492067480373,5.719560720153488,2.968396413973853,10.159637901464446,209.65611562341306,4.764842064764191,-12.490009410199194,-0.9016653186021066,-0.8577505230608928,166.2518,167.76549664036187,6.0,8.633807183865278,0.04323757013582363,0.7111012257005542,-9.627555598683577,16.177146784272686,1.5574729000000002e-19,2.5195467715826853e-18,-12.392085639253425,1.1641997090323808,-1.5621443833489097,7.184798896516058
1774,1774,5.19360599999996,0.0,2500.0,-2500.0,0.0,0.0,9.503401180913992,55.317866760010176,87.79119315874833,109.0,9.129468308801444,1.5402503252928808,1.7061922628717332,12.295540102132774,-0.4484935514495858,-0.19509904850706,-0.08686628946423143,0.15373914156147642,0.3963408860590766,0.03806462503567959,-0.11875614034516678,7.554579987887291,3.2039692702025158,9.527484739874332,208.45585682142502,4.617825000768582,-12.449839567389574,-1.0405533346956417,-0.8065348023589969,166.2518,167.6946849430797,6.0,8.64527078070701,0.3535547032212024,0.05986719798022255,-10.787003868203596,16.177047033875198,1.5574729000000002e-19,2.5195312357286008e-18,-12.385804552201154,0.835534213826275,-1.5459217077561045,7.114522585004563
1775,1775,5.287566999999967,0.0,2500.0,-2500.0,0.0,0.0,9.89330188130657,59.950027711494634,87.72964007939908,109.0,9.633486031841313,1.5684753177831134,1.7419775716093364,12.285963765395017,-0.5291767555937615,-0.17749288474272598,-0.055865933896299326,0.15417373632042247,-0.15972399056968153,-0.057707866380065136,-0.12904618953837566,8.259225213526161,3.272702705449353,8.817019952113915,207.2873419409568,4.460376336102373,-12.399486266493804,-1.1842239189347832,-0.7745217502584235,166.2518,167.63336615115466,6.0,8.762676123262956,0.0997462484544786,-0.020805732931013426,-9.732352030753844,16.177042062960705,1.5574729000000002e-19,2.51953046152214e-18,-12.369982093817795,0.5161112143398666,-1.509435090372098,6.9570681433026635
1776,1776,5.399247999999943,0.0,2500.0,-2500.0,0.0,0.0,10.375436342543418,65.93565554894731,87.64832139820379,109.0,9.77996802598515,1.5731577978709308,1.7521577978709308,12.269098561169331,-0.4731486965910381,-0.1963519340471668,-0.08042055219980224,0.14915320772779575,-0.7698660696346077,0.0676952001923218,-0.09648480095155708,5.195924891114856,3.2988032164325936,8.053249842855875,205.89780400725704,4.266474029423908,-12.332189158300556,-1.3056805637441808,-0.8925983875193334,166.2518,167.55716468953517,6.0,9.026255425751918,0.030479832017238667,0.3009970613142097,-8.626110255174105,16.177147187728696,1.5574729000000002e-19,2.5195468344198657e-18,-12.321591235819394,0.2888467903942964,-1.622710739821811,7.502479554875393
1777,1777,5.493948999999958,0.0,2500.0,-2500.0,0.0,0.0,10.698126687028438,70.10061689462879,87.57063584474507,109.0,9.299337681122699,1.5385524130408343,1.7175524130408344,12.247470195650525,-0.3545274421381473,-0.2256613250572309,-0.12000851634690628,0.14212843188435742,-1.004504967460005,0.1659800677485155,-0.008783091721624108,-0.11944708826066565,4.0834999711533255,7.771890643830463,204.7223393480854,4.0926981578295125,-12.280280500596495,-1.34018704670002,-0.9340909107542824,166.2518,167.48369437247362,6.0,9.329038147113199,0.3135438736709715,-0.005934647413554539,-8.777366720184729,16.17723632930742,1.5574729000000002e-19,2.5195607179791782e-18,-12.250844303996606,0.33571043516997817,-1.834767049683505,8.517685456842942
1778,1778,5.5913549999999645,0.0,2500.0,-2500.0,0.0,0.0,10.828623297931342,71.82120512449278,87.48630579207148,109.0,9.187468593424304,1.5340597232547522,1.7154968337161274,12.229500941226414,-0.2751698967272035,-0.23285980928255354,-0.15269387091695438,0.13806514030559108,-0.8408501235812672,0.11747533554763115,0.06583925050134674,-4.868063248306916,4.864193539573036,7.9824314037888335,203.51340854698643,3.920757052677517,-12.23829030737213,-1.3120480509005084,-0.9167271672980896,166.2518,167.40207359107472,6.0,9.66149071536957,0.5662312673945159,0.5741031044389928,-9.74117643994626,16.177393359908887,1.5574729000000002e-19,2.5195851750698038e-18,-12.1798744389323,0.5647845748406213,-1.983433034673168,9.24915002197998
1779,1779,5.704318999999941,0.0,2500.0,-2500.0,0.0,0.0,10.645695426503153,69.41516837882722,87.38010339801592,109.0,9.738585081937599,1.5842112685978134,1.7728129485215105,12.21627469661858,-0.245725162710084,-0.2123558712669713,-0.18620813039760845,0.1388024270970757,-0.4778200616811139,0.02429911582354408,0.12535447851459525,-9.494085261196188,5.287873130658259,8.562464376578118,202.11429971385186,3.72759020576693,-12.167341563344259,-1.2466778971884758,-1.0397277250889179,166.2518,167.29742521917126,6.0,9.958105260609118,0.04940763766227296,0.8548613566301606,-8.451689980517187,16.177650681093393,1.5574729000000002e-19,2.519625252146951e-18,-12.069525440132633,0.932809254593682,-2.184988127930234,10.261318790373297
1780,1780,5.795626999999968,0.0,2500.0,-2500.0,0.0,0.0,10.529825866044145,67.9123564814941,87.29441114650038,109.0,10.0,1.6238446584465709,1.8188627886268702,12.164541920409244,-0.2122842074356072,-0.22037924448877455,-0.20490708933310536,0.14240009551295735,-0.5864775811567525,0.12171122371681285,0.06686602141870962,-12.222539773264561,5.843099109320615,8.96932832002943,200.98916925898186,3.596768067349084,-12.119416218124686,-1.139343116988662,-1.0705121602214347,166.2518,167.2042321133995,6.0,10.11945835381237,0.23162755268953866,0.7737751035955429,-9.511492135372588,16.177858671981777,1.5574729000000002e-19,2.5196576461641607e-18,-11.976745854770346,1.2474090812738354,-2.327371123353209,10.996900197679794
1781,1781,5.89103499999996,0.0,2500.0,-2500.0,0.0,0.0,10.269797939487342,64.59978809837936,87.2050997818453,109.0,10.0,1.6639164191641878,1.8665672656716519,12.049574130731315,-0.13276895660955745,-0.224772736945358,-0.2333220320742292,0.14889218948794708,-0.5621162231189061,0.1467469829940245,0.045848235746165464,-15.363808178053608,6.700811034694171,9.068923107444851,199.813369301004,3.4791958697305345,-12.087029137432582,-0.9662648686938138,-0.9879950962423552,166.2518,167.110653759035,6.0,10.208561814515717,0.750397632574499,0.9376133957574406,-11.769686243667454,16.177772755271185,1.5574729000000002e-19,2.51964426486932e-18,-11.890380836909022,1.5781949411135523,-2.417252849545019,11.491335547108175
1782,1782,6.0088339999999505,0.0,2500.0,-2500.0,0.0,0.0,9.86025170667754,59.550189068078396,87.1068109780863,109.0,10.0,1.7002688679197586,1.9098193499695568,11.927914932515538,-0.05090534442567097,-0.21373080255808174,-0.26747253228042595,0.1569218400300837,-0.04760045515774848,0.05543633419170263,0.02046419361228264,-17.63783204064928,7.566235512715014,9.04855923501609,198.37116107140145,3.3742839117842816,-12.055411461647846,-0.6764324989190615,-0.8266006141150186,166.2518,167.01556446629635,6.0,10.18090246014113,0.4237432047211282,1.1646581878344735,-11.08384607032544,16.177308026422224,1.5574729000000002e-19,2.5195718846105103e-18,-11.798347142118946,1.9447738171056552,-2.449838339497938,11.730348569128902
1783,1783,6.101805999999982,0.0,2500.0,-2500.0,0.0,0.0,9.470390332044179,54.93455171469163,87.04184581358454,109.0,10.0,1.7153623847893604,1.9277428452412864,11.852918783260266,0.02402578488473294,-0.22149514543813584,-0.24941470428649576,0.15995796754721214,0.21854792089679514,0.007529928284707862,-0.052225437064711874,-17.162620903544294,7.764421256444748,8.916341570648001,197.2365002945173,3.326266505980962,-12.014777587222467,-0.4488075268962035,-0.7379689780017992,166.2518,166.95127759154718,6.0,10.060440784194457,0.2540806955051865,1.2289340415043135,-10.870318226551854,16.17694124257393,1.5574729000000002e-19,2.5195147590201222e-18,-11.729990186191044,2.097538192003824,-2.4314840640338318,11.71086514671775
1784,1784,6.216575999999947,0.0,2500.0,-2500.0,0.0,0.0,8.882773682058783,48.32860613206479,86.96835946230867,109.0,10.0,1.7441181577217255,1.962080835936698,11.815182228777685,0.1637983144780627,-0.2364072521920765,-0.1804460698014724,0.163510217550093,0.4337383419025636,-0.004985795437811082,-0.2103949021121448,-15.011260743915384,7.5877611421417885,7.997556347335113,195.846048385787,3.2923678348671106,-11.953646555846694,-0.2210193444227936,-0.7111633879653875,166.2518,166.88024463518045,6.0,9.772500411555932,0.2270729231794749,0.9443157740902064,-9.720094069970207,16.17526841209377,1.5574729000000002e-19,2.5192542202062086e-18,-11.67031057598926,2.020089058425259,-2.3852317091092274,11.551284107100436
1785,1785,6.310341999999935,0.0,2500.0,-2500.0,0.0,0.0,8.54259441455646,44.697759750664694,86.91396997783728,109.0,10.0,1.7747592759131419,1.9987573723190275,11.823075102268172,0.31314165145039946,-0.2338854958996638,-0.0911335346163039,0.16882791141486303,0.5014887223665923,-0.06340519174011314,-0.3529128322207794,-12.818516535545545,7.061780046779619,6.480090082148777,194.7130722986295,3.2854805493207504,-11.891872430957966,-0.06881905490071702,-0.7402914608209107,166.2518,166.82388888750685,6.0,9.443967322105527,0.45763302249539206,0.7723948248321909,-9.414084180031255,16.173323419988265,1.5574729000000002e-19,2.5189512929567043e-18,-11.642960220213794,1.7495485100058152,-2.290323925188877,11.128741674881383
1786,1786,6.406270999999947,0.0,2500.0,-2500.0,0.0,0.0,8.458506604621848,43.822128535966385,86.86078141885885,109.0,10.0,1.807762706671849,2.0384633003879102,11.778647114041865,0.1666439650074002,-0.21697022343947608,-0.07635049370467767,0.17298447662925998,0.9755965673057008,-0.03289014182886428,-0.3976879046104767,-9.081089208806935,6.480958688316612,4.420311749464653,193.56405215843085,3.296726735435495,-11.838313804614488,0.08473629665913054,-0.7134977121457354,166.2518,166.76975854750563,6.0,9.111025280421163,0.5399369349586729,0.4187958938643844,-9.973742495866293,16.171333560682232,1.5574729000000002e-19,2.5186413777623084e-18,-11.640648276663716,1.3125707992998377,-2.127399529010076,10.35685721313601
1787,1787,6.502787999999953,0.0,2500.0,-2500.0,0.0,0.0,8.616500158902031,45.47465411255693,86.81040195751865,109.0,10.0,1.8425444779874407,2.0804911774448853,11.683963161698232,-0.004570649729576548,-0.19321417964287735,-0.07684286957497677,0.1755470301458961,0.9371619923795802,-0.06663627579066979,-0.4575874249283884,-3.750225407443085,5.914544898644501,2.0796229295470456,192.41364492138112,3.3228980049881987,-11.779786496059053,0.1728089920556956,-0.7351961591267915,166.2518,166.719736715757,6.0,8.851290959077511,0.7325524749259891,-0.007201144417173455,-9.48282511367726,16.170490330157715,1.5574729000000002e-19,2.518510046893269e-18,-11.627365859438564,0.7240994633574294,-2.001367241132086,9.766370290171
1788,1788,6.600666999999959,0.0,2500.0,-2500.0,0.0,0.0,8.985782627767948,49.455933883977394,86.76007717413476,109.22314356309792,10.0,1.8700332682715244,2.1129257425239163,11.672059027181795,-0.03594880492709288,-0.19790839257048928,-0.0740633128848505,0.1788297010367043,0.19792105293561785,0.01097595315386133,-0.5783312986055998,-1.0181008801212459,5.599923802988694,-0.9170048116147144,191.25488290555907,3.359011194729254,-11.7249534478478,0.2260831035024465,-0.7755650488509126,166.2518,166.66522607032317,6.0,8.716468087827907,0.6136803508028068,-0.2286262547210266,-9.563773178298778,16.17038616350814,1.5574729000000002e-19,2.51849382321989e-18,-11.595422091064865,0.07227162094456238,-1.91965499074496,9.400217922796227
1789,1789,6.720678999999961,0.0,2500.0,-2500.0,0.0,0.0,9.726607812319042,57.94692549813858,86.6999517117793,109.83328927166036,10.0,1.8919985137797728,2.137331570866415,11.784326142630142,0.03922257742165668,-0.2270919909904964,-0.07650249028088918,0.1793216652839878,-0.3702992700893288,0.1233970326243645,-0.5825178935985011,-2.2897956271500144,6.0365584990969445,-5.095524665886517,189.84338837646092,3.4158448705283706,-11.685073104024243,0.3763998382979363,-0.6249625948465509,166.2518,166.6053552248711,6.0,8.784276782633103,1.4849714759263368,-1.8188436435456672,-12.514515782747953,16.17025844205667,1.5574729000000002e-19,2.518473930949949e-18,-11.541878254090747,-0.5853646802102596,-1.7778034568072236,8.756490582418108
1790,1790,6.81681999999995,0.0,2500.0,-2500.0,0.0,0.0,10.280485105306287,64.73423831935368,86.67142929478338,110.0,10.315368685159084,1.921337382701772,2.1698602321830447,11.836445755222131,0.08427388218069674,-0.18979430892422716,-0.0877458014478129,0.170915227857441,-0.3063714554782089,-0.16010534801763296,-0.4369587533883136,-4.281902993348998,5.76619963066664,-7.951281871539824,188.70902669349124,3.4846562631589637,-11.674930124290142,0.5830469770558068,-0.43519796443774383,166.2518,166.58560235724303,6.0,9.044101614205564,1.6524952356756029,-1.053918385717329,-11.504202727207366,16.169896919803787,1.5574729000000002e-19,2.5184176248387863e-18,-11.540703795080983,-0.912642939416382,-1.4940779905934392,7.376574722823935
1791,1791,6.911878999999971,0.0,2500.0,-2500.0,0.0,0.0,10.654958226056,69.53603650208312,86.6621390197548,110.0,10.78859097154469,1.9563558318943068,2.2086644596666645,11.868624397474067,0.10817404171166158,-0.15002337190868112,-0.0947393830623541,0.160201640456857,-0.16857059472495362,-0.17408448095025494,-0.29516229897950663,-5.679181498117934,4.561235957364795,-9.877777258414989,187.58671444209455,3.5734631665107863,-11.678845646878349,0.8221613165703663,-0.2439504614068192,166.2518,166.58097114482828,6.0,9.401668523821533,1.3402357699511342,-0.4120656559254489,-11.847302918860981,16.16939155161579,1.5574729000000002e-19,2.5183389151130543e-18,-11.590470631356661,-1.0739977158673435,-1.0687285556706023,5.26820496104768
1792,1792,7.0076809999999625,0.0,2500.0,-2500.0,0.0,0.0,10.971325813395474,73.72666803590536,86.66309169435915,110.0,10.746016552853863,1.9910488839343048,2.2468266426659826,11.871824982309015,0.10062632208174936,-0.12460673893950752,-0.09966952290448737,0.14689953237057665,0.03813227303516712,-0.1610196841394971,-0.2002648486984944,-5.950511682764276,3.432871014992484,-11.087399345077255,186.44660972833492,3.685005463090028,-11.68415074786342,1.073847903866752,-0.09662016883180223,166.2518,166.58602726421702,6.0,9.80967009125958,0.7291808298893375,-0.4239344778572919,-11.823323069478874,16.168882233369793,1.5574729000000002e-19,2.5182595901764928e-18,-11.64584306896951,-1.108531092840808,-0.7196603474134945,3.5361230977459623
1793,1793,7.127772999999962,0.0,2500.0,-2500.0,0.0,0.0,11.347738348180982,78.87237685786273,86.68386721751943,110.0,10.174133546672724,2.033940166586191,2.293721049172837,11.846662701920051,0.10092883951074162,-0.12126404541686725,-0.10323035258344046,0.1287819146369941,-0.007980410471904325,-9.252517690582636e-05,-0.13779332611719725,-6.133805824776075,2.8829603954300396,-12.241066928537524,185.0190657463824,3.8488570766982577,-11.671650408677163,1.3415761182346888,-0.008117842293428386,166.2518,166.60643483704882,6.0,10.35960490950211,0.3520055611381496,0.20930674669610985,-10.74577572417949,16.170972053940964,1.5574729000000002e-19,2.51858507406704e-18,-11.675529339371009,-1.098444150701266,-0.534166264646111,2.6195082460703927
1794,1794,7.220022999999969,0.0,2500.0,-2500.0,0.0,0.0,11.540853045054345,81.57971148109745,86.7037099308626,110.0,10.0,2.0467224971653377,2.3027247012011807,11.909523137873759,0.08939909007318829,-0.13848186975534627,-0.10480505937826697,0.11404043010629665,0.12188001604944255,0.1346894809385827,-0.1424332645969338,-6.027902524588009,3.2117424930463683,-12.984667531238973,183.9237690328264,4.002041888491322,-11.63642939006114,1.5309494167161417,0.0213117528345017,166.2518,166.63205588713674,6.0,10.773411021322913,0.4830645142317335,-1.075903350594024,-9.606620185821349,16.174066748195468,1.5574729000000002e-19,2.5190670643105567e-18,-11.665721775174953,-1.054524647631139,-0.5668611902698539,2.781930493261501
1795,1795,7.331947999999983,0.0,2500.0,-2500.0,0.0,0.0,11.622935843924436,82.74424929154155,86.73173003665414,110.0,10.0,2.0461643036454196,2.29212114503398,12.051275383290227,0.06699731673142183,-0.1711841399668862,-0.10763048346143808,0.09714978583219636,0.154812513265646,0.20379638261327887,-0.1469654218713849,-5.255889124234554,4.302541488955686,-13.942438763149381,182.60746477181888,4.205093551430651,-11.573421476232808,1.7337993987632117,0.08590493850690184,166.2518,166.66891858334574,6.0,11.209851553701869,0.8167085112924027,-0.4343094339438951,-10.963230818094845,16.177821476156822,1.5574729000000002e-19,2.519651853015225e-18,-11.623814619285787,-1.0305279569401773,-0.7020900612738028,3.4565231737182187
1796,1796,7.428097999999949,0.0,2500.0,-2500.0,0.0,0.0,11.645102417066676,83.0601452778668,86.76184570555115,110.0,10.330902370581224,2.1095333213320693,2.357496790710313,12.088367366811864,0.054758777076893334,-0.19147243892973426,-0.1098838391217428,0.08560747514700978,0.15724874133354094,0.17366020314439046,-0.15376935192170024,-4.679166589932531,5.32993479457497,-14.821295805882027,181.4736303362231,4.406974191524534,-11.504744965828786,1.90285775371659,0.21419515647977533,166.2518,166.70060734897092,6.0,11.502480663142242,0.9142377536347532,-1.2843908857535058,-11.781298073533366,16.179737803580807,1.5574729000000002e-19,2.519950315818263e-18,-11.578428278309632,-1.028085437212461,-0.7596933550783141,3.753956978594193
1797,1797,7.526367999999934,0.0,2500.0,-2500.0,0.0,0.0,11.574892698505945,82.06163348579366,86.79734919777898,110.0,10.845383439437025,2.208313789448596,2.463994371963464,12.081164631847882,0.05093305072763626,-0.20515090125348456,-0.11385197675632028,0.07589935085763724,0.15004502049899415,0.13582865517753626,-0.15312696438291934,-3.941491995457956,6.165460751884602,-15.749011171083255,180.3284980947721,4.625972152984351,-11.422944133351967,2.0690854351691423,0.3692313421526476,166.2518,166.74146897579058,6.0,11.720507040318484,0.4733785325558946,-0.7626761668157428,-11.369824911028775,16.181211830722606,1.5574729000000002e-19,2.520179891550985e-18,-11.5285408715695,-1.0425565977904216,-0.7528107022069382,3.7360951281884094
1798,1798,7.622042999999962,0.0,2500.0,-2500.0,0.0,0.0,11.545502287475962,81.64541670046503,86.83773954875133,110.0,11.0,2.4430678536824955,2.7244467021479264,12.007860895383761,0.11744886619881892,-0.21638578061309874,-0.1235534577939056,0.06800314172007528,0.1300947697475667,0.09957201870968133,-0.16753371434781772,-3.1734501760641765,6.757071692146673,-16.697311317306777,179.21020328882142,4.856466845212462,-11.34247682062059,2.2197898250876738,0.4998888523987727,166.2518,166.79061618190002,6.0,11.854043339636764,0.7927060634433969,-0.634417204035891,-10.836319366727304,16.18264693346802,1.5574729000000002e-19,2.520403404914455e-18,-11.480935832608788,-1.0773704979858556,-0.7223251748066568,3.6000294131366117
1799,1799,7.719796999999943,0.0,2500.0,-2500.0,0.0,0.0,11.616831426328034,82.65735371170997,86.88609614202352,110.0,11.0,2.746145828616632,3.0620775406739025,11.902721467597162,0.20834975822416246,-0.2255471273869004,-0.12436447520494917,0.062036774137967376,0.11579260531312872,0.06816186317144159,-0.17521451615068445,-2.7894351889361637,7.201573699212482,-17.684942985707067,178.07997275226452,5.103116083685807,-11.253414546077378,2.3470738641053197,0.5898526906075845,166.2518,166.84121503022132,6.0,11.953283221139893,1.0378587460114577,-1.100700715268579,-10.751634653901512,16.18152367146797,1.5574729000000002e-19,2.5202284599019866e-18,-11.418333418940726,-1.1318299156977984,-0.6990106023213002,3.503176528095732
1800,1800,7.836713999999972,0.0,2500.0,-2500.0,0.0,0.0,11.556003902297988,81.79400558210338,86.95031244588573,110.0,10.586098096376343,3.0423951170570724,3.3877788383994565,11.878830959012332,0.2456138438326645,-0.23595953858563634,-0.11909238561869642,0.056451684989373585,0.2469811129137509,0.08191594898138926,-0.1820299144097144,-1.7454909074737857,7.625766854592184,-18.861090536245612,176.73794571458626,5.418054798282716,-11.136565697413623,2.4950788572369644,0.6588853115371072,166.2518,166.90311444455557,6.0,12.015861995698485,0.3120797012547444,-1.2410753928085785,-10.58322056942597,16.178342317509813,1.5574729000000002e-19,2.519732972644473e-18,-11.332283563275563,-1.202141298656366,-0.6876500528686071,3.47248584795304
1801,1801,7.933368999999971,0.0,2500.0,-2500.0,0.0,0.0,11.521553571374106,81.30705526612779,87.00875745221461,110.0,10.102791681459298,3.264716116249556,3.6303987553490966,11.89381345787476,0.24999299491100266,-0.24225514804100926,-0.11150414102523576,0.05406965844614734,0.3203402541121817,0.0595157203710508,-0.19522925495956328,-0.2685611359269825,7.944739935508821,-19.920867372627185,175.64546066577284,5.68976087494438,-11.033806850131139,2.5983769563764563,0.6798073921108102,166.2518,166.95722043139602,6.0,12.01512877561414,0.6831888644693245,-0.5882178302321861,-10.119506484596883,16.175712299917627,1.5574729000000002e-19,2.519323354531838e-18,-11.24480990179816,-1.2997848993381078,-0.7009195360170639,3.5667868721106397
1802,1802,8.02895799999996,0.0,2500.0,-2500.0,0.0,0.0,11.4882838386059,80.83815426273456,87.06196883374895,110.0,10.0,3.2023495759860436,3.5551933265191487,11.795181912784123,0.15725878786834685,-0.25085389714036843,-0.10230854471431156,0.05357655435760554,0.33044255935688555,0.04619402923399135,-0.21735672334287975,1.373470013060392,8.205242307999237,-21.034107249953056,174.56872094032275,5.955254899330938,-10.934122003066898,2.669418912107277,0.6495287351250287,166.2518,167.00927096322945,6.0,11.982219363434249,0.058287992140802936,-1.0331154125516968,-9.578256266450383,16.175841089996165,1.5574729000000002e-19,2.519343413237549e-18,-11.142085364067222,-1.441078639694659,-0.7456076081652672,3.8284190984267457
1803,1803,8.124649999999946,0.0,2500.0,-2500.0,0.0,0.0,11.481594634849019,80.74404528983001,87.11037110353882,110.0,10.0,3.0625066145517383,3.3934702838556947,11.665328298301532,0.043224646765737736,-0.2647109640081439,-0.0947189764635896,0.05428813170865495,0.22693266240270976,0.08287556289505582,-0.22463476372784288,2.7744968319346377,8.639060996414857,-22.237550884994086,173.50187485163391,6.223678215933564,-10.835971034149301,2.721308017728028,0.6237978605535103,166.2518,167.05705619591106,6.0,11.927794032850356,0.2301198765977276,-1.2290326678808663,-9.372912997242526,16.17693408409352,1.5574729000000002e-19,2.5195136441061985e-18,-11.028110619231288,-1.6145562965174975,-0.8057324962776741,4.1787022185218925
