,Unnamed: 0,timestamp,thrustinput,Position state,Position state2,PA-ON,PA-ON2,Airspeed[m/s],Differential Pressure[Pa],GPS Altitude[m],GPS Noise Magitude/ms,GPS Satellite Num.,Horizontal accuracy[m],Vertical accuracy[m],Groundspeed[m/s],Roll control,Pitch control,Yaw control,Thrust control,Roll Angular Rate[deg/s],Pitch Angular Rate[deg/s],Yaw Angular Rate[deg/s],Roll angle[deg],Pitch angle[deg],Yaw angle[deg],Local X[m],Local Y[m],X-velocity[m/s],Y-Velocity[m/s],Z-Velocity[m/s],altitude set position,altitude(Tecs),airspeed set position,airspeed(Tecs),X-acceleration[m/s^2],Y-acceleration[m/s^2],Z-acceleration[m/s^2],Battery Voltage[V],Battery Current[A],Inst. power[Ws],Body_Uvelocity[m/s],Body_Vvelocity[m/s],Body_Wvelocity[m/s],A.O.A.[deg]
1255,1255,0.0,0.0,2500.0,-2500.0,0.0,0.0,15.228418907616144,142.0417273480578,140.9744994905919,104.0,12.0,2.101223748105766,3.1130002,14.668551376903936,-0.10215237886364092,-0.3227754329323165,-0.12334691641905415,0.213456939638956,-0.1607910567088317,0.1638205134179251,-0.008687644172056518,-3.07328729262939,5.942687846580795,2.8676814096983807,-241.9684473712408,3.2808452164753885,14.568165525607126,1.7858196166164533,0.19623742471797373,221.28465,219.94495071481205,6.016855617391293,15.360595375534265,2.697737058582211,0.10814651055030378,-8.649456333480726,16.06751933333333,1.5574729000000002e-19,2.502472593189273e-18,14.540276931426856,0.9573520752657424,1.5991768190880873,6.276310958306543
1256,1256,0.09643099999999549,0.0,2500.0,-2500.0,0.0,0.0,14.824496469174075,134.6065989207137,141.05751577043313,104.0,12.0,2.1049069467889385,3.1130002,14.582248965141131,-0.09704954192979873,-0.32086006779880744,-0.12593281965800338,0.2051305692474091,0.12822498199319654,0.13201027282275113,-0.10681472867175013,-3.6456704041488415,6.846290328508358,2.6734046717813054,-240.6004122109737,3.4489294065310263,14.421262881935938,1.6104941970129019,0.3642554548440817,221.28465,220.04635866519126,6.0,15.310116609003108,-1.1259005930951551,-0.8843890161706721,-14.222492847506109,16.076451612940005,1.5574729000000002e-19,2.5038637715315357e-18,14.334009505702028,0.7966609616317106,1.9720319230940635,7.833413820776262
1257,1257,0.1920029999999997,0.0,2500.0,-2500.0,0.0,0.0,14.432751748666432,127.58646237107573,141.14207214197862,104.0,12.0,2.1081731558852845,3.1130002,14.363412955685945,0.00022957353633816513,-0.34480024225806505,-0.1199148728823418,0.20836121901574575,0.011448834517120268,0.1916195586659185,-0.030971889335294787,-4.164883034785465,8.04873753035022,2.5938809607298867,-239.2597061694321,3.602235597421418,14.254467429353747,1.441369472853061,0.5921630824265458,221.28465,220.140124366711,6.000029706996005,15.142037227777006,0.7000247521203821,0.4424313574208074,-11.453593516798731,16.08636206489337,1.5574729000000002e-19,2.505407297565946e-18,14.08126670638041,0.5989087725957597,2.4711429263546965,9.95356852448848
1258,1258,0.3147910000000138,0.0,2500.0,-2500.0,0.0,0.0,13.936752500472501,118.96795037334441,141.2899907028715,104.0,12.0,2.1108291127682373,3.1125429718079407,14.084415956854837,0.03235727070616848,-0.3729940430854164,-0.12019808243635355,0.21581337558562008,-0.08779730153105739,0.17363128286908686,0.08387985159978709,-4.182229074130482,9.330242433368172,2.579838699336531,-237.5592590872713,3.783842394885564,13.999068048042627,1.2035410398467723,0.9401897070812631,221.28465,220.2847818189991,6.0000005342822895,14.799914134027526,-0.9017133731238144,-1.6152057122941916,-13.587199166487474,16.099947914497832,1.5574729000000002e-19,2.507523256824189e-18,13.700892016481733,0.3309809863938589,3.1025288346403213,12.759282760982137
1259,1259,0.4100559999999973,0.0,2500.0,-2500.0,0.0,0.0,13.638784362575615,113.93516707265181,141.4132306881883,104.0,12.0,2.1125963803349395,3.112101154916265,13.868367055008578,0.007797008143890448,-0.3902897779181516,-0.1197819948541715,0.2223727132992701,0.05483780691382464,0.12756151756297238,0.03179998858151481,-3.0093353244520142,9.925190846292688,2.518843055520144,-236.267602030318,3.907845459984424,13.790916872330635,1.066131757554988,1.1809439594858375,221.28465,220.4193552574593,6.0,14.468320394870807,0.9705640992620064,-2.549921460171664,-11.19336580705524,16.110488488190445,1.5574729000000002e-19,2.5091649226118587e-18,13.413994951857042,0.2659848304671683,3.4620739431150143,14.471887242538733
1260,1260,0.5040870000000268,0.0,2500.0,-2500.0,0.0,0.0,13.311657113033496,108.53518534025447,141.56491951177358,104.0,12.0,2.1136954818307787,3.1113048138665165,13.694532105501162,-0.006594538088906094,-0.4038434503300416,-0.11813925854000558,0.22975917243589505,-0.0677790226596896,0.04629309262901096,-0.025807810672645586,-1.9864294188024976,10.299619599972123,2.2623421447404235,-235.01405224009974,4.0282806481832605,13.571834154132606,0.979133980509616,1.3429672577552338,221.28465,220.57048756454216,6.0,14.109653379689355,0.5709931200170307,-3.859633084449922,-9.827228528260006,16.117303572859015,1.5574729000000002e-19,2.510226353580109e-18,13.140644452962382,0.3054024496910517,3.6715375109020174,15.610530923954355
1261,1261,0.6001370000000179,0.0,2500.0,-2500.0,0.0,0.0,13.095237442302865,105.03473833792219,141.72131378768782,104.0,12.0,2.114619631393436,3.1103805256675616,13.529092789854028,-0.020721667737966663,-0.4156587035522916,-0.1168585607863195,0.23838936154139165,0.19238933008756204,-0.00017224233669862858,-0.1070933030559403,-1.5028139463939991,10.441111916307053,1.7479277691765212,-233.75693147962428,4.1446280059029315,13.351007446634009,0.8950568300059812,1.4226222384318905,221.28465,220.72728903596402,6.0,13.725641216183824,0.2997000668797211,-4.221785912984438,-9.155189133659533,16.12306387801684,1.5574729000000002e-19,2.5111235054980136e-18,12.892862656764539,0.3790854974416824,3.732777866476068,16.146935993112688
1262,1262,0.7199200000000019,0.0,2500.0,-2500.0,0.0,0.0,12.837399776634465,100.93929572286322,141.9307222556238,104.0,12.0,2.115810651096778,3.1100001,13.323189313547767,-0.028340546848809926,-0.43271790968458895,-0.11530540157561425,0.2501619148003427,0.1667923428959818,-0.009961559613726507,-0.15813437007917153,-0.8387907640641766,10.603857665702042,0.9629750239319952,-232.21610028599503,4.2997282358782565,13.079491694759385,0.8328571045420535,1.4439036170249604,221.28465,220.92693144654717,6.0,13.260380846157709,-0.6410176938339563,1.5256648849925272,-11.357177882175765,16.130247497305962,1.5574729000000002e-19,2.512242334734686e-18,12.602371600552967,0.5464112506804588,3.71513900756512,16.425348990159236
1263,1263,0.8139830000000075,0.0,2500.0,-2500.0,0.0,0.0,12.758851319019431,99.70785636837452,142.09758454324032,104.0,12.0,2.116760835197915,3.1100001,13.16165801635448,-0.027143723788262842,-0.44111559934532696,-0.11543073657180775,0.25631723243880944,-0.06084460722750028,0.016684885600078997,-0.08755968832401922,-0.8540717471731851,10.607776375462183,0.30199402458149177,-231.03246094234848,4.417859889296698,12.880732737231215,0.7718603663690176,1.416056252274156,221.28465,221.08527233996026,6.0,12.937374225049734,0.14530483903303648,1.8360209854483336,-9.955985720110872,16.134513654321932,1.5574729000000002e-19,2.5129067771286374e-18,12.403754363327547,0.6358266500832622,3.633712763335936,16.32808623022567
1264,1264,0.9115730000000326,0.0,2500.0,-2500.0,0.0,0.0,12.715550210436033,99.03220913785314,142.28018425441792,104.0,12.0,2.117716424452176,3.108925534957017,12.896065573671516,-0.030583737057866368,-0.4444964938709552,-0.1155063510378153,0.2596233006055263,-0.18094978448779772,-0.003151060225953267,-0.03329789733801961,-0.4560693428712834,10.50026282593663,-0.3275565790501808,-229.8225690086124,4.546857031069019,12.680582764371655,0.6980722310890107,1.3961675255214,221.28465,221.25578098021168,6.0,12.65873782374596,1.216694746693614,-1.3901994045625707,-8.117792499044599,16.13870180373925,1.5574729000000002e-19,2.5135590700505004e-18,12.209669275877554,0.7283354123127753,3.542389643838777,16.179022036209
1265,1265,1.008117000000027,0.0,2500.0,-2500.0,0.0,0.0,12.725860222390759,99.19286018810655,142.45918887896522,104.0,12.0,2.118652194161716,3.1075219739603224,12.602263732945064,0.012162079020348049,-0.4468921818978967,-0.11512859310778502,0.261192230229989,0.193878228440036,-0.06451534850844633,-0.1338318428583704,-0.1217120579634836,10.25089499745331,-0.8848968725168214,-228.6445373128776,4.666768081293752,12.490699702964358,0.6224894887326495,1.3156412698983897,221.28465,221.42752158952118,6.0,12.450003350151205,-0.3761603770247999,-3.943023738140528,-7.72579623657239,16.14284506326733,1.5574729000000002e-19,2.5142043714937656e-18,12.046266029080426,0.7948364327112994,3.370395237762872,15.630958196497463
1266,1266,1.12554700000004,0.0,2500.0,-2500.0,0.0,0.0,12.562508669947649,96.66270173254291,142.65799067762526,104.0,12.0,2.1198422743280374,3.1061579677798887,12.428996950664208,0.07629114478645296,-0.4442048902167552,-0.11710331063467355,0.2618195017917182,0.029191655414424894,-0.08038873136479803,-0.0801050093174847,-0.4278053022330238,9.882601481195737,-1.4523613177893522,-227.23557734401982,4.809127117864198,12.279763176334836,0.5596135644573659,1.1803636320493092,221.28465,221.62746041998193,6.0,12.243430177485097,0.9324676290723599,-0.007134723479822469,-7.066506112547297,16.147154080506667,1.5574729000000002e-19,2.5148754892513557e-18,11.877104243029384,0.8333588392073874,3.117787732579627,14.708519934831864
1267,1267,1.2214850000000297,0.0,2500.0,-2500.0,0.0,0.0,12.331491897865755,93.14026954268145,142.81250224520025,104.0,12.0,2.1208332088382957,3.1051670828213123,12.353678396029165,0.11863745392503725,-0.4406954000671852,-0.11602943560378355,0.2614109899009901,-0.043386342335203776,-0.09521460224952014,-0.014356397233251024,-0.14554591549762208,9.418143021439166,-1.8491559692022432,-226.10408721787,4.916247326931802,12.123445829066002,0.4730983522644541,1.045409610852983,221.28465,221.78249142100898,6.0,12.083261043491738,0.5939171377386011,-4.354459424450072,-7.007752731027068,16.15049879898,1.5574729000000002e-19,2.5153964200893898e-18,11.767668912919204,0.8447569972368892,2.870245275218358,13.707338415040633
1268,1268,1.317921000000041,0.0,2500.0,-2500.0,0.0,0.0,11.981556936215409,87.9291461445777,142.94174724649974,104.0,12.0,2.121,3.103397736873672,12.197582356591878,0.15671818902948065,-0.4374918321195118,-0.11007564929199676,0.2620262916509637,0.2678644926340021,-0.10808209156476747,-0.028517472695297592,1.0525886914539524,8.955952394234686,-2.1346587474644285,-224.9719138853284,5.02516850752658,11.981375568025689,0.4190788862328661,0.8835105114355775,221.28465,221.92159873065685,6.0,11.898606033329767,0.1622647562184968,1.424586130146884,-9.04672596217556,16.15386087939333,1.5574729000000002e-19,2.515920055002529e-18,11.674128983721747,0.9047539437623888,2.5990848322489803,12.551413932710087
1269,1269,1.4159440000000245,0.0,2500.0,-2500.0,0.0,0.0,11.672744901485805,83.45502546870763,143.06926774407913,104.0,12.0,2.121,3.1014411799120825,12.022483640933292,0.22243737963564447,-0.4373234170191365,-0.09721927352365264,0.2645089515507423,0.6197149836034977,-0.09359852051983047,-0.08946511846889317,3.115482304096815,8.553429652775936,-2.370736917961992,-223.83340853686587,5.1265295067433065,11.85429549532618,0.3825911307963039,0.7163592827368306,221.28465,222.04482837630147,6.0,11.68020834952894,0.795073091040664,0.9290520371558948,-7.644180005398844,16.156587175143873,1.5574729000000002e-19,2.516344668177414e-18,11.59021858088811,0.997027935910884,2.3342039705765374,11.386726805844171
1270,1270,1.5116290000000276,0.0,2500.0,-2500.0,0.0,0.0,11.492213147756972,80.89350455692238,143.16906419404532,104.0,12.0,2.121748453259355,3.1010000000000004,11.884583943021042,0.2801824569634853,-0.434619127103059,-0.08011427677849309,0.2681866581072612,0.2504545713513251,-0.030906972435929787,0.000903773403682622,5.5532455776930885,8.243672171431577,-2.6183230075989994,-222.72962785335991,5.23079512747443,11.741115271739115,0.35935139110113523,0.544289652607676,221.28465,222.148795129282,6.0,11.466864768607936,1.1151774802042316,-2.5704650339967694,-6.706223459635727,16.159107922184138,1.5574729000000002e-19,2.51673726769771e-18,11.513377588315684,1.1007286887575691,2.079247816519292,10.236940269974221
1271,1271,1.6324109999999905,0.0,2500.0,-2500.0,0.0,0.0,11.265312273805671,77.73072163877174,143.28246779267687,104.0,12.0,2.122977010264756,3.1010000000000004,11.723036159921492,0.3950590152065048,-0.4292269854776984,-0.06061034628063657,0.2734500060539899,0.5518709446542913,-0.08730955583601008,-0.09822230987362757,8.072622487691932,7.915377942399043,-3.1150152062060537,-221.34898628833847,5.35670539533874,11.599988223531478,0.36649826703690574,0.36831648848469545,221.28465,222.25939453650696,6.0,11.220860863412756,-0.1861934475477709,0.5947293754842198,-10.328602423669192,16.162289830205427,1.5574729000000002e-19,2.5172328412490556e-18,11.402046712998162,1.2616515948631928,1.8005481434793746,8.97372963783802
1272,1272,1.7266970000000015,0.0,2500.0,-2500.0,0.0,0.0,11.232786136043117,77.28249485064593,143.33913816315268,104.0,12.0,2.1243830897529667,3.1028440631674923,11.684043464974025,0.3194977495418037,-0.4137507229562164,-0.04380926383993717,0.2793617627234473,0.348385636008507,-0.060781745414540025,0.017159687584331576,10.633178073202584,7.5147715286933305,-3.4253464863222094,-220.27614534223036,5.454421930062819,11.514608389337267,0.3997524668585285,0.2104486196178296,221.28465,222.33371595415917,6.0,11.05214836209118,0.9545651642952224,-3.5754208562800582,-6.762084460330089,16.163185482857912,1.5574729000000002e-19,2.5173723367224617e-18,11.344115118140126,1.3929720194164041,1.5372256839900251,7.717067498286878
1273,1273,1.822541000000001,0.0,2500.0,-2500.0,0.0,0.0,11.417929888550367,79.85110743220088,143.38803832154923,104.0,12.0,2.1258236138996742,3.1047648420562197,11.646591085572297,0.18909277562862087,-0.3963395327838775,-0.027938409154408542,0.28581713070411724,0.2410345092221259,-0.014565855462307459,0.046197926008024456,13.854389757380707,7.1508761619332875,-3.7212839984632247,-219.18994019913936,5.554423685404787,11.43566619838887,0.4510452193185253,0.02411616263583685,221.28465,222.38091051504716,6.0,10.958957282377618,-0.27151576810174793,-4.482593718432903,-6.968749508155758,16.164039307747682,1.5574729000000002e-19,2.517505317635178e-18,11.290745021722262,1.5280422394240285,1.250485908903846,6.319933071527221
1274,1274,1.9421399999999949,0.0,2500.0,-2500.0,0.0,0.0,11.507968926908298,81.11543229836761,143.38984386922874,104.0,12.0,2.1270540119854395,3.1055272059927197,11.640419650892925,0.03771357145277216,-0.3788829141750404,-0.014746221540317447,0.29243488079119256,0.4492918923335084,-0.030753359077406575,-0.02458665566771974,16.89458567532665,6.92764167539572,-3.9410021516502716,-217.8325771220076,5.685415426189778,11.36345942843958,0.5586503425353215,-0.2482246598845987,221.28465,222.39305486215602,6.0,10.95221735196417,1.6845208508425198,-3.540802912293163,-5.801457718044591,16.165080579477507,1.5574729000000002e-19,2.5176674928852513e-18,11.24564793775401,1.6529784568719679,0.9067244356589564,4.609724710902191
1275,1275,2.040494000000024,0.0,2500.0,-2500.0,0.0,0.0,11.608095728381965,82.53309777860306,143.38366029519472,104.0,12.0,2.1280154098787434,3.106023314818115,11.637290503459484,-0.10651250513402397,-0.3750985638015668,-0.021993670258222048,0.2954783921716696,0.4899185759598264,-0.025061660380626686,-0.0002233316656830575,18.24673301155514,6.900326896520043,-3.7192244567661783,-216.7218796036158,5.801541718351271,11.307205927302904,0.6812676772727146,-0.4089192317643364,221.28465,222.3715466312595,6.0,10.997830380880112,-0.26145023197441986,-1.4395782514578443,-10.232379546500354,16.165590015838838,1.5574729000000002e-19,2.5177468362179567e-18,11.20691923970314,1.698746494085006,0.7270663801306176,3.7119511412435977
1276,1276,2.136394999999993,0.0,2500.0,-2500.0,0.0,0.0,11.648671816183052,83.11110150688361,143.3626652553837,104.0,12.0,2.128975658599593,3.10746368789939,11.530702895445154,-0.21737084821605124,-0.3768365696360433,-0.05298948630588826,0.2946499031032392,0.05593501295345288,-0.01988552948160834,0.1404344807171506,18.701855303571477,6.693275861628507,-3.062563475088523,-215.63395288361775,5.933922441404016,11.27343952673404,0.8388085813692286,-0.5284621858640886,221.28465,222.3393356626032,6.0,11.086006277723145,1.8026305672550773,-3.365703761873493,-6.751958370033541,16.166086746591915,1.5574729000000002e-19,2.517824200686608e-18,11.19769787988745,1.6808408945984072,0.5728887145345201,2.9287726751280565
1277,1277,2.2324520000000234,0.0,2500.0,-2500.0,0.0,0.0,11.570161866035185,81.99454939106903,143.3382502700673,104.0,12.0,2.129937469335443,3.1089064040031644,11.423941903765837,-0.2669691529291133,-0.3720258598166497,-0.07837991466258151,0.29082374119613563,0.07445854151518383,-0.054971828361957686,0.1743856534869702,17.863119910103286,6.287976183326746,-1.9472082717948491,-214.55109890039398,6.077122255961944,11.236969456325047,1.0151176378003806,-0.60183179594966,221.28465,222.3043220876827,6.0,11.165436187593196,2.149250325445193,-3.07032728091642,-5.836882728133767,16.16658428536574,1.5574729000000002e-19,2.5179016910023007e-18,11.19454900471032,1.5805948472522937,0.4448250624753708,2.2755001079457826
1278,1278,2.350073000000009,0.0,2500.0,-2500.0,0.0,0.0,11.440115766390988,80.16175028041187,143.2932028010353,104.0,12.0,2.1316796228836266,3.1106797668980635,11.422039700694187,-0.25370985596895185,-0.348156036998706,-0.10322960829236767,0.2831063677878395,-0.4458962295075795,-0.10711540217176732,0.3182863054179015,14.878500559645715,5.3071544141129205,-0.1210602868619336,-213.22455734664064,6.275753504209432,11.19049619893466,1.204907199263471,-0.7425470620316371,221.28465,222.2509011972668,6.0,11.238903017330172,2.01904086911659,-2.0366559975732814,-5.4387083791643,16.167687868947812,1.5574729000000002e-19,2.518073571154497e-18,11.208646316785924,1.2991482261456817,0.17192174459972276,0.8787517887821626
1279,1279,2.4472920000000045,0.0,2500.0,-2500.0,0.0,0.0,11.392825589069846,79.50034868183344,143.25308683572902,104.0,12.0,2.133095571992131,3.1120956672182927,11.431109006979352,-0.2662908816691254,-0.32971336332645146,-0.127256539808058,0.2772451134349563,-0.2287402109402692,-0.10044754082667218,0.3338649878239236,12.139441473908095,4.3596507583596065,1.7601185124041638,-212.1324819016711,6.460263991678655,11.154977827503311,1.3359470596886416,-0.8094342800426623,221.28465,222.20372133277147,6.0,11.27052545988516,-0.14078810949292464,0.8193816415489386,-11.161467131384908,16.168611556485953,1.5574729000000002e-19,2.5182174329853688e-18,11.219898950551007,0.998986226788499,-0.03284275504815637,-0.16771504677633833
1280,1280,2.535299000000009,0.0,2500.0,-2500.0,0.0,0.0,11.374259407751145,79.24144667440069,143.21132247507347,104.0,12.0,2.1339655454453785,3.1129655971706933,11.47765491402346,-0.24875296914950115,-0.3075931442298425,-0.13969046381431416,0.2728842653355903,-0.6715018394922591,-0.06726683722236708,0.4816312408321658,9.947586172086961,3.5566644624770545,3.7455497126633728,-211.14514215747195,6.636146213583154,11.140678011576489,1.4294742112521586,-0.8584012102222774,221.28465,222.1630842359584,6.0,11.300724852488505,0.693653577851025,-3.2707634135050885,-8.637752767598663,16.169447719881674,1.5574729000000002e-19,2.5183476631682502e-18,11.241922592186253,0.6694372837482537,-0.20222799062872446,-1.0305675652925241
1281,1281,2.652315000000044,0.0,2500.0,-2500.0,0.0,0.0,11.414024172681382,79.79647134558873,143.14973069736453,104.0,12.0,2.135,3.1138103672059434,11.5251627813014,-0.18531444526876392,-0.28460542079420936,-0.1439545654573144,0.2677625584548486,-0.2866296019559119,-0.051350066325937097,0.38961872809366144,6.882530108691396,2.7019198572981153,6.47719365603325,-209.82914312194828,6.8768712028621435,11.126017184487525,1.5429137428721482,-0.9146609256536608,221.28465,222.09989277651584,6.0,11.35187426384764,1.1939883447712554,0.5074243735973551,-8.134277070729723,16.17299689785251,1.5574729000000002e-19,2.5189004380189355e-18,11.259684244764252,0.23160229242242966,-0.3946414072740484,-2.007341816870233
1282,1282,2.747690000000034,0.0,2500.0,-2500.0,0.0,0.0,11.359003747653878,79.0290125467066,143.08796634446946,104.0,12.0,2.135,3.1123482631046433,11.464728657746265,-0.14927087336343942,-0.2726542358826329,-0.14337662897283185,0.2649226304875065,-0.14127294302014914,-0.015702474763819373,0.3894841551364641,4.977979372979253,2.329998023124843,8.79673955146441,-208.7531979035433,7.082396722982656,11.121654412802927,1.6094678245358267,-0.9570596560811292,221.28465,222.04008377116313,6.0,11.391508341507276,-0.02416916065381991,0.7209810898065319,-10.274170097993588,16.175922899509303,1.5574729000000002e-19,2.519356154847516e-18,11.266585607448521,-0.15354018627576488,-0.4930625177700136,-2.505851170208712
1283,1283,2.844458000000003,0.0,2500.0,-2500.0,0.0,0.0,11.255346781574078,77.59323821046699,143.0213183872549,104.0,12.0,2.135,3.1110864707020207,11.41440387848842,-0.13601677131962406,-0.26595602611317193,-0.14238564136182216,0.2645057109883264,-0.22283375327601995,0.02887831144054908,0.4469131704921411,4.052321774900096,2.1850607114728096,11.128681423820193,-207.66047377415984,7.298123419267823,11.110786338031263,1.7115745155561,-1.0142077847984765,221.28465,221.97382999499297,6.0,11.41019553054276,0.3003822546341044,3.3042980212592488,-10.538290449742814,16.178712802395687,1.5574729000000002e-19,2.519790674661434e-18,11.262719307847945,-0.5061551995678214,-0.5660191659750093,-2.8770358987515
1284,1284,2.966384000000005,0.0,2500.0,-2500.0,0.0,0.0,10.895879442145366,72.71627089041556,142.92128076330533,104.0,12.0,2.135,3.1122819607592267,11.489114535998068,-0.13799602909496378,-0.2587447406715355,-0.13935563722618236,0.2665855133236759,0.07313524244996805,0.01021223469115316,0.3043639314898817,3.7969307455799526,2.205841666353785,13.737514857931117,-206.27892350974514,7.572807647099585,11.103398499499269,1.868697253639921,-0.9753228056775342,221.28465,221.88215087021683,6.0,11.356643404935568,0.5242262312210079,-2.4782046962476763,-9.159560948617349,16.179448733344664,1.5574729000000002e-19,2.5199052939123646e-18,11.258759091481993,-0.8568377441904482,-0.5095676171149897,-2.591419056754176
1285,1285,3.06097299999999,0.0,2500.0,-2500.0,0.0,0.0,10.710580202563897,70.26388064483298,142.84149623603457,104.0,12.0,2.1348922357409457,3.1124613571518767,11.5504879316353,-0.13153536333592675,-0.25101564643901475,-0.1330877048895626,0.2705902302722879,0.07159938964327545,-0.016734712757863427,0.1759458975975205,3.6451208895282763,2.117700563974759,15.228124979798816,-205.20540813412984,7.803362195040398,11.089633535858647,2.009088429121128,-0.9278879979469372,221.28465,221.80783179919442,6.0,11.242757021632114,0.002373454358222227,-0.26342011565559753,-10.394381561802,16.18001966138735,1.5574729000000002e-19,2.519994214407798e-18,11.254582931758245,-1.0061982788822907,-0.4753148109571492,-2.418335587944361
1286,1286,3.158057000000042,0.0,2500.0,-2500.0,0.0,0.0,10.658694266027547,69.58475590173737,142.75650880696645,104.0,12.0,2.1344019050793697,3.110009605777865,11.625508522856427,-0.12385337080650825,-0.2469045741920865,-0.12801317532168094,0.27556686869363145,-0.14444695852619682,0.01996554800520687,0.1867878623355263,3.2493070777685316,2.0659032641326007,16.230926490971893,-204.10506877070657,8.04982594893741,11.069610407583596,2.1349585154115696,-0.9452560025032712,221.28465,221.7278220961683,6.0,11.120079412471789,0.14192282427753775,3.5648330002677358,-10.693589783632072,16.180502572176554,1.5574729000000002e-19,2.520069426454528e-18,11.251928877939324,-1.074122909704441,-0.5014758925865341,-2.5518692225984343
1287,1287,3.2667220000000157,0.0,2500.0,-2500.0,0.0,0.0,10.572028262113482,68.45776953618105,142.64879289626882,104.0,12.0,2.145836349842764,3.124366314321379,11.728354058452974,-0.09710590105735684,-0.2526279255866929,-0.11827832733037927,0.28298059637355244,0.08724910886122217,0.03644255387599099,0.062282672123142785,3.2119862638706698,2.2073918032589304,17.051013519008222,-202.87055741081699,8.328477860068352,11.055920434518132,2.246187062067503,-1.0325712311554134,221.28465,221.6195078360557,6.0,10.980944118537376,1.3901430778891346,-0.7819118902280229,-8.202488128301889,16.18062039922009,1.5574729000000002e-19,2.5200877776972473e-18,11.260020040824578,-1.1271646359930578,-0.5562227878438102,-2.8279997665271903
1288,1288,3.3641890000000103,0.0,2500.0,-2500.0,0.0,0.0,10.659688433064447,69.59779566482378,142.5332186259035,104.0,12.0,2.1854957919041857,3.1792040728542204,11.866916952166596,-0.02988800173339175,-0.26119415914203165,-0.10712691533525984,0.28957777172194743,0.2639216844767547,0.04196015167909303,-0.025254477362435537,2.934225045562241,2.5569662993334474,17.523987541150515,-201.74805471866756,8.591862372894328,11.040810367947593,2.3472419354177103,-1.0717531256006756,221.28465,221.50195194591086,6.0,10.875243492628737,0.9037386509155704,2.7395937929523266,-8.440661113182353,16.18072608410899,1.5574729000000002e-19,2.5201042378322874e-18,11.271811082931954,-1.1142038173889155,-0.520252557461854,-2.6426220017431565
1289,1289,3.4595460000000458,0.0,2500.0,-2500.0,0.0,0.0,10.813667907512297,71.6229500393722,142.4212833453494,104.0,12.0,2.2375241067446883,3.2518523101339603,11.928933643696446,-0.08203202206537266,-0.2707208327430903,-0.11334684282086087,0.2948621840295118,0.038569995045225965,0.08049924681609581,-0.01026612555903854,2.686159980678108,2.955199055587712,17.798405630328954,-200.65038698871498,8.849211967205493,11.034755217847609,2.4158940048487407,-1.0681946033384282,221.28465,221.38177081426718,6.0,10.827751930762311,-0.7178222627582487,-1.5104310909768728,-10.154072988106174,16.18059812642219,1.5574729000000002e-19,2.5200843087693337e-18,11.285188726421385,-1.094114603524389,-0.4311942653594828,-2.188142348035868
1290,1290,3.5780200000000377,0.0,2500.0,-2500.0,0.0,0.0,10.709030710213128,70.24354465930298,142.28550460703957,104.0,12.0,2.354322694203371,3.417022137621525,11.715982468631706,-0.07769685105950211,-0.27639477400691986,-0.11374189697947998,0.3004846907492462,0.2200117370363162,0.017718960503719412,-0.1268852967243148,1.9475375311467868,3.3918458836288683,17.813552808237137,-199.26704909699524,9.17846285893156,11.03345621610728,2.520152718882601,-1.0885742019056164,221.28465,221.233751746,6.0,10.78623855424999,1.7580967766193447,-2.3349548338945256,-6.444275919513823,16.179404565998812,1.5574729000000002e-19,2.519898414967941e-18,11.320099331321796,-0.9885802707654772,-0.3615747552169488,-1.8294597887601756
1291,1291,3.6733600000000024,0.0,2500.0,-2500.0,0.0,0.0,10.662944837788592,69.64026562272193,142.19006611948322,104.0,12.0,2.4115386855766,3.4967121238125842,11.595482686315007,-0.037100402229017136,-0.2825464964377469,-0.1104581514493723,0.3044090700215066,-0.6188861456394608,0.11879785973109268,0.0346526880063647,0.8767756032618073,3.8337186393640375,17.6683966813933,-198.16608959799183,9.440466034885864,11.038462912017927,2.5836690627687284,-0.9745273737045036,221.28465,221.12225886085443,6.0,10.744741674244326,0.09481892131529324,-3.1186667294813106,-11.03590215655949,16.178444067908394,1.5574729000000002e-19,2.5197488199933084e-18,11.341798581961427,-0.8897894998985717,-0.1572582638655713,-0.7943764309500884
1292,1292,3.769266000000016,0.0,2500.0,-2500.0,0.0,0.0,10.605183033570189,68.88783709629975,142.11136247974497,104.0,12.0,2.4076262090658753,3.4879087337667887,11.559291862879784,0.01103286942995154,-0.2766113642126906,-0.1178084860465833,0.3064227748079283,-0.6312488069741855,0.04895480876544542,0.05033290153702226,-1.1041001299960551,4.0114018582776785,17.35261932302909,-197.0498881476889,9.71109564910916,11.063876640961514,2.632894523984907,-0.7758249531065596,221.28465,221.03465732551757,6.0,10.702646165128458,1.2950738508956527,-3.3559332555603,-8.484859180940218,16.177494662387236,1.5574729000000002e-19,2.519600952656277e-18,11.372072438006985,-0.7852076041022337,0.0747903561171831,0.3768099435865415
1293,1293,3.8684640000000172,0.0,2500.0,-2500.0,0.0,0.0,10.50369496270619,67.57570367372777,142.0469649847574,104.0,12.0,2.428021226408183,3.5131048282398423,11.562415393912636,0.018489991084776263,-0.2666042326175885,-0.11673153077966204,0.3069421097254202,0.11367610316954475,-0.01808516026261767,-0.1101622274804995,-1.7734223752167306,3.8950977421753015,16.917034052582938,-195.9041328412489,9.993633116735943,11.100198933686256,2.6443631995061523,-0.5339946590675091,221.28465,220.97934915263556,6.0,10.652197547139654,0.2640085224093787,0.6722040362333286,-14.489441183432575,16.176550123192488,1.5574729000000002e-19,2.5194538432363966e-18,11.39930160976394,-0.7059141667729552,0.2883562652127053,1.4490426636356954
1294,1294,3.9611800000000414,0.0,2500.0,-2500.0,0.0,0.0,10.348587523634793,65.59464249978181,142.01809547260856,104.0,12.0,2.4893075124638457,3.5959117095412614,11.635397647509079,-0.0029548089231458165,-0.2488735277755421,-0.1168697333184047,0.3074914034367972,0.6084142767590203,-0.16957198010654026,-0.21856427220380245,-1.3437132912589784,3.584103968379909,16.478863176198455,-194.83084894980126,10.262162376095096,11.121793506848904,2.6681883596263245,-0.4206534858166395,221.28465,220.94421439240193,6.0,10.582745956460876,1.1220596612963796,4.1669754999182285,-12.865158284744654,16.175667304022948,1.5574729000000002e-19,2.5193163465431806e-18,11.425779023333545,-0.6019673884586592,0.331380698144051,1.6612779215623377
1295,1295,4.081794000000002,0.0,2500.0,-2500.0,0.0,0.0,10.318797966872973,65.21752889198834,141.98354965212178,104.0,12.0,2.561999646785464,3.6938253033553,11.715807956920154,-0.03338363856025608,-0.2363689666727134,-0.11356574236581155,0.30927599828612,0.02027804460287197,-0.06568536681532443,-0.09022659485267097,-0.30110997679899604,3.1300855651778914,15.918343055193976,-193.43363279380267,10.613309194707448,11.136569179914726,2.7145432568789154,-0.4664085172500346,221.28465,220.91020112549356,6.0,10.479768296216713,1.98326020382929,3.8860120936825733,-8.263901743759657,16.174370315167902,1.5574729000000002e-19,2.5191143440438467e-18,11.462410747618728,-0.4441214401365513,0.18395179701137865,0.9194188862865356
1296,1296,4.17488000000003,0.0,2500.0,-2500.0,0.0,0.0,10.381048478880581,66.00678318268723,141.96134755543784,104.0,12.0,2.6104269543065635,3.758691030322948,11.762013743535173,-0.04089884986870794,-0.24559576736395625,-0.11023727649948037,0.3115594881988401,0.4495839066047189,-0.007075439011871331,-0.1949617095855578,0.19573608716804136,3.120135756926405,15.325296451377284,-192.35210135763532,10.889425117641874,11.151739356135618,2.742424798349845,-0.5479573300216344,221.28465,220.89076153975827,6.0,10.418222949188449,2.7276339739336883,0.31243158556862216,-5.261799250397867,16.17314996584356,1.5574729000000002e-19,2.518924277943728e-18,11.492819729084834,-0.3017719446517457,0.09417271573077156,0.4694738565998883
1297,1297,4.270902000000035,0.0,2500.0,-2500.0,0.0,0.0,10.488524296679653,67.38060614057846,141.93190824286856,104.0,12.0,2.654889023585605,3.817931578324493,11.735972148354078,-0.07214259898846596,-0.2559353213040625,-0.10856176131977094,0.3128203200359349,0.4505311552250655,-0.016688722067047666,-0.1709879256780453,1.0014458209525738,3.4683557482690865,14.837650311142257,-191.23727173004986,11.168234699510567,11.158837971114552,2.7445842916670675,-0.5924847850001448,221.28465,220.8700549205021,6.0,10.388138242185576,-0.5582653074656525,-1.2967568715578528,-10.759473616071709,16.17189112581583,1.5574729000000002e-19,2.518728217020865e-18,11.504385012607589,-0.2023128332258375,0.11604478363790215,0.5779231867590662
1298,1298,4.367874000000029,0.0,2500.0,-2500.0,0.0,0.0,10.668959605375882,69.71886860610518,141.88786399710668,104.0,12.0,2.6873228665383793,3.8603451957661754,11.542366459326168,-0.07786280000215684,-0.27032509392446913,-0.10954922968292888,0.3131667706233578,-0.04141843832970032,0.11511610972123512,-0.0503743254187926,1.5999016955530274,3.8554500740332887,14.39245007414474,-190.10460578426543,11.446737496876592,11.168446277783888,2.746092595337285,-0.6387754234539184,221.28465,220.83681343574574,6.0,10.405142523957512,0.2596305027010901,1.9693699388759187,-12.73630944614161,16.170804341432227,1.5574729000000002e-19,2.518558953298304e-18,11.517433580291831,-0.1120863451754424,0.14371561097988728,0.7149049806996399
1299,1299,4.465387000000021,0.0,2500.0,-2500.0,0.0,0.0,10.88614998844483,72.58638522773171,141.84351246167418,104.0,12.0,2.73352992448891,3.9226721694112094,11.478939622641256,-0.0621565318330138,-0.28480554906318223,-0.1114852869586845,0.3121768798043917,0.2591985583552294,0.044545865952169285,-0.11822131194127684,1.3001497749274231,4.489429192548926,14.060146457188768,-188.97205994097956,11.716931545365501,11.182707135926215,2.724596828885814,-0.6771822126187004,221.28465,220.7924841961744,6.0,10.474657581131718,2.110483207244977,2.371837988984073,-9.809099801111275,16.170180856777492,1.5574729000000002e-19,2.518461847252973e-18,11.527294185517988,-0.06840937450434498,0.2315268990823384,1.150636962977679
1300,1300,4.585788000000008,0.0,2500.0,-2500.0,0.0,0.0,11.084023558019755,75.24906880729972,141.78847170103953,104.0,12.0,2.828879494978544,4.0550685705042735,11.77045423305542,-0.04363845455955102,-0.2874971705651847,-0.1167524456614264,0.3092570580987488,0.2498859254329687,-0.061525025454956785,-0.07208381026114866,0.5070888756472806,4.9354963670283265,14.064131056690819,-187.57984912441918,12.038254946505738,11.191879976363078,2.6670912385237937,-0.601528438374761,221.28465,220.73835854322465,6.0,10.620046103101037,-0.8297018913904286,-2.0567402106280963,-13.703379406814252,16.169411029411766,1.5574729000000002e-19,2.518341948726993e-18,11.513615288216114,-0.12862322844477628,0.4018740623607149,1.9990544361022056
1301,1301,4.6789249999999925,0.0,2500.0,-2500.0,0.0,0.0,11.20513901885059,76.9025416648591,141.7488972433145,104.0,12.0,2.879919205069533,4.1240378785774245,11.861162678958593,-0.05563976946178115,-0.27897901810005704,-0.11791243861598324,0.3058243593493838,-0.24027831181074955,0.060971146231676536,0.16299229666041956,0.5878831870440533,4.970927105580313,14.359154561472778,-186.49691094739356,12.286269234378706,11.196161977956637,2.635503853893916,-0.5725506702789032,221.28465,220.707941134,6.0,10.749915936799958,0.9991628544095504,2.666444480922916,-12.109417210604725,16.16956645740268,1.5574729000000002e-19,2.5183661562153683e-18,11.50635713948514,-0.2182572216030772,0.4454218231195937,2.2168661865886192
1302,1302,4.790245000000027,0.0,2500.0,-2500.0,0.0,0.0,11.274774484186294,77.86133472685425,141.709009353566,104.0,12.0,2.9118777372875337,4.163710402460033,11.7972458349255,-0.09542802883081083,-0.2783252133265056,-0.12114042790249928,0.30185962689881163,0.4262361117063414,0.045450305041159766,0.09607179921107367,1.7860621637327416,4.959204084427947,14.877375682173414,-185.2049760948657,12.579855487022927,11.199580688508377,2.6091596931188055,-0.5920219803672441,221.28465,220.6668465141865,6.0,10.915546520082104,2.8670913528501725,2.3195936218919417,-9.057462256405273,16.172008464422465,1.5574729000000002e-19,2.518746492190861e-18,11.502198233366046,-0.3399009429220158,0.4342029403795709,2.1618640396619666
1303,1303,4.884971000000007,0.0,2500.0,-2500.0,0.0,0.0,11.153625130223038,76.19708081773929,141.675651267591,104.0,12.0,2.9446944231368475,4.206179134312799,11.823598986182553,-0.1085209203404364,-0.2727241158357317,-0.12107957861553716,0.2992939033319532,-0.31850129572613106,0.07141041334608876,0.18243123799047184,2.7153427583923566,5.073671565657075,15.459090006555856,-184.09784965818008,12.833295369933015,11.195320462598064,2.6283964406536007,-0.4896839679062772,221.28465,220.63554042222444,6.0,11.02183333296559,-0.12589876319193127,-3.2479827783261026,-10.183403299532728,16.174086451818766,1.5574729000000002e-19,2.519070133096488e-18,11.489167437874267,-0.4240107761394264,0.5677243086067599,2.828905632972003
1304,1304,4.982649000000038,0.0,2500.0,-2500.0,0.0,0.0,10.928652962666652,73.15424976774175,141.64226109215932,104.0,12.0,2.983939834474993,4.2583466716571206,11.928412950610044,-0.12110701346738435,-0.25868056679613954,-0.12195705115375773,0.29801139765812945,0.1939427865370072,-0.039966245921649914,0.06375264770374096,3.1284715325864965,4.899556893599881,15.911214827805445,-182.96388301178658,13.098604782428158,11.182798636666535,2.670816955472064,-0.4163315626765993,221.28465,220.60593700690137,6.0,11.058195684036805,-0.6221260315356594,-4.059522098308053,-9.444290783258632,16.17565216547751,1.5574729000000002e-19,2.519313988755754e-18,11.480143399437575,-0.4645242046643442,0.6078729355512906,3.0309777115782994
1305,1305,5.099553000000043,0.0,2500.0,-2500.0,0.0,0.0,10.71188007298158,70.2809627445085,141.60670616361455,104.0,12.0,3.069029776240197,4.374548016576909,11.983827440279413,-0.11973085085201175,-0.2509695620192614,-0.1213788980689476,0.2989957612031119,-0.2164697976890386,0.04854054386731435,0.11902604285226873,3.2307035429829614,4.6885733451722595,16.459554538806323,-181.59424569260202,13.417282357223284,11.165698062762711,2.7450744188894207,-0.3627331451597244,221.28465,220.57174846393195,6.0,11.016668013016648,-0.12691807550794193,-3.566142190107875,-8.744549143320905,16.17591954656389,1.5574729000000002e-19,2.5193556326353544e-18,11.477127174766268,-0.4967763554549405,0.619829859484607,3.0912935114948423
1306,1306,5.196180000000027,0.0,2500.0,-2500.0,0.0,0.0,10.594732885257198,68.75213093807004,141.58290960132098,104.0,12.0,3.169749530619587,4.5134555464930415,11.973803199322221,-0.0987036378442257,-0.2487544562078832,-0.11895042870810005,0.3014248826245777,0.1873032357956647,-0.07528895473559716,-0.06202853540110272,2.6835605336120505,4.667792276907764,16.77601566605327,-180.4715515407404,13.683678357406025,11.1364328977617,2.795149107988423,-0.3881688647536163,221.28465,220.54474740262867,6.0,10.93731835669924,-0.8428051590555885,0.25747255554257586,-12.9285689734332,16.176140550398088,1.5574729000000002e-19,2.5193900533836116e-18,11.462785949417182,-0.5107611944948833,0.5896580372469324,2.9447608890781605
1307,1307,5.291612000000043,0.0,2500.0,-2500.0,0.0,0.0,10.579002676603741,68.54812044161613,141.55556497382392,104.0,12.0,3.2545774177023485,4.630548057396148,11.989321676501305,-0.08758328508082726,-0.2554360265489397,-0.11912272009596254,0.30498509962093,-0.4600376005437343,0.13117134562367666,0.1836726270075895,2.0245693563371776,4.825548796958722,17.130292387033233,-179.35147458270825,13.946926860277815,11.121275980190394,2.8148828275674505,-0.4408285004236959,221.28465,220.5157255036365,6.0,10.847089781857115,-1.1324168758365043,-0.8158455675170563,-12.368315243105073,16.176169519152126,1.5574729000000002e-19,2.5193945651885473e-18,11.453492340370447,-0.5651092008131713,0.5734677233745524,2.8663628111105623
1308,1308,5.389916000000028,0.0,2500.0,-2500.0,0.0,0.0,10.569227777405768,68.42150808111717,141.52149791945737,104.0,12.0,3.3277467394436244,4.731663944268245,12.0299712996909,-0.07272730184437738,-0.2683241073389215,-0.012322650514680622,0.3087248150001939,-0.09062217823354117,0.06077321878864235,0.06464476051432799,1.5640180898386598,5.180811117129814,17.502944545705613,-178.2105020204608,14.219375342608135,11.096592298232462,2.8581960943035662,-0.48472461968492897,221.28465,220.48339121135072,6.0,10.759902078925967,1.4741709158816156,3.890359786549858,-9.632873825599647,16.175909707883818,1.5574729000000002e-19,2.519354100287596e-18,11.439477177986298,-0.5939643050840522,0.6055098523708293,3.0299297985561484
1309,1309,5.486111999999991,0.0,2500.0,-2500.0,0.0,0.0,10.595708742297404,68.7647950777596,141.48167645064896,104.0,12.0,3.3984068099148517,4.8292517027040285,12.030028284927402,-0.07994262614269974,-0.2701892191984141,-0.09920038304497256,0.31260650148348595,-0.28416464121299817,0.11862641914090973,0.20563931659538714,1.5947226610118836,5.533639355369881,18.004228825899123,-177.07727685090433,14.487982457116756,11.07305068706008,2.8929367672552257,-0.5329376431559758,221.28465,220.44469222394088,6.0,10.69096630203084,2.290606448854017,3.3614342586392563,-7.5972145720462025,16.175655467926475,1.5574729000000002e-19,2.519314503103231e-18,11.423162005380256,-0.6522315300778829,0.6357700325859317,3.1855800635911478
1310,1310,5.603654000000006,0.0,2500.0,-2500.0,0.0,0.0,10.500300071476099,67.53198900953522,141.41445425007842,104.0,12.0,3.4836927183693933,4.946970340631359,11.985582915127793,-0.07231182843467464,-0.2717114122397061,-0.11706385148997855,0.3170804289212086,0.06758371492241118,-0.0001604908668437835,0.054908731107426376,1.3906206897429418,5.627945742924815,18.644828729208196,-175.7106364566658,14.820794065472837,11.048563930937885,2.94321944276925,-0.5036991805944238,221.28465,220.38356922539433,6.0,10.60540654786386,2.011790551792225,-0.9289622805193294,-7.572724778723925,16.17518377516,1.5574729000000002e-19,2.5192410382331395e-18,11.404067636451433,-0.7249057649646745,0.6903855304216187,3.4643743831647176
1311,1311,5.696742000000029,0.0,2500.0,-2500.0,0.0,0.0,10.45681505982759,66.9738143432618,141.37482948623096,104.0,12.0,3.5167713177354423,4.98995196310708,11.93388303013482,-0.09561855103785284,-0.26653493151735785,-0.11622611457150656,0.3188575537193731,0.058413353159483435,-0.021061210986907213,0.053718588076665234,1.9419612933974475,5.737909992773905,19.06986092043804,-174.60808913566063,15.09455060048233,11.039662620578778,3.0037582651508226,-0.2841966686663481,221.28465,220.34445375829952,6.0,10.547059316025782,2.133463470000773,4.092181721222154,-13.217590152082696,16.174640281849175,1.5574729000000002e-19,2.519156390622845e-18,11.386425322595224,-0.7350326579977152,0.9347853853809248,4.693256513107401
1312,1312,5.792444000000046,0.0,2500.0,-2500.0,0.0,0.0,10.494761434545085,67.4607687197395,141.35389045025892,104.0,12.0,3.535545841691156,5.011931909228023,11.873437926447627,-0.10584326374688392,-0.25489997547211346,-0.11455764786124213,0.3197969515791905,-0.03248253402625372,-0.006539175811402273,0.06601103446061618,2.4701757332355463,5.526290826732645,19.287573625368637,-173.49498950641834,15.382045503367,11.021895342094991,3.0661893781115417,-0.1749535172934315,221.28465,220.31671153846162,6.0,10.492832425101211,1.456168214077791,-0.5860355167813847,-7.22296605532525,16.17408152672679,1.5574729000000002e-19,2.51906936602676e-18,11.379845135887358,-0.7031989597915931,0.996288949520687,5.00340520358157
1313,1313,5.88984099999999,0.0,2500.0,-2500.0,0.0,0.0,10.62320274093787,69.12212215582268,141.33668313606944,104.0,11.49031753512805,3.5500968246487195,5.0291164405467095,11.838922795122256,-0.10695017466390334,-0.2536636973938364,-0.11296429323533234,0.3196874275576862,-0.0812970227753412,0.04755594224132317,0.032221928076827416,2.6252963471756603,5.4063389468398615,19.31242616903652,-172.3623476919233,15.682713213420065,10.994915343511913,3.1279910421280914,-0.10643770517508702,221.28465,220.30532169105282,6.0,10.481079258424675,-0.12011040111352722,-0.5287557470560842,-11.895912079661484,16.173709232253607,1.5574729000000002e-19,2.519011382171481e-18,11.369977882131062,-0.6368174249310229,1.0325871901174983,5.1891952373847445
1314,1314,6.010870000000011,0.0,2500.0,-2500.0,0.0,0.0,10.64588345898493,69.4176003928672,141.32811959546927,104.0,10.23665715425145,3.562633428457485,5.044160490483267,11.828894138905433,-0.11442664646917272,-0.25186331282157115,-0.11334100401807368,0.3187231436030045,-0.11900958134404373,0.08342821315001323,0.06337929381309444,2.8589563847210444,5.398670783872089,19.290374102252226,-170.97631764562232,16.065037765965876,10.96589250876282,3.200966065240012,-0.10593863421057843,221.28465,220.28691957746483,6.0,10.494830061755149,-0.5979768967121529,-3.40409830611023,-8.390349180476033,16.17366927830019,1.5574729000000002e-19,2.5190051594515108e-18,11.367050783489475,-0.5504535292451476,1.023203609058765,5.143609751846442
1315,1315,6.106845000000021,0.0,2500.0,-2500.0,0.0,0.0,10.77801277744916,71.15142160628456,141.3221093316439,104.0,10.70341762776424,3.6089636017352653,5.107494280816843,11.86709580478256,-0.1105391629638187,-0.2550590663044885,-0.11346123085811315,0.31834394291282825,0.3532731444751386,-0.06528606827473593,-0.10947880978051296,2.8426785920721254,5.466141508532457,19.261153842872037,-169.8682462019233,16.380531385902657,10.938957089072142,3.2809490548704643,-0.07027559259317176,221.28465,220.27894950253705,6.0,10.52096983394686,0.7791483790852926,3.731080124735784,-14.58406798740133,16.173637595144253,1.5574729000000002e-19,2.5190002248858347e-18,11.363762152263893,-0.4584318051612622,1.0642749779419205,5.350438483549626
1316,1316,6.200716,0.0,2500.0,-2500.0,0.0,0.0,10.843051461950061,72.01271354340072,141.3172642640015,104.0,11.606362001134837,3.6653976250709266,5.185147451779495,11.918563634064686,-0.10792321200529507,-0.25638741136992194,-0.11388925032436492,0.3157245701900305,0.3362040842889589,-0.06431378281492091,-0.09828605346918486,2.805527810928488,5.580592851209207,19.297406248469997,-168.80413836721428,16.69369587738868,10.91900690941073,3.3430264920244697,-0.04339199584448558,221.28465,220.2815227569323,6.0,10.581131208122876,2.3139294623504734,0.35360844561520777,-7.588388010993376,16.17362433178759,1.5574729000000002e-19,2.518998159153978e-18,11.36044735899716,-0.3988756853545026,1.1092137350152018,5.576581203677715
1317,1317,6.296401000000003,0.0,2500.0,-2500.0,0.0,0.0,10.790315132854577,71.3139367145422,141.31195377663238,104.0,11.446633286682381,3.6457307182712615,5.153426372140197,11.901158596641134,-0.0927351384691393,-0.25491220210802434,-0.11283833236750608,0.3137109463877811,-0.5053019766099279,0.061804234948280974,0.08458171803364513,2.3344692298616683,5.662933387041857,19.32517839158178,-167.70385413150376,17.018621000028862,10.890331409253182,3.4023189417307367,-0.030044564233927908,221.28465,220.2734004720006,6.0,10.631432279472053,1.8699870104175431,3.0673337145480937,-10.606710028646669,16.173629116627723,1.5574729000000002e-19,2.518998904379861e-18,11.349964150587844,-0.3467772800893006,1.1331710486121866,5.7014695898660905
1318,1318,6.416927000000044,0.0,2500.0,-2500.0,0.0,0.0,10.769691655013947,71.04158970851793,141.3040303410305,104.0,10.228725312368745,3.548298202116968,5.009104338079432,11.813469222490552,-0.059927623095308816,-0.25521553352731435,-0.1106017850504814,0.31279614787335475,-0.5556490625450947,0.0993161465526302,0.09683009057010243,1.282991206874831,5.792348838379897,19.237986737542226,-166.33651284232675,17.431036324279873,10.865248548905988,3.4418363746591254,-0.12540717534752568,221.28465,220.26569221322538,6.0,10.667651012145756,2.1539539038570648,-0.04936907338977159,-4.099301082638187,16.173635143671053,1.5574729000000002e-19,2.5189998430755273e-18,11.347060903377953,-0.3057447675169261,1.058097109950524,5.327343738012255
1319,1319,6.512681000000043,0.0,2500.0,-2500.0,0.0,0.0,10.73783308430108,70.6218891509678,141.2924322315605,104.0,10.0,3.483251930928503,4.910022872193076,11.750994468953744,-0.06085147629699352,-0.2595025351178597,-0.11172044210573273,0.31321045007536585,0.2476407164904059,-0.003643106650465008,-0.0697625684909369,1.0146510815845553,5.921511922451062,19.203811981760367,-165.2440790668746,17.757527893158397,10.841909766738762,3.441871723218971,-0.2260411497314536,221.28465,220.25272825048802,6.0,10.679326361615859,-1.2169658266810757,-2.509747222430499,-8.436326042516939,16.172796925927152,1.5574729000000002e-19,2.518869292933485e-18,11.333386450484207,-0.2973997477484918,0.980677640802415,4.94548389106104
1320,1320,6.608787000000007,0.0,2500.0,-2500.0,0.0,0.0,10.731094495264092,70.53329540404462,141.27414168522168,104.0,10.0,3.421807037708103,4.8154171980535505,11.690524499824939,-0.07064740154576828,-0.2682424680365953,-0.1119580339133812,0.3136436381041113,0.2982179021124496,-0.023805983282319004,-0.07827265635127621,1.2592150045573272,6.248619444166021,19.271204506801734,-164.15895952259768,18.084245188540773,10.815880377859518,3.4689707916946753,-0.2714252491210608,221.28465,220.23371011087804,6.0,10.690532861851963,2.110528526860364,1.2795700558501997,-7.5419653212445725,16.171419927720628,1.5574729000000002e-19,2.518654829194484e-18,11.316816510217311,-0.2720965055715476,0.9979536214661918,5.039491992403887
1321,1321,6.721582000000041,0.0,2500.0,-2500.0,0.0,0.0,10.688256859922193,69.97131527237373,141.24675378566013,104.0,9.571118415405628,3.337952321748784,4.690215170265117,11.621534209848676,-0.06575749794926902,-0.2750707764672212,-0.1108115799729696,0.3157694085688813,-0.4844768106438157,0.12736504564851975,0.10564488308454613,1.1641385557761263,6.654619879908315,19.26919605982168,-162.87722210122197,18.46433557127943,10.788386756632773,3.4735811543311117,-0.27533123007334226,221.28465,220.20146397003742,6.0,10.678202155106117,-0.8793439751939807,-3.5969509978419776,-9.004811010883818,16.169803811008826,1.5574729000000002e-19,2.518403123396296e-18,11.285882412867846,-0.25824182908707444,1.0719049704522563,5.425535241617892
1322,1322,6.815116000000046,0.0,2500.0,-2500.0,0.0,0.0,10.727407541874996,70.48482921517855,141.2168777740596,104.0,9.098860429068203,3.2652246863044176,4.58254053828338,11.564863251488186,-0.0529531850553539,-0.27504908149755125,-0.11040944158305144,0.31661390581645193,-0.433746752678308,0.11145864175316582,0.08769119817605472,0.8849320157729557,6.834744690221847,19.212546367383357,-161.8214892115164,18.77944114022721,10.760911143510716,3.4816998365469374,-0.2578859711657969,221.28465,220.17540747741,6.0,10.675428064949333,0.0012641067010904505,1.5242066594302144,-14.030752185320086,16.168582048636974,1.5574729000000002e-19,2.5182128372178566e-18,11.257644828389035,-0.234717390108314,1.1196051639704452,5.679553982611406
1323,1323,6.910551999999996,0.0,2500.0,-2500.0,0.0,0.0,10.651453261264367,69.49025376477671,141.18389514610485,104.0,9.379346385617383,3.4939198880173383,4.897618645264831,11.582589207751347,-0.05758885406394345,-0.2706823030658377,-0.1133793366389766,0.3175846666637044,0.09664641141975044,0.046447444057103625,0.038094827593644805,0.5106736690851302,6.839004492279713,19.176157888868484,-160.74445651272865,19.104141571488928,10.748604010511539,3.4726284594348997,-0.35917514219863705,221.28465,220.14193218093456,6.0,10.6708901452944,0.6131872473007776,-2.7444826993742817,-5.699316786829335,16.167404796856673,1.5574729000000002e-19,2.518029483443428e-18,11.255282739866777,-0.2400990976668983,1.0179466762341791,5.167866613175465
1324,1324,7.0067470000000185,0.0,2500.0,-2500.0,0.0,0.0,10.51747733490028,67.7531339552532,141.1462010547875,104.0,9.860405570974883,3.803240896096295,5.325761272127092,11.620112064738828,-0.1078492186248974,-0.2732808424620501,-0.11499587438582415,0.31973989250720364,0.4091740598981513,-0.0033941510637878103,0.007630946524441376,1.9720083608502907,7.0046530919945456,19.408432532312275,-159.6661436689121,19.431348687803677,10.72327840035583,3.479212288327371,-0.3208745623379114,221.28465,220.09615569924662,6.0,10.641859082422787,-0.4781268509493322,-2.600837925457046,-11.85246314199146,16.1662181824239,1.5574729000000002e-19,2.517844671461249e-18,11.225070650551558,-0.2434045577417479,1.0896486347223162,5.544487772574838
1325,1325,7.126238000000001,0.0,2500.0,-2500.0,0.0,0.0,10.362893879233694,65.7761223845368,141.11226139387466,104.0,9.542195115854897,4.123276094066453,5.765885670060122,11.620012953878074,-0.1374606428950686,-0.2609629897582741,-0.1140732727592307,0.32270474211856826,-0.07342463657158405,-0.04171688816360723,0.020759690645547803,3.380674998513652,6.9558076294057765,19.580077220329095,-158.32017556497763,19.8319230413508,10.69367082219159,3.5356616949000697,-0.19438482041949934,221.28465,220.06084612122726,6.0,10.562429396857096,2.2111332679055327,3.590998821625344,-12.271916856905262,16.16531946201277,1.5574729000000002e-19,2.517704698192748e-18,11.200848178500344,-0.18160285222792055,1.1992374798966683,6.111187690933689
1326,1326,7.222016999999994,0.0,2500.0,-2500.0,0.0,0.0,10.27333150728608,64.64407686112267,141.10130336432618,104.0,9.06338390781637,4.364118275353194,6.096265403606706,11.608521245479547,-0.12316275656395237,-0.25471281290248965,-0.11430432966356653,0.3239378650238006,-0.15390243210197535,0.03481773848885265,0.0598530349745488,3.2993432444739783,6.803631946401905,19.621383089847985,-157.25365872726968,20.15947199066702,10.661881960032341,3.57478480066964,-0.16443129342237614,221.28465,220.05509494805904,6.0,10.483189840200827,-0.36303843251952417,0.2645552221174117,-14.120830284756837,16.165079600409072,1.5574729000000002e-19,2.5176673403979958e-18,11.183498894382195,-0.14432768771764445,1.1919798991062365,6.083834069987231
1327,1327,7.318723000000034,0.0,2500.0,-2500.0,0.0,0.0,10.18167198327259,63.49570150877754,141.08753554081233,104.0,9.426658610149186,4.576050290817094,6.384475683615484,11.610413695539803,-0.10045159724713948,-0.25152248941642635,-0.11357626778495165,0.32522686294317943,-0.19762455990492428,0.06123370735699485,0.07352057379506936,2.547285152531007,6.731831324395393,19.67044466114091,-156.17366533943326,20.494224295760635,10.646003727334477,3.6162161376673274,-0.1939315614616275,221.28465,220.04019249775834,6.0,10.400087584113763,2.126093745295595,2.6716493057994515,-8.793700451711121,16.164837417297463,1.5574729000000002e-19,2.517629621034678e-18,11.187228907508976,-0.12711855184951973,1.1450165058471924,5.843892232478348
1328,1328,7.428312000000005,0.0,2500.0,-2500.0,0.0,0.0,10.146115875575344,63.05300586357808,141.06651144171968,104.0,9.983111779102398,4.810873472470033,6.7033233494256725,11.614865877344597,-0.1002138630689518,-0.2460730910941733,-0.11579875580882296,0.3299845530248773,0.33240553950941865,-0.04669807088010945,-0.009075740960700787,2.1783411919895856,6.601530870321821,19.892954631208557,-154.96460657298366,20.880542652507263,10.617740571603207,3.640155399716085,-0.3001989823471446,221.28465,220.02674379086292,6.0,10.275961078578698,-0.8269602298813119,-1.3544572424606922,-11.501229936050358,16.1655407275359,1.5574729000000002e-19,2.517739159698345e-18,11.182894719832287,-0.15092165748055486,1.0131184076844395,5.176600463140349
1329,1329,7.523494000000028,0.0,2500.0,-2500.0,0.0,0.0,10.155864464087507,63.174217700554955,141.04800908781823,104.0,10.0,4.760655965828759,6.626088086822735,11.554968790864972,-0.12551450671156966,-0.2457278090467937,-0.11735578523124578,0.33161411312354583,0.3775046527075816,0.024747666455505447,0.048065655031210935,2.8263065080845853,6.616664087029682,20.239791675147547,-153.8994838838216,21.210936521243344,10.608779937950072,3.6963826729836677,-0.2894936232765269,221.28465,220.00701776322367,6.0,10.206805010998886,2.8544175558802887,1.676994700413515,-8.824853647384064,16.166855823388257,1.5574729000000002e-19,2.517943982313439e-18,11.191023632447894,-0.1509798150564288,1.0287563297029152,5.252262858289191
1330,1330,7.619704000000041,0.0,2500.0,-2500.0,0.0,0.0,10.21190842789694,63.873381170934856,141.02894045617427,104.0,10.0,4.7005934942361165,6.535056210518707,11.492091038286155,-0.14364997727151047,-0.23418664882101356,-0.11678783824871755,0.33331374311397394,0.3902691986490265,-0.10690473545923956,-0.05188734559544633,3.636159634904355,6.452227593549807,20.500869404815248,-152.84375841818726,21.5555040068582,10.588831196694976,3.754177061966276,-0.1914749251191306,221.28465,219.99916603044213,6.0,10.14813883667553,2.9672341004001472,3.2324115031780334,-10.603367740686553,16.168185122751098,1.5574729000000002e-19,2.518151017086801e-18,11.183367269018957,-0.12281834853291675,1.0914641175939863,5.574247569540202
1331,1331,7.716449000000011,0.0,2500.0,-2500.0,0.0,0.0,10.270075070018835,64.60309973826878,141.01033278100056,104.0,9.59289235448414,4.683079292158523,6.503530368759633,11.465530909470393,-0.1628783660765967,-0.22317477676806585,-0.11914838417532027,0.33283956425810185,0.3904663883951173,-0.021275750159481528,0.030069866246289413,4.160151990896886,6.148150022261945,20.70599287502427,-151.7727044094002,21.906243778599944,10.576165883480002,3.8026324824579927,-0.15144187521640387,221.28465,219.97637789212035,6.0,10.143808259607251,0.32397069449008953,-0.3736929003512688,-12.210000152859775,16.168981165137406,1.5574729000000002e-19,2.518274998531193e-18,11.189111535562668,-0.1049979638034869,1.0697286701334987,5.461132278369943
1332,1332,7.836088000000018,0.0,2500.0,-2500.0,0.0,0.0,10.242208102990038,64.25298610933258,140.98911576415819,104.0,9.032611976906773,4.669266227013575,6.475521589510263,11.445104464357494,-0.18566149556818293,-0.2161218447723507,-0.1225866999153366,0.33152730931034124,0.3190985809678876,-0.006022072053338656,0.039938922971316286,5.0242729830473865,5.893761734238423,21.129972369375874,-150.46736918813414,22.353265221480022,10.555941754219852,3.8953382202649385,-0.13411772768542085,221.28465,219.96999217784847,6.0,10.15325669602626,-0.4935169306763637,-1.218134582470738,-13.376359860648856,16.169263081490495,1.5574729000000002e-19,2.518318906239194e-18,11.204726224714786,-0.08142303648043983,1.035549527207576,5.280320543716772
1333,1333,7.932694000000026,0.0,2500.0,-2500.0,0.0,0.0,10.22170029032258,63.995933483870964,140.97775095612346,104.0,9.94395494509662,4.564917411588691,6.322416016421514,11.503885857969994,-0.15779326105729286,-0.2118671614944333,-0.12102648873590488,0.33229976697787433,-0.13493422623860635,0.03626591509418793,0.0983438423238308,4.603948311021066,5.874767916825052,21.462975614595088,-149.39569130039897,22.703676369515037,10.547765992368245,4.000042603601842,-0.06707777666692455,221.28465,219.9450861453551,6.0,10.150816716489803,2.0627335915814053,-0.2701989811250337,-7.195496960650121,16.169490723072308,1.5574729000000002e-19,2.5183543607986526e-18,11.227561388208976,-0.048734657163905994,1.0983156801837668,5.587078590066464
1334,1334,8.027515999999991,0.0,2500.0,-2500.0,0.0,0.0,10.16423347405955,63.27838668223972,140.9748287660299,104.0,10.83846835968431,4.462495580892728,6.172137807496454,11.561581749582546,-0.19898201793686965,-0.20727010909908924,-0.1260150227208484,0.3298963025103703,-0.048028459775331565,0.044183856413598725,0.1994814899440704,4.952211525279871,5.814306796040116,21.980436742068065,-148.36585912436152,23.064092712318374,10.529373432379119,4.0963666171988695,0.034929489593499945,221.28465,219.93912484411754,6.0,10.169563085923032,1.806997497770296,2.5813036131885183,-12.972100582380449,16.169431816412768,1.5574729000000002e-19,2.5183451862460656e-18,11.235582472017423,-0.03990222855101388,1.189240432844908,6.042027184913567
1335,1335,8.140994000000035,0.0,2500.0,-2500.0,0.0,0.0,10.105742860946505,62.55221362690935,140.97424623097626,104.0,11.0,4.327510643977327,5.974820376539178,11.617062026786206,-0.2327745848504695,-0.19336183931880055,-0.12740188576710856,0.3290228539408934,-0.338656970269102,0.01822885985538089,0.18006627597533112,6.5293813890145485,5.597818890391208,22.645361179031053,-147.10664765546474,23.492412744785145,10.507018270382328,4.209105274419445,0.06259472936573436,221.28465,219.94875268990657,6.0,10.159463305049195,-1.0408054495608259,-2.699306954840996,-9.895127403488859,16.169148777258147,1.5574729000000002e-19,2.5183011036647703e-18,11.257524115841887,-0.02748210123825707,1.1743990613871291,5.9556251853679765
