,Unnamed: 0,timestamp,thrustinput,Position state,Position state2,PA-ON,PA-ON2,Airspeed[m/s],Differential Pressure[Pa],GPS Altitude[m],GPS Noise Magitude/ms,GPS Satellite Num.,Horizontal accuracy[m],Vertical accuracy[m],Groundspeed[m/s],Roll control,Pitch control,Yaw control,Thrust control,Roll Angular Rate[deg/s],Pitch Angular Rate[deg/s],Yaw Angular Rate[deg/s],Roll angle[deg],Pitch angle[deg],Yaw angle[deg],Local X[m],Local Y[m],X-velocity[m/s],Y-Velocity[m/s],Z-Velocity[m/s],altitude set position,altitude(Tecs),airspeed set position,airspeed(Tecs),X-acceleration[m/s^2],Y-acceleration[m/s^2],Z-acceleration[m/s^2],Battery Voltage[V],Battery Current[A],Inst. power[Ws],Body_Uvelocity[m/s],Body_Vvelocity[m/s],Body_Wvelocity[m/s],A.O.A.[deg]
6436,6436,0.0,0.0,2500.0,-2500.0,2500.0,-2500.0,11.028452767349913,74.4964283693799,91.25796306772436,104.0,11.742332630263672,1.3492883368486817,1.520773102109209,10.449191063276267,-0.15687228854082186,-0.2729087965563895,-0.11418004072384072,0.18963963511879325,-0.16977554999061922,-0.028319717926179218,0.19083190448932028,3.55371479098462,-0.4144320574194291,-10.766470915747538,-331.51848915088965,55.79360998100934,9.542907947962325,-4.901399282671559,1.4937655873412563,166.2518,171.17904272659098,8.934744432968488,10.950459584462335,0.1990741823109481,3.6678473299565306,-10.177911567419214,15.621879690133614,1.5574729000000002e-19,2.433065426444351e-18,10.301070073268917,-2.9443886589401203,1.3946304237921383,7.7102202346170285
6437,6437,0.09535000000005311,0.0,2500.0,-2500.0,2500.0,-2500.0,11.216235314681656,77.05493146149828,91.38138388081312,104.0,11.245756841913447,1.351771215790433,1.5222628294742595,10.493882884227787,-0.13405930815810282,-0.1955514295125688,-0.1169587025520742,0.10389360664992814,-0.20230697747174495,0.09185282298526028,0.12486866056440302,2.7818967360131186,-0.28620613895779456,-9.86638879698894,-330.62802740957807,55.377172762474174,9.588078355305344,-4.760745636650597,1.4759642167902436,166.2518,171.31135829792558,6.0,10.959251112271943,0.5296327176115907,1.933380186173544,-9.987155756947564,15.625644783555872,1.5574729000000002e-19,2.4336518295414637e-18,10.269274932679082,-2.978221811635182,1.4077832998202335,7.805846798031943
6438,6438,0.190195000000017,0.0,2500.0,-2500.0,2500.0,-2500.0,11.26775913341184,77.7644721845558,91.5045813325714,104.0,10.767506756822852,1.355557448924273,1.5241625662158858,10.523208290538491,-0.15518631193667762,-0.1756623938542167,-0.11928909254517085,0.0835219322879351,0.007826875304640005,0.15953513646835454,0.1249454449084613,2.2489357089918385,0.461514089365021,-9.178219713211368,-329.73966669547974,54.977009005639104,9.611472516942277,-4.646420904926939,1.4780545825609228,166.2518,171.4393589342806,6.0,11.003242978638854,0.2784098406917322,0.2545369439755813,-9.478311983713805,15.631408561201422,1.5574729000000002e-19,2.434549522289921e-18,10.217310864047407,-2.9925145084375284,1.583800546055628,8.811375677679083
6439,6439,0.3074060000000145,0.0,2500.0,-2500.0,2500.0,-2500.0,11.291260797509226,78.08920601168515,91.66183116497608,104.0,10.195684414912957,1.3618475518675157,1.5270216779254353,10.540934783137699,-0.1237567968926621,-0.2216295938578769,-0.11028841412736057,0.07596103951445292,-0.07086816564123033,0.24628857104337196,0.017751672075927052,2.1415780962123963,1.9818126385370256,-8.699894790426981,-328.63349378052425,54.48455883755063,9.62634992974043,-4.48375249794826,1.574525666060896,166.2518,171.598191908694,6.000019473603593,11.048094917450412,-0.17027053336041456,1.253922687671769,-10.817115242962792,15.638531531749294,1.5574729000000002e-19,2.4356589056495014e-18,10.133250647444736,-2.9023344036939465,2.0276830976230937,11.315548368218408
6440,6440,0.40387600000019575,0.0,2500.0,-2500.0,2500.0,-2500.0,11.339907576412015,78.76353272010044,91.79597993618087,104.0,10.28604999365577,1.3677187499175247,1.528858221375968,10.517251800659801,-0.11583961932247365,-0.2467882129854016,-0.10842603606588608,0.06822262519510967,-0.127696686513824,0.16802689762156994,-0.010227710239068695,1.771616303562181,3.092329844567993,-8.59499729379942,-327.7244345615278,54.09336503204152,9.614373193369666,-4.361106553941672,1.7208549389619812,166.2518,171.74014363163215,6.000002274215308,11.085316611928434,0.007100858267820059,0.1688949116573506,-13.010345016341311,15.644270323562957,1.5574729000000002e-19,2.4365527069223538e-18,10.050538350671264,-2.8010185577625584,2.4203561760743924,13.540070773320119
6441,6441,0.5017830000000458,0.0,2500.0,-2500.0,2500.0,-2500.0,11.395600801378606,79.53908884988508,91.95179015356793,104.0,10.78297677959632,1.3741787981347522,1.5303489520411109,10.465571414921982,0.1008058833299169,-0.27069769369526564,-0.1057939598957874,0.05844000778669931,-0.0779415293939065,0.14347633533571935,-0.051458466893526206,1.0655955803152055,3.9550729060640526,-8.777105096575733,-326.79894266658056,53.69864706303861,9.582174107205262,-4.258108492375543,1.8822851694070744,166.2518,171.89787104421075,6.0,11.127139552858493,0.8933434499425996,-0.12488641913218534,-10.12707644071152,15.649106482606726,1.5574729000000002e-19,2.4373059255874294e-18,9.965780325449053,-2.691648349104196,2.7647657338701537,15.505393235807853
6442,6442,0.5976590000000215,0.0,2500.0,-2500.0,2500.0,-2500.0,11.465741453420193,80.52122917636105,92.10564340120699,104.0,11.0,1.3793906970310528,1.531796874531179,10.407938520628123,0.13746110208842127,-0.28701051750025275,-0.09866866434356536,0.04982090739375868,0.32021769498947017,0.0801574075969296,-0.06471186057556202,1.5940830742973555,4.560655687428507,-9.077186897426966,-325.8994070917337,53.31921953727886,9.526002316186249,-4.173265716600246,1.9748473857576,166.2518,172.06204042393142,6.0,11.173241276252858,-0.04792132049124831,0.6848307170351929,-10.729079283990766,15.653842319518082,1.5574729000000002e-19,2.438043519352256e-18,9.87620236334572,-2.532817266234957,2.976022987130358,16.769273202465484
6443,6443,0.7176370000001953,0.0,2500.0,-2500.0,2500.0,-2500.0,11.288689435362954,78.05368436642898,92.31419759791392,104.0,11.0,1.3847904570060543,1.5335968145221797,10.3287411610241,0.023325030561784185,-0.2949924393267617,-0.06723509070389269,0.0423349090833128,0.5374131634486641,-0.01694547048654272,-0.14070458357254662,4.919187340580928,4.916015705603875,-9.789170850021618,-324.77757260956065,52.84839775753309,9.456432496336731,-4.042938386697843,2.004853342369676,166.2518,172.27544819378898,6.0,11.19731013068321,-0.011892248772558732,0.7515171260757592,-9.758455496259405,15.65924322252248,1.5574729000000002e-19,2.438884695358744e-18,9.797525307030805,-2.122704312408856,3.0480775029791616,17.281277196349617
6444,6444,0.8114479999999276,0.0,2500.0,-2500.0,2500.0,-2500.0,11.105996044911077,75.54768758100826,92.46975776655356,104.0,11.0,1.3886391850132354,1.5359794217497391,10.259536892241911,-0.05678587483573847,-0.3013050358154469,-0.0395105340037679,0.040334640555855714,0.4373474181009364,0.0022672540582772305,-0.17146122429966335,7.551448694124986,4.943060663553738,-10.685916808369406,-323.9097234704291,52.500257929150344,9.399475320624424,-3.9188186211647884,1.8992629619033092,166.2518,172.43156744891257,6.0,11.153868326252606,0.3767832456986123,-0.2346892088504109,-7.454283109936457,15.66188561504284,1.5574729000000002e-19,2.4392962408329056e-18,9.762414718876073,-1.738637354581067,2.9084566100394587,16.59005160680757
6445,6445,0.9054550000001882,0.0,2500.0,-2500.0,2500.0,-2500.0,11.011057781000453,74.26158672457436,92.60150825051485,104.0,11.0,1.392345738520154,1.538759383211847,10.187259098856998,-0.0769142030416463,-0.3254337392660597,-0.018725729080467417,0.04033770629772816,0.2787861395096321,0.09182208210157926,-0.1990747603302465,9.260673228934078,5.334919737594482,-11.719425147134436,-323.03797779198663,52.15636499568149,9.345285901334874,-3.8029367792753845,1.7693408189548925,166.2518,172.56926681840648,6.0,11.073568856899664,0.15151745757040147,-0.1950840227678068,-8.685422462870553,15.66453352833298,1.5574729000000002e-19,2.439708646152e-18,9.715431132506335,-1.3855733481669819,2.8190244283348433,16.18058724243285
6446,6446,1.0249880000000076,0.0,2500.0,-2500.0,2500.0,-2500.0,11.199189708969037,76.82091712141637,92.76801974408087,104.0,11.0,1.3979187428017212,1.5423513456810327,9.86736508241653,-0.13741428990279,-0.358351360192383,-0.020039098269555716,0.039547497811089925,-0.04236962981604027,0.09869707133337913,-0.1666849332580774,10.283651933520533,6.275863747111644,-12.827066377615536,-321.9408199717656,51.73755803298826,9.280996607819224,-3.651795645109869,1.6641638693857592,166.2518,172.72031017512458,6.0,11.00376759499025,0.6915132320513957,-0.7137154274868232,-8.939298891057163,15.667554441655225,1.5574729000000002e-19,2.4401791452152643e-18,9.619107664481453,-1.0034765013715,2.8521625210470862,16.51562182280301
6447,6447,1.1237859999999955,0.0,2500.0,-2500.0,2500.0,-2500.0,11.540313086744698,81.57215125393334,92.90319361780205,104.0,11.0,1.4029094481824953,1.5453457689094972,9.501047057932457,-0.2988476628005133,-0.3709965992440037,-0.07254315239753265,0.03353838228900189,-0.12220141219449265,0.015572334987293015,-0.09541761711028064,9.509172760522146,6.696192701900207,-13.593523186138654,-321.034274597099,51.39964943872953,9.222384796318188,-3.5339515622301736,1.7269827839589469,166.2518,172.84809284070613,6.0,11.03470699841298,0.3642009125134276,-1.568156091647396,-9.804239175067094,15.669216968158002,1.5574729000000002e-19,2.440438079212625e-18,9.526446518215733,-0.7867113901262759,2.965826023208449,17.292698893605813
6448,6448,1.2193090000001803,0.0,2500.0,-2500.0,2500.0,-2500.0,11.765411102230058,84.78528479872737,93.03950887155337,104.0,11.363056918234506,1.4072675485698023,1.5478153845911726,9.366542143793284,-0.25700543410841736,-0.3677665046452864,-0.08339863773869019,0.023224732553743733,-0.3541606375052299,-0.01645661635565904,-0.03194247978926186,8.185008183066548,6.773490106457664,-13.996117971969447,-320.17811964306037,51.099963252410916,9.15891949292427,-3.4090833228764543,1.8719814975393891,166.2518,172.9910903565907,6.0,11.13536878055957,0.2734138867586464,-1.3637173382836396,-11.360705453596053,15.670824384493608,1.5574729000000002e-19,2.4406884299507974e-18,9.422943760667927,-0.6573795977846779,3.102614189100886,18.2247327201532
6449,6449,1.3158650000000307,0.0,2500.0,-2500.0,2500.0,-2500.0,11.849866194798937,86.00684041656629,93.19789095682438,104.0,11.83720039480866,1.4115348872733176,1.5501861019740433,9.2954208593789,-0.1964976571307628,-0.3524535877779625,-0.09590018381831324,0.009404138795717634,-0.4111076538701244,-0.10981020332579168,0.05187694005210315,5.867230017740184,6.486828711278836,-13.99636543027398,-319.3142208554754,50.800928948087886,9.09049000242859,-3.3156839435100296,2.029604758261005,166.2518,173.15431079903274,6.0,11.266692295048585,-0.013889581890282332,-0.1191020337003037,-11.405495066963608,15.672670043715945,1.5574729000000002e-19,2.44097588637294e-18,9.331636454501727,-0.6948215282014114,3.202533961372649,18.94176093104634
6450,6450,1.4096180000000231,0.0,2500.0,-2500.0,2500.0,-2500.0,11.82613927412018,85.66276503471389,93.35137026732843,104.0,12.0,1.4151579781373682,1.5522331732213532,9.303985400402892,-0.16519779521312555,-0.3335546056464122,-0.10424887736652108,0.0015784477174097115,-0.2460938007339716,-0.1440041710312961,0.1182344149595866,4.46858410051808,5.7116016256077335,-13.505460880345733,-318.49452112584447,50.53163795421571,9.003847635976994,-3.26049348453841,2.0025755513134933,166.2518,173.31767027404126,6.0,11.378722483236228,-0.3965959862158611,-0.21294648412554906,-9.78048365148886,15.675217752242586,1.5574729000000002e-19,2.4413726850716744e-18,9.26977635252869,-0.8332521681682126,3.037021477430386,18.14015080676266
6451,6451,1.5289569999999912,0.0,2500.0,-2500.0,2500.0,-2500.0,11.79726346380583,85.24495045080222,93.54381341173149,104.0,12.0,1.4194074669003252,1.5546614525144715,9.368941264423984,-0.10359100929429924,-0.3321266442431908,-0.11017485303145316,0.0,-0.3963247529852415,-0.04122315939421476,0.0953186315331592,2.0698706622072742,5.207723952516249,-12.860543406257216,-317.45374893121004,50.1855262409589,8.896158463623467,-3.238102266764779,1.920667104209021,166.2518,173.50999407347192,6.0,11.487795118336413,-0.3040017225504911,-0.026983577844873152,-9.600349655797814,15.6784607523371,1.5574729000000002e-19,2.441877773547864e-18,9.180620026688787,-1.0720392601929607,2.8703859199915898,17.362223974129975
6452,6452,1.622584000000188,0.0,2500.0,-2500.0,2500.0,-2500.0,11.654687146811568,83.19699474641482,93.69387615342363,104.0,12.0,1.4218785374008742,1.5568785374008742,9.42683937242273,-0.08237287599678718,-0.32702730689986553,-0.1159089333613822,0.0,-0.21648557580152208,-0.05686291104471008,0.1186578595803766,0.7587884491996852,4.836684641833774,-12.321751196256125,-316.65576998627364,49.922879282205095,8.827066174864761,-3.2462207307875146,1.868307484956548,166.2518,173.64616548256578,6.0,11.54395055654912,0.3630507988881526,-0.7603695903703371,-9.87533553836158,15.6813779043399,1.5574729000000002e-19,2.442332112066819e-18,9.125775952989851,-1.248093491495645,2.755525811111293,16.801677889369206
6453,6453,1.7210150000001931,0.0,2500.0,-2500.0,2500.0,-2500.0,11.468632973660574,80.5618658731796,93.84765553934996,104.0,12.0,1.4242802893468032,1.5592802893468032,9.489284923016873,-0.07536502554681035,-0.32627525672254865,-0.12238658383392242,0.0,-0.014101845354811881,-0.09859507738008752,0.1268461548910751,-0.025056085702910052,4.430944601988228,-11.663894595621136,-315.810581400159,49.63093528192536,8.768923638896055,-3.27504397639456,1.9181477274831997,166.2518,173.79553019793073,6.0,11.563808882441144,0.2340085538354208,-0.4024496834747533,-9.555226417394524,15.6854369231059,1.5574729000000002e-19,2.4429642932396827e-18,9.074127300453073,-1.43146174627898,2.737877419910565,16.789796704583356
6454,6454,1.8167160000000422,0.0,2500.0,-2500.0,2500.0,-2500.0,11.252195386214053,77.54984947653256,93.99528498981465,104.0,12.0,1.4266630990805913,1.5603326998161182,9.301123246974274,-0.09824168125729453,-0.3192953243814317,-0.11885372422550035,0.0,0.18865449600424555,-0.10913663052553722,0.15042301715775774,0.5404304191300466,3.884481771130075,-10.870367499059824,-314.9958594259916,49.33754641381867,8.708443320840098,-3.2861949516988,1.879131633093084,166.2518,173.94581033158687,6.0,11.532025094835316,0.24873149280957255,-0.4642156820827923,-8.619953876609305,15.689383364317765,1.5574729000000002e-19,2.4435789407635742e-18,9.023544925816543,-1.5577392785468434,2.603426652316781,16.093635849840215
6455,6455,1.9347480000000132,0.0,2500.0,-2500.0,2500.0,-2500.0,11.003491463724869,74.1595787195228,94.1614323400892,104.0,12.0,1.4296281163383417,1.5609257032676684,8.932275693113539,-0.13479070099400914,-0.3211003992550818,-0.11238973537657124,0.0,0.18318431702000115,-0.044059131953848,0.11723896553888324,1.9003365194735191,3.1519699413423194,-10.021815127522126,-313.9898023233706,48.96541623385615,8.641859520270751,-3.2752717282723083,1.6810055421508956,166.2518,174.108956819318,6.0,11.418504880362036,-0.08462128046994298,0.4587454771318179,-8.735452208859927,15.694307735418384,1.5574729000000002e-19,2.444345898217451e-18,8.973805924056062,-1.6465931689117828,2.2711736405680814,14.20271013839952
6456,6456,2.030567000000019,0.0,2500.0,-2500.0,2500.0,-2500.0,10.772645289754564,71.08056808975601,94.29028870952726,104.0,12.0,1.4320150584129259,1.5610001,9.005286135053533,-0.14016274440203405,-0.33655969020355553,-0.10799354655216467,0.0,0.01756508059184457,-0.03265064751616592,0.06590900525387829,2.480358979732003,2.9486652974793053,-9.551089237539774,-313.19860428893054,48.67278647986614,8.596388521284608,-3.2429919997949304,1.52793434737642,166.2518,174.2288303222905,6.0,11.284641045720324,0.05099762464448089,0.22322559166695355,-8.043108558461808,15.698400343121051,1.5574729000000002e-19,2.444983310776173e-18,8.924790773737364,-1.6832124948929743,2.0789430869456837,13.112661885090807
6457,6457,2.1271809999999505,0.0,2500.0,-2500.0,2500.0,-2500.0,10.558210279805195,68.27894573357463,94.40021050124912,104.0,12.0,1.4344181048153473,1.5610001,9.147546001467587,-0.1416182938278188,-0.3503328867798176,-0.10668610519198916,0.0,-0.0007514101708866044,-0.059224362025231986,0.07312688908013006,2.4500299095246967,2.7404747109373337,-9.184402388124251,-312.395666935432,48.37697394074315,8.573463043214415,-3.1996630725697224,1.4401210856486168,166.2518,174.339679663488,6.0,11.112687665410068,0.534305714195306,0.3866876376722085,-9.721143730276168,15.702526906752324,1.5574729000000002e-19,2.445626011878757e-18,8.895136614333964,-1.7083295347444103,1.9514383660096208,12.373673859256828
6458,6458,2.2251229999999396,0.0,2500.0,-2500.0,2500.0,-2500.0,10.245555028913753,64.29515222193247,94.51252891455532,104.37650071468649,11.623499285313528,1.4372591042881189,1.5606235992853137,9.050601250574422,-0.1698494884691525,-0.3521860628362458,-0.10518391460161734,0.0,0.2040308707425801,-0.15780763866788902,0.08583826338268605,2.886277792153317,2.248908346426448,-8.824022916422479,-311.5821328959232,48.07763008736321,8.58841695561999,-3.1527840780758707,1.5025768308714167,166.2518,174.45161662050626,6.0,10.910231451320106,0.3764056036278516,0.06556545218473064,-10.456123691141338,15.70624681899648,1.5574729000000002e-19,2.4462053781298222e-18,8.904531919033882,-1.7032918607616945,1.9216290129167508,12.177875144921925
6459,6459,2.3474330000000236,0.0,2500.0,-2500.0,2500.0,-2500.0,9.68453000868904,57.446806383849356,94.660201962213,104.99426230750208,11.005737692497934,1.4409656738450125,1.560005837692498,8.83500245468178,-0.18037850695742766,-0.3312463569771493,-0.09810141426277927,0.0,-0.08623041254447034,-0.2644376006498144,0.022207275004630458,3.7209768681343536,0.7089472347167142,-8.459135146149688,-310.5497715027852,47.70706765172355,8.672003824871743,-3.0500086006780136,1.6406543264927589,166.2518,174.60103101816185,6.0,10.586429518136711,1.0319426589357017,0.09360773432876393,-11.252133392702973,15.709514298160315,1.5574729000000002e-19,2.4467142791547208e-18,9.005338766507162,-1.6272935766142291,1.7700624494190005,11.120125882965862
6460,6460,2.4424269999999524,0.0,2500.0,-2500.0,2500.0,-2500.0,9.341089670672924,53.44432516586363,94.77239570769508,105.0,11.462388846466794,1.4437743868399162,1.5609248314540491,8.778900967352232,-0.12366651607603145,-0.306872300648537,-0.09778733868414596,0.0,-0.25238268053560864,-0.3014693423660844,-0.029785660432290344,2.314800969083831,-1.011006207467685,-8.682133335780302,-309.75260882521184,47.434770073699276,8.708883926630735,-2.962311111846881,1.5417980040699588,166.2518,174.7196323240704,6.0,10.266647071421355,-0.24085346120987405,0.4653830672339122,-7.857619659262926,15.71205203763942,1.5574729000000002e-19,2.4471095252013174e-18,9.08205172678468,-1.5576770224770555,1.3521640346131825,8.468170014173438
6461,6461,2.5363540000001876,0.0,2500.0,-2500.0,2500.0,-2500.0,9.152579855799337,51.30896643436003,94.87754169047815,105.0,11.925117619528857,1.4465507132054107,1.5618502427272956,8.724762163632743,-0.11083501930037118,-0.3151826698565807,-0.09910348107125448,0.0,-0.09213208870361801,-0.1831274631357005,-0.02832755644705555,1.5005038067153755,-2.341134190391508,-8.87257343628002,-308.95491594518916,47.16991639351304,8.733097540068195,-2.8894415630792567,1.3153051963955495,166.2518,174.8218309887359,6.0,9.942957076345325,-0.2015027760617906,0.4545100774447157,-7.669598484769678,15.71461046371614,1.5574729000000002e-19,2.447507993129433e-18,9.12041075634784,-1.4819295967307222,0.8816121324268341,5.52126479419204
6462,6462,2.6328770000000077,0.0,2500.0,-2500.0,2500.0,-2500.0,9.135753919253183,51.12048063352755,94.97952239097296,105.0,12.0,1.4494773743649758,1.562825818980915,8.758528138250721,-0.12293067027925313,-0.3378069440791056,-0.09714421376018413,0.0,0.041995476826742525,-0.09007490508785296,-0.05079176633403146,1.616506255463173,-3.0086059636528675,-9.103983319531329,-308.14570684392345,46.91165003012861,8.770620902775207,-2.8122164558646157,1.1369832923631726,166.2518,174.91207461403943,6.0,9.64497716962285,0.26960150743093225,0.3547058190324801,-7.9663885106088435,15.717311809320185,1.5574729000000002e-19,2.447928720386616e-18,9.152229228909986,-1.3685807743166496,0.5843591515573775,3.653309567759032
6463,6463,2.7520739999999932,0.0,2500.0,-2500.0,2500.0,-2500.0,9.321393871972274,53.2191328198025,95.06508744235623,105.0,12.0,1.4530727241676784,1.5639819435041682,8.816185752224289,-0.12405292929494233,-0.34168187376509496,-0.09366566560179784,0.0,0.007338976942946032,-0.10969565765212287,-0.09821994247006287,1.6877005564062528,-3.719829324099564,-9.677852848124504,-307.13450550893657,46.60009535801021,8.82424131139014,-2.7189699769207096,0.8923820750689809,166.2518,175.00013934518753,6.0,9.398629457469745,-0.3685758872400456,0.2136182801626691,-8.037635312443191,15.720647721920962,1.5574729000000002e-19,2.448448279733864e-18,9.194347472508351,-1.1855924765046597,0.21872166822973385,1.3627356792210246
6464,6464,2.851216000000022,0.0,2500.0,-2500.0,2500.0,-2500.0,9.50343720953376,55.31817601789896,95.12411886564121,105.0,12.0,1.4550957939153542,1.563476163422747,8.737790092494079,-0.1251666010228507,-0.3330576794834157,-0.09272020523768992,0.0,0.020655813413918308,-0.0947286393272817,-0.11940134290601667,1.724005179578773,-4.273891484882214,-10.36463758738136,-306.29834071232835,46.35143539104514,8.855517304352428,-2.6664919452452063,0.6535118217976549,166.2518,175.05230867253098,6.0,9.301630898840486,-0.3718100650938485,0.4909361274096996,-7.877858665893406,15.722241230032553,1.5574729000000002e-19,2.448696464303837e-18,9.213898059036168,-1.0279040798130794,-0.10996780834851094,-0.6837922582307568
6465,6465,2.9463759999999866,0.0,2500.0,-2500.0,2500.0,-2500.0,9.644592702885168,56.97368038322441,95.15314672954214,105.0,12.0,1.4570273749461544,1.562981850035897,8.66769611316838,-0.14004463657666275,-0.33356018775821034,-0.09218547103284493,0.0,0.07243610270096372,-0.035822691041069527,-0.1186739289325744,2.074297829589065,-4.4969810671971935,-11.047214869599674,-305.4864411593675,46.11595056132935,8.9138558867789,-2.6272149581094046,0.489394715526132,166.2518,175.08467849720228,6.0,9.2845903207434,-0.057415081896520836,0.21172301376737726,-8.273970347448941,15.722803674192651,1.5574729000000002e-19,2.4487840634575487e-18,9.26198881659241,-0.8763957578637445,-0.3056328295583603,-1.8899957211035168
6466,6466,3.0424990000000207,0.0,2500.0,-2500.0,2500.0,-2500.0,9.994401492492964,61.181566957060994,95.17878915050068,105.0,12.0,1.4584551350923136,1.5620300099384576,8.86044349493982,-0.1254282802493676,-0.31542534373892783,-0.09141035132729526,0.0,-0.10430163753026893,-0.06468043460213606,-0.1665646831041391,2.025679876387672,-4.671705357206633,-11.901372951686316,-304.6746272174118,45.88673060578263,8.972709862087674,-2.58941158559673,0.366883501082749,166.2518,175.10265502124255,6.0,9.354907141800362,0.05056923659480335,0.4001063826328466,-8.947518945381018,15.723371810174164,1.5574729000000002e-19,2.4488725490970207e-18,9.312779316314886,-0.694947266216152,-0.44832260784544026,-2.7561243136284683
6467,6467,3.138482000000181,0.0,2500.0,-2500.0,2500.0,-2500.0,10.303186740580513,65.02040959859791,95.19101884115416,105.0,12.0,1.4598808157526009,1.5610795561649329,9.052910146465162,-0.10739869148912796,-0.29929471149146114,-0.09411918420487513,0.0,-0.12309360416916255,-0.01546794186657766,-0.16875232019569875,1.5036101237181865,-4.849390950022652,-12.869454048565602,-303.842121111253,45.65478574206831,9.050564442479764,-2.564876069657477,0.31357084676414043,166.2518,175.1144271025795,6.0,9.51869732153564,0.33381529692413336,-0.2615408148021441,-9.847614393990812,15.723917634006801,1.5574729000000002e-19,2.4489575596797713e-18,9.38737020870541,-0.4955165121596924,-0.5225336116595518,-3.1859941714674243
6468,6468,3.2576950000000124,0.0,2500.0,-2500.0,2500.0,-2500.0,10.57614628581366,68.51111293390029,95.1993890959732,105.0,12.0,1.4621902373534963,1.5604525543502672,9.058596632655076,-0.07236460571456119,-0.2705468601124948,-0.09998619444016216,0.0,-0.17509753893021354,-0.058598744971874575,-0.19812019390819655,0.3622235939512176,-4.955872677949243,-14.18734741733171,-302.8114118118727,45.36025072602757,9.112061280365266,-2.5709336308310426,0.16688751817543335,166.2518,175.12214143520137,6.0,9.80073590593326,-0.6479741182763279,-0.1851331973633884,-8.00177659547294,15.7245567435087,1.5574729000000002e-19,2.449057099252706e-18,9.44329272262026,-0.26236238351170243,-0.6737192687781383,-4.080777608480764
6469,6469,3.354759999999942,0.0,2500.0,-2500.0,2500.0,-2500.0,10.698050419735356,70.09958978926963,95.18989830443482,105.0,12.0,1.4640778748339072,1.5600519472967769,9.054251716845199,-0.05828550068315572,-0.2605202658320961,-0.10504958085158504,0.0,-0.1431204277474661,0.03251536406204104,-0.2035735675356156,-0.24384495623540664,-4.948154135422648,-15.297643854924605,-301.9508246299721,45.113784536102564,9.1682170794967,-2.613955653257189,0.06337343187198151,166.2518,175.11310869726242,6.0,10.044107007406954,0.008144130550391204,-0.4757102010860685,-8.926980069650979,15.725077115983195,1.5574729000000002e-19,2.449138145855399e-18,9.502958192275466,-0.09884433951215016,-0.7679569041487724,-4.620169620290429
6470,6470,3.4520840000000135,0.0,2500.0,-2500.0,2500.0,-2500.0,10.864974585551028,72.30428399965137,95.1806196303837,105.0,12.0,1.4655374502167071,1.5610249488994643,9.134042324296734,-0.04975610301175015,-0.25545177834612,-0.10959774962128194,0.0,-0.028920131709326863,0.06357612530183962,-0.19517128043623388,-0.8764097575367611,-4.642565180347477,-16.51223750507183,-301.10176921076567,44.864780849064296,9.228883698798803,-2.7027873922857024,0.05202297621309519,166.2518,175.1005413825483,6.0,10.291456700039802,0.534277972736481,-0.509182879059836,-10.771000788777403,15.725862355553632,1.5574729000000002e-19,2.4492604447904947e-18,9.589121681346072,0.04272083547638848,-0.723846725258172,-4.316855897444328
6471,6471,3.5482400000001917,0.0,2500.0,-2500.0,2500.0,-2500.0,11.12758717771194,75.84179306132683,95.17231861390141,105.0,12.0,1.4669795090152429,1.5619862733631946,9.21287535263628,-0.03766639924611024,-0.24955888557037145,-0.11186681997667476,0.0,-0.1233977640832974,0.07019683777891635,-0.1807320262469696,-1.1724646672097432,-4.22854709357492,-17.60698193991225,-300.24176604633664,44.604219917122705,9.303026244193482,-2.8253870951473603,0.1415251237277065,166.2518,175.09344645582985,6.0,10.557295835235717,0.4323187039931343,-0.6677111738537089,-11.064899241408416,15.726858003513732,1.5574729000000002e-19,2.4494155142620744e-18,9.705826260098565,0.13245768445976294,-0.5666589930951279,-3.3413285701235163
6472,6472,3.668044000000009,0.0,2500.0,-2500.0,2500.0,-2500.0,11.521498605653957,81.30638126419966,95.16972831753485,105.0,12.0,1.4675846377118853,1.5631692508026218,9.407501748171127,-0.023661870725531383,-0.236477185959105,-0.11531824585084018,0.0,-0.07515016333748413,0.062437305104607675,-0.14097797093399755,-1.892754571477809,-3.7310006166283984,-18.72875950575069,-299.17634389309563,44.25494815325717,9.376355308159267,-3.0096346445012583,0.3085518149349845,166.2518,175.09875293403297,6.0,10.93457386821579,0.08514443967457798,-0.929964637736236,-11.162544193739611,15.728098514851684,1.5574729000000002e-19,2.4496087205411747e-18,9.845438451165744,0.1710194601439916,-0.3222012386987443,-1.8743893466932842
6473,6473,3.7626299999999446,0.0,2500.0,-2500.0,2500.0,-2500.0,11.771904356540766,84.8788972096475,95.18176148877475,105.0,12.0,1.468205221615016,1.5641540072330409,9.561725143495199,-0.018395481475343256,-0.2289073584332635,-0.11625652274007005,0.0,-0.03852321446801589,0.09424412075957417,-0.1272367114729818,-2.2468346309389418,-3.3804945916242035,-19.470511599826093,-298.31473889574033,43.96123042754186,9.407897017865581,-3.16613756118266,0.3872599919907511,166.2518,175.11220839669102,6.0,11.2533402249359,0.3274906164979742,-1.2148345346866487,-10.534083703072508,15.728742020751769,1.5574729000000002e-19,2.4497089448412123e-18,9.930796504520062,0.15830616045549975,-0.18962667440956044,-1.0939190961801208
6474,6474,3.850189999999998,0.0,2500.0,-2500.0,2500.0,-2500.0,11.993464746421173,88.1040284696646,95.19601541978192,105.0,12.0,1.4699278948592591,1.5654459368011528,9.702119503042038,-0.014378242133695025,-0.23031767885553084,-0.11685304015651415,0.0,-0.0354068301727434,0.14513116364462408,-0.11555001846534625,-2.4314929182852216,-2.8746884105371118,-20.105251567737973,-297.5269082577036,43.67316824874783,9.424748182496328,-3.3202027974274237,0.4619175622709351,166.2518,175.12906061769112,6.0,11.5458037727135,0.002850937427370359,-0.9615030777280492,-11.05137721694761,15.72918437637613,1.5574729000000002e-19,2.4497778405309227e-18,10.002328066401594,0.1233723015101077,-0.033620322782828733,-0.19258469969484174
6475,6475,3.9705110000001014,0.0,2500.0,-2500.0,2500.0,-2500.0,12.251658711222332,91.93822072707759,95.23809441703732,105.0,12.0,1.4723885755282435,1.5670777028751592,9.867736805562757,0.00937239138766316,-0.22919943583054456,-0.11792702051385892,0.0,-0.15114801776825193,0.12197024099466636,-0.10772931974871283,-3.2770663724256552,-2.060357051502335,-20.987945779214925,-296.4275329282324,43.25819461871267,9.438245823647444,-3.5219880060850786,0.5971324563111123,166.2518,175.16819115998763,6.0,11.927975142062357,0.1144741271798696,-0.6948640185017504,-11.699721468779645,15.729792241509507,1.5574729000000002e-19,2.4498725138781317e-18,10.088504598147004,0.07871720851285194,0.2375102427604855,1.3486459795588923
6476,6476,4.06464399999993,0.0,2500.0,-2500.0,2500.0,-2500.0,12.477159579889202,95.3537201394317,95.27701121299688,105.0,12.0,1.4748272795562647,1.567565492454844,9.847251691727378,0.008422725000135219,-0.2285168965579082,-0.12060513312689425,0.0,0.08196726410449506,0.11547289206599096,-0.10364027363079796,-3.363209753398363,-1.4605055888913387,-21.576586321877517,-295.5724924234203,42.907823144087466,9.418914684497764,-3.6791577191742375,0.6732853876110122,166.2518,175.21034666994638,6.0,12.213693223053149,-0.04831559680248626,-0.976494293357973,-10.46193048672377,15.72964708744503,1.5574729000000002e-19,2.4498499065259567e-18,10.12576743505473,0.018027616506393385,0.4157016030813427,2.3508914262086296
6477,6477,4.159823000000188,0.0,2500.0,-2500.0,2500.0,-2500.0,12.50302554839702,95.74946194895064,95.33090649959757,104.94268961987349,12.0,1.4772293415205058,1.5681147150292152,9.824873709941274,0.0718821156944403,-0.2395851572689837,-0.12525018520650433,0.0,0.04875687114499621,0.16304149924315134,-0.12409199919842613,-2.865584090370632,-0.7289960165923137,-22.267367991974425,-294.70185061604013,42.540192922502314,9.400177330211632,-3.8351023029008457,0.7557937389890506,166.2518,175.26064429272515,6.0,12.46782504157048,0.4575953381520996,-0.4915617245835188,-11.194171994861376,15.729200445508553,1.5574729000000002e-19,2.4497803432547507e-18,10.161191850442883,-0.018425724312506518,0.6259438697589537,3.5250471366289373
6478,6478,4.279328000000191,0.0,2500.0,-2500.0,2500.0,-2500.0,12.401509874617036,94.20094373458844,95.41433889652373,104.33707665877796,12.0,1.4796517933648885,1.56932588039011,9.781270182355351,0.08610559986721347,-0.2611382791703576,-0.12290698102152632,0.0,0.21081824441111155,0.15151856627048704,-0.13929672042681612,-2.2413116253443333,0.3228724636153115,-23.236029269889325,-293.62450186666405,42.054297246905186,9.36032014844062,-4.0410349765913285,0.9299495637658736,166.2518,175.3422553217018,6.0,12.672526189621635,-0.043787774609329366,-1.3157183586801549,-11.944521473658392,15.728639650116525,1.5574729000000002e-19,2.4496930008921968e-18,10.189946639451954,-0.059039231970294676,0.9867469203585336,5.531010908119309
6479,6479,4.3755610000000615,0.0,2500.0,-2500.0,2500.0,-2500.0,12.368756268495293,93.70400902310298,95.50464001926126,104.0,12.0,1.481583283018035,1.5697084157809524,9.808176589222308,0.062409201539258274,-0.27436180726614945,-0.11416587717535776,0.0,0.17394550690309235,0.09380868773696152,-0.1596642984532207,-0.9667541976796006,0.9832260014664744,-24.10612465080307,-292.7588102888144,41.64747437219454,9.321126298263898,-4.199263748458659,1.1479659498169028,166.2518,175.43362213713272,6.0,12.763553904274282,0.6313297378543917,-1.0899046152947711,-12.480506613690414,15.729811503454735,1.5574729000000002e-19,2.449875513873901e-18,10.202128792312275,-0.04836080908757878,1.3234845963939703,7.391491325609822
6480,6480,4.4737640000001875,0.0,2500.0,-2500.0,2500.0,-2500.0,12.441533207854318,94.80995161500964,95.61168927783454,104.0,12.0,1.4835104087304014,1.568744877014443,9.97728609822017,0.04587236795041323,-0.2888544240032705,-0.10924765422334824,0.0,0.13147227944668713,0.11192819401784117,-0.16798949330610538,-0.21830311285604012,1.5340135157116015,-25.11529873511683,-291.8850731954309,41.215660465707224,9.270888143910906,-4.3430257796461005,1.3598488930761663,166.2518,175.54972087376225,6.0,12.82320897273224,0.4727677079359955,-1.4031155784896843,-11.426852995219305,15.731485527374304,1.5574729000000002e-19,2.450136238562768e-18,10.19766296468902,-0.0036940641986171314,1.633350099469693,9.099721358326095
6481,6481,4.569489000000203,0.0,2500.0,-2500.0,2500.0,-2500.0,12.428657157966207,94.61379874764435,95.7450517086384,104.0,12.0,1.485198046325415,1.5678020635764065,10.093940413924834,0.0094516924678998,-0.3016005044611067,-0.10329462884789953,0.0,0.2225253455968668,0.0659772362031866,-0.13938458637377055,0.8290250393541707,2.039037118511039,-25.976482452919655,-291.0334452056166,40.779926983194564,9.221799124491104,-4.4594712983008185,1.5708517909837965,166.2518,175.68518053982618,6.0,12.855451238397805,0.5789098808854833,-1.1488297302842725,-11.914777221196715,15.733117309903355,1.5574729000000002e-19,2.4503903842695374e-18,10.181037473578092,0.05818792156778639,1.9330442376990007,10.750618574623823
6482,6482,4.667591000000016,0.0,2500.0,-2500.0,2500.0,-2500.0,12.383246107062151,93.92368175819216,95.89494920837306,104.0,12.0,1.486178404616653,1.566821754300632,10.024338455344862,-0.0149143746760557,-0.3168834611485125,-0.09622102447088614,0.0,0.1307492845850927,0.05291601854011176,-0.16326011137871194,1.9345683516205636,2.4174541932749127,-26.82157441547095,-290.16635760415625,40.31615740916737,9.17057549033014,-4.546670955234337,1.7571371701745726,166.2518,175.8402945418724,6.0,12.848603683375726,0.4718305084359482,-0.5026487367348288,-12.166621502997902,15.733998047507315,1.5574729000000002e-19,2.450527556764556e-18,10.152262527779987,0.15413457393918858,2.1826698630364483,12.133521015629942
6483,6483,4.780756999999994,0.0,2500.0,-2500.0,2500.0,-2500.0,12.400292189127908,94.18246318988196,96.11338205416338,104.0,12.0,1.4871527207551636,1.565694827962469,9.945853045522947,-0.017282195665158324,-0.3320104093877892,-0.09377855292307027,0.0,-0.009701017016425286,0.057011928877913925,-0.14968479845070815,2.170233280619378,2.806140924322546,-27.848363154985503,-289.1755952423884,39.77234597549688,9.099373793908144,-4.634669005870993,1.9522845621921687,166.2518,176.05039484285558,6.0,12.808365165679312,-0.07076389652634801,-1.2328958586403038,-10.92230717053123,15.734550981988948,1.5574729000000002e-19,2.450613674811617e-18,10.10273422659952,0.2452933758827109,2.4405867513199917,13.58112917234665
6484,6484,4.8712639999999965,0.0,2500.0,-2500.0,2500.0,-2500.0,12.48287843558222,95.44113920627224,96.29066480547924,104.0,12.0,1.4875991590308368,1.564801862114538,9.886917299559489,0.008330099887890303,-0.34591607985227824,-0.09946114962756587,0.0,-0.17931100213243995,0.05129604938303367,-0.1470326435262614,1.4872317487452176,3.0414380585006597,-28.64895334892855,-288.3895149302615,39.33363115930811,9.026173112025633,-4.70152838095232,2.0358509584807747,166.2518,176.2382837718572,6.0,12.777081569425766,0.16783136349507385,-1.6548030024006628,-10.843366643109405,15.73499320351422,1.5574729000000002e-19,2.4506825496157584e-18,10.052889994706328,0.268080059571476,2.5613005254086474,14.293850691275132
6485,6485,4.9912649999999985,0.0,2500.0,-2500.0,2500.0,-2500.0,12.535074706461275,96.24095783012794,96.5348601358557,104.0,12.0,1.4881976797671226,1.5636047602317549,9.79407367977327,0.04089312699709414,-0.3643231154720525,-0.10785154583575736,0.0,-0.17212730034296586,0.04154806365829273,-0.11275281501979402,0.40603112718045936,3.3941507743859414,-29.47017607651323,-287.3622651909622,38.74509315776866,8.90525515116981,-4.800827398520262,2.1109144673065168,166.2518,176.49798722162484,6.0,12.741683061127338,0.5279099454351422,-1.1599137988149124,-10.555853830171355,15.735524340576687,1.5574729000000002e-19,2.4507652727738567e-18,9.972167987887774,0.2202880857983799,2.694062520812844,15.118020778404038
6486,6486,5.0856240000000525,0.0,2500.0,-2500.0,2500.0,-2500.0,12.597275475569505,97.1984567920107,96.72662872564352,104.0,12.0,1.4886791931427732,1.5626417816269773,9.696817703489534,0.06361564662976762,-0.36944588720340016,-0.11651567278774695,0.0,-0.2534111847740055,-0.010084895133317735,-0.09925748616658762,-0.833492542423292,3.4919198439629,-30.070913948305808,-286.56814769606046,38.27713591433695,8.80530791345227,-4.8800768829834364,2.160823699025215,166.2518,176.70140952992443,6.0,12.721949110101528,0.2763327271747332,-1.3085325655825213,-9.7896399909976,15.735926687481037,1.5574729000000002e-19,2.450827937213849e-18,9.91513429565672,0.1481982706480376,2.758080056938841,15.544902850498545
6487,6487,5.180883999999992,0.0,2500.0,-2500.0,2500.0,-2500.0,12.549125292354677,96.4568649377713,96.91980625855568,104.16266788598074,12.0,1.4888374158472306,1.561674680494827,9.643712925122728,0.06972636764952056,-0.3735905606109001,-0.12166105290420115,0.0,-0.006940720549580184,-0.036640369666240125,-0.08474019333563329,-1.5198260670290216,3.3238117890979013,-30.577193073953737,-285.78435860711966,37.79625551926855,8.691603655127391,-4.968280046538193,2.138458142978449,166.2518,176.89585471175653,6.0,12.69584951626574,0.14116149219188492,-1.033908282074833,-9.730366234478714,15.736332876250613,1.5574729000000002e-19,2.4508912000139387e-18,9.869522124731946,0.07173570766409879,2.7059461891636847,15.33213416053658
6488,6488,5.276958000000036,0.0,2500.0,-2500.0,2500.0,-2500.0,12.413293184352298,94.38003643522792,97.11486654430928,104.64540571503241,12.0,1.488354629744396,1.560709253110507,9.678469566076616,0.057556787227147826,-0.3805562208754961,-0.11803024113968942,0.0,0.1999146445804329,-0.0378565773067968,-0.0924036798204686,-0.8889546872416716,3.1615023022752906,-31.054010725833173,-285.00412783101865,37.302810499650434,8.579834599480407,-5.068027868646908,2.1445572003997158,166.2518,177.09130948288976,6.0,12.640343831939152,0.4882102295936771,-1.1152043373314549,-10.157996266377626,15.736425987672167,1.5574729000000002e-19,2.4509057018655138e-18,9.831066850180145,0.042311584975356274,2.6858752263444843,15.28047638449174
6489,6489,5.396909000000051,0.0,2500.0,-2500.0,2500.0,-2500.0,12.367217758276324,93.68070412576313,97.35936631170617,105.0,12.0,1.4877530987653702,1.5595062481455548,9.765978654658797,0.02288801831515517,-0.3898729126128581,-0.10563582628128093,0.0,0.4099043360423295,-0.03158220078101125,-0.0652511737621977,0.8969100911923334,2.907067242999614,-31.68429124705784,-284.0461265346248,36.668926853889054,8.431948626477517,-5.2044813684887465,2.0832413175055815,166.2518,177.33102078475903,6.0,12.549201810749418,-0.03811647885815639,-2.0571278123659362,-7.395288010606334,15.736427578565886,1.5574729000000002e-19,2.450905949642899e-18,9.790397873507688,0.04043693505126047,2.5827799332131054,14.778363826443407
6490,6490,5.491809999999987,0.0,2500.0,-2500.0,2500.0,-2500.0,12.238039970898088,91.7339417799992,97.54243615120943,105.0,12.0,1.4872785913925963,1.5585571384890415,9.885092391106053,0.011069677818462898,-0.40965580756037456,-0.09283020008762596,0.0,0.26607383930773965,0.0644870495804807,-0.027708609992489825,2.8045599287388403,2.963359404447248,-31.95970095568741,-283.2962519528536,36.15744659736904,8.328036144602104,-5.283288013251222,1.91475852646898,166.2518,177.50912909127254,6.0,12.469389398380521,0.5325240774442211,-1.6467324971481714,-8.728308048599018,15.736428837224882,1.5574729000000002e-19,2.450906145675626e-18,9.750065836273064,0.04437616853086804,2.422986182189204,13.955851610358708
6491,6491,5.587179999999989,0.0,2500.0,-2500.0,2500.0,-2500.0,11.988824443151445,88.03582756490812,97.70907913818428,105.0,12.0,1.486804675279305,1.55760925055861,9.909466844653329,0.005413047629469303,-0.4220635151894562,-0.08418921339604664,0.0,0.14783432158787302,-0.0465239317258204,0.013479650303009046,3.9342549552783685,3.0060867729558667,-31.993223178901594,-282.54896461944674,35.63178573610775,8.24013769455701,-5.343068460554561,1.7686133866049731,166.2518,177.6744577056103,6.0,12.341140684518395,-0.008749032650120614,-1.447299347067761,-7.313312604710704,15.737132139747551,1.5574729000000002e-19,2.4510156831375825e-18,9.71314694740883,-0.008992392233588956,2.284445314613812,13.234924710335278
6492,6492,5.682380000000194,0.0,2500.0,-2500.0,2500.0,-2500.0,11.843888055432293,85.92009165614758,97.86621920735777,105.0,12.0,1.486335719002581,1.5566713380051622,9.80019956322039,0.013254160485767537,-0.44436695610479626,-0.08077640577781524,0.0,0.046062727386891725,0.007727958681629959,0.04742031756283605,4.262294447582171,2.940054268004068,-31.877856353546324,-281.8032128995344,35.102689458713364,8.153520884118421,-5.391214954881503,1.6103557185353892,166.2518,177.82523683084156,6.0,12.184116672983649,0.19222503269642985,-1.6349595228887468,-7.945391216642497,15.737937691138894,1.5574729000000002e-19,2.45114114558374e-18,9.675470623269575,-0.11499827497618448,2.1175217788952168,12.344809578654251
6493,6493,5.802974000000063,0.0,2500.0,-2500.0,2500.0,-2500.0,11.789861776235893,85.13802129661731,98.02644004666142,105.0,12.0,1.4854780978408284,1.5554780717407206,9.6815448326642,0.019154820206722958,-0.4651649650365094,-0.07699909991826827,0.0,0.005176783073121222,0.01948809941685347,0.07661708357654021,4.739967625867441,2.923059597522016,-31.412963810660354,-280.8652268442026,34.42470981536011,8.048811555028474,-5.432357633945869,1.3891930589863215,166.2518,177.9881484005357,6.0,11.982595326191474,-0.452547694144348,-1.2764277743458912,-8.710339548312218,15.738958118286881,1.5574729000000002e-19,2.4513000743466808e-18,9.617017322886127,-0.2849944779705145,1.8981171506552443,11.165004191305957
6494,6494,5.900940000000105,0.0,2500.0,-2500.0,2500.0,-2500.0,11.868018236218939,86.27054112587656,98.15319953341093,105.0,12.0,1.484503326320006,1.5545032514813222,9.606000039800472,0.04780435161698638,-0.4699553824430253,-0.08105266094926727,0.0,-0.07482760318719059,-0.053257335339539434,0.07745267229711728,4.3278713595751235,2.857626093993228,-31.026982498737826,-280.1098051512334,33.874598300706204,7.991069653579793,-5.4467270614335135,1.3605054228900335,166.2518,178.105693117788,6.0,11.864608661059554,0.3645862833347836,-0.9691173502406754,-9.627997750691575,15.73921973628564,1.5574729000000002e-19,2.4513408206410037e-18,9.575381494459574,-0.4089561955474907,1.8622658429296828,11.005767002986934
6495,6495,5.996905000000197,0.0,2500.0,-2500.0,2500.0,-2500.0,11.936606659213336,87.2705883323909,98.27270787794609,105.0,12.0,1.4840001,1.5537648433894125,9.544657887782963,0.06660864316016042,-0.4585347137467345,-0.08417228130565782,0.0,-0.10047305638061664,-0.11429594818065475,0.04150942884589972,3.892382043548308,2.2785314710119504,-30.71519187649816,-279.37277575226545,33.33474934233528,7.957524809374058,-5.457759705715258,1.3861747021864828,166.2518,178.21948696904542,6.0,11.796859679401894,0.16535315491609898,-0.9471653855724262,-10.160865931424825,15.739468618243144,1.5574729000000002e-19,2.451379583331414e-18,9.566159455357502,-0.5071502510283953,1.7887740338164642,10.5914119446569
6496,6496,6.095298000000184,0.0,2500.0,-2500.0,2500.0,-2500.0,11.972333404015286,87.7937859180955,98.39921531632216,105.0,12.0,1.4840001,1.553255088721302,9.496226351158805,0.07442837870093409,-0.432988767290528,-0.08525257206497287,0.0,-0.08779595595512893,-0.21734802916639812,0.009732983352613559,3.6538450728103964,1.25436411491175,-30.623071669772557,-278.6204481869493,32.779631781428954,7.932777344120012,-5.477758973481499,1.4418864411657721,166.2518,178.34532217215374,6.0,11.768646640655431,0.5893562519682325,-0.4240341806081563,-10.373138397635236,15.73972379713591,1.5574729000000002e-19,2.4514193267524284e-18,9.582883875537288,-0.5675082412007941,1.6634350354582284,9.847504980947189
6497,6497,6.212126000000012,0.0,2500.0,-2500.0,2500.0,-2500.0,11.952185618446364,87.49854090692105,98.55824401312952,105.0,12.0,1.484331480304404,1.5526686534129066,9.43256213136935,0.0697926242043532,-0.4016622624300813,-0.08615350700277777,0.0,0.07695784056284541,-0.2331962764446781,-0.009625558271676566,3.5183952070882016,-0.2312314019937784,-30.82931210740279,-277.72596277133783,32.119773074075965,7.917299747089758,-5.5259272988806485,1.459228193981708,166.2518,178.50385559167745,6.0,11.769276026007802,-0.14410624974350295,-0.9921491689076404,-8.366815362896148,15.740676633352006,1.5574729000000002e-19,2.451567728410898e-18,9.636318300761156,-0.6004552332110499,1.414897870477035,8.353036630822833
6498,6498,6.3084479999999985,0.0,2500.0,-2500.0,2500.0,-2500.0,11.842691473512176,85.90274468934051,98.67946545335478,105.0,12.0,1.4848035881831327,1.5521964511031592,9.376376147310124,0.06250468561191164,-0.3834439395017175,-0.08118337963675949,0.0,0.07106407269746648,-0.172142198507329,-0.042821363827611314,4.000301185374253,-1.3988065717999445,-31.080051693709326,-276.98996093045656,31.57283909996676,7.9025448248762595,-5.557543849180546,1.32669210206678,166.2518,178.6279397547745,6.0,11.76442699440056,-0.4419244023035072,-0.7497033824541453,-8.123013116153876,15.741515073206914,1.5574729000000002e-19,2.451698313146129e-18,9.666623895372707,-0.6038537718076713,1.0717798651989354,6.326786874354756
6499,6499,6.404007000000206,0.0,2500.0,-2500.0,2500.0,-2500.0,11.773553804796624,84.90264900189257,98.78741373910921,105.0,12.0,1.4855633463890323,1.5519999999999998,9.37130856059232,0.047713045261467316,-0.3797586122477794,-0.07473339216357214,0.0,0.0955441700777623,-0.08507154301023129,-0.06090838172784682,4.712687614665756,-2.1427371097147168,-31.423419071145684,-276.26431508444216,31.02813856279099,7.880309113125374,-5.581632873704059,1.097952045672932,166.2518,178.73293208249058,6.0,11.74310904662291,-0.03742635589028232,-1.072236135758407,-7.427325444606901,15.742346871488676,1.5574729000000002e-19,2.45182786347434e-18,9.668911728157438,-0.5935469063471147,0.7099908166591279,4.1997072076831765
6500,6500,6.500087000000008,0.0,2500.0,-2500.0,2500.0,-2500.0,11.670075572805159,83.41677588650992,98.88160177934792,105.0,12.0,1.4865388414879417,1.5519999999999998,9.403010078483426,0.03719194060248137,-0.3899033930459857,-0.06348305009206293,0.0,0.2953914328543903,0.0034706088712708073,-0.04521579355486504,5.9158943186430895,-2.3231138547208765,-31.729467910544248,-275.5371055770173,30.478796147582802,7.881900366013143,-5.585430328099148,0.8754998047608801,166.2518,178.81963047224022,6.0,11.712290806506445,-0.2308558456403637,-0.65200555107509,-7.634031945467275,15.742281550895054,1.5574729000000002e-19,2.4518176899689017e-18,9.668870688066592,-0.5550926322552711,0.4568508310707462,2.705194028567578
6501,6501,6.59903300000019,0.0,2500.0,-2500.0,2500.0,-2500.0,11.561361480815444,81.86992134147485,98.95199837294085,105.0,12.0,1.4875272452986408,1.5519999999999998,9.475722410201165,0.013573424352539635,-0.3902951104901527,-0.04657291318300704,0.0,0.35292292682283083,-0.0558677120628553,-0.042946729468803416,7.732757796274519,-2.4136713661842437,-32.014568187896316,-274.7875956859256,29.91616012699445,7.922132748590256,-5.5662690890840505,0.7579816826479043,166.2518,178.89317165372228,6.0,11.669200621007386,0.14100923249048292,-0.5941974987721407,-8.776395525983611,15.742197175779646,1.5574729000000002e-19,2.451804548773334e-18,9.69149951021719,-0.4723408129601207,0.32506421522814244,1.9210471949842336
6502,6502,6.718626000000199,0.0,2500.0,-2500.0,2500.0,-2500.0,11.377019212588316,79.27990425543632,99.028513718181,105.0,12.0,1.4887052867393635,1.5519999999999998,9.604717947960305,-0.010710729771467385,-0.38140265712445415,-0.024461742664162844,0.0,0.07021588475272242,-0.12737343550941188,-0.1114986348749688,9.51381670269994,-2.921062139397666,-32.64381145947823,-273.86783529073455,29.23814026466433,8.016409917188525,-5.533586783003192,0.6850404519488555,166.2518,178.96800564138417,6.0,11.583204728067054,0.13371232891959972,-0.6690212930673359,-8.783200613593625,15.742100133789759,1.5574729000000002e-19,2.4517894347463924e-18,9.75729879635561,-0.3038141615619941,0.16837710250184754,0.9886281128287464
6503,6503,6.8144680000000335,0.0,2500.0,-2500.0,2500.0,-2500.0,11.428039306070517,79.99255875536163,99.07985688229252,105.0,12.0,1.4899838663306837,1.5506883443512995,9.595026297812947,-0.02002756032863511,-0.3707507492432134,-0.024179100843731427,0.0,-0.0312178042679069,-0.11351324889767572,-0.11547383140860128,9.74225510082034,-3.5069669494428077,-33.4053977657777,-273.1223922786926,28.694935414175497,8.08853190547063,-5.523857960275253,0.6155466402113573,166.2518,179.02081314822217,6.0,11.529895170395514,-0.03510356437718248,-0.7039394576045576,-8.773833144816253,15.7425193831847,1.5574729000000002e-19,2.451854731703489e-18,9.812799266323768,-0.15518770282024347,0.005436696194824897,0.03174422569250898
6504,6504,6.909586999999988,0.0,2500.0,-2500.0,2500.0,-2500.0,11.454035639060555,80.35690378244726,99.11625337446215,105.0,12.0,1.4914035387717532,1.5487954950856218,9.534454080218131,0.00368067052761661,-0.3656854469609229,-0.03120117436351547,0.0,-0.1879906166436034,-0.09817511130859888,-0.10775728625741073,9.213326346311163,-4.016303454949585,-34.12963572491293,-272.37044115455916,28.154770369098692,8.127586527111571,-5.516554529469789,0.41543998482015787,166.2518,179.05703766676635,6.0,11.49816541016056,-0.2739861048637724,-1.1043500220412472,-7.537292414507713,15.742935469902394,1.5574729000000002e-19,2.4519195360821744e-18,9.827906195489406,-0.0501050859853146,-0.27049464691529235,-1.5765606333884663
6505,6505,7.005584999999996,0.0,2500.0,-2500.0,2500.0,-2500.0,11.512340189328448,81.17707261519274,99.13112540536623,105.0,12.0,1.4922879434613725,1.5471364832542085,9.537212192490276,0.07087865318256309,-0.3668932224453109,-0.04127706005780486,0.0,-0.20850257344949394,-0.051716037466506784,-0.10254466490467197,8.207220205443615,-4.352622338457915,-34.779540766223896,-271.61490921864527,27.612070347104286,8.149322243107019,-5.540858754637825,0.1945034727491872,166.2518,179.0700363131767,6.0,11.486878910358849,0.04104818013049882,-1.525329638100308,-7.236710842451518,15.743355401700725,1.5574729000000002e-19,2.4519849393217488e-18,9.840429323851936,0.018181574646936705,-0.5408532003321559,-3.1459458773966515
6506,6506,7.117375000000038,0.0,2500.0,-2500.0,2500.0,-2500.0,11.656718261428026,83.22600850774451,99.13429884404371,105.0,12.0,1.4928622638109628,1.5454133498921012,9.593500641274659,0.1593643040484694,-0.3614414761587753,-0.05200982344713016,0.0,0.02980434462858763,-0.06370174187399738,-0.04909353901839363,7.43424451691397,-4.606975879575258,-35.34198136504227,-270.7232884292194,26.981040322818288,8.161643910245937,-5.602548378384248,-0.026810662294236176,166.2518,179.0619651683552,6.0,11.509600575933671,0.33462013069605506,-1.6097290911786175,-7.789749181470326,15.736226354991858,1.5574729000000002e-19,2.4508746096165603e-18,9.86425756670315,0.044255615000557816,-0.8027238789504684,-4.652308295886443
6507,6507,7.210409000000027,0.0,2500.0,-2500.0,2500.0,-2500.0,11.7877996089764,85.10824986265456,99.12005370982688,105.0,12.0,1.4933209081202607,1.5446791918797391,9.639087924141778,0.19846291796509086,-0.3624790856040059,-0.052876296139722466,0.0,0.13667723496359924,0.032171378153389336,-0.007781845677218369,7.892343771806897,-4.633567703671866,-35.49818564743147,-269.9883436889416,26.447489875738558,8.200034989610737,-5.661915310748262,-0.13513998337379118,166.2518,179.0400259500026,6.0,11.571555937736154,0.06559216051136774,-1.4489345477326732,-8.719555963943039,15.730193346971292,1.5574729000000002e-19,2.449934984966808e-18,9.920190458927737,0.022501593639888438,-0.9184122169540372,-5.289371471765155
6508,6508,7.305735000000027,0.0,2500.0,-2500.0,2500.0,-2500.0,11.887934372917226,86.56037331472601,99.09773257207428,105.0,12.0,1.4937828386510648,1.544217261348935,9.685276820263091,0.17390694187308334,-0.3575444927469649,-0.04584632677024685,0.0,0.3859537241871495,0.03358871817057578,0.028582981698894457,9.160401015124343,-4.394194743339987,-35.462933508001264,-269.22256046189165,25.898004891719605,8.225045140132707,-5.733260231592992,-0.2363561297375496,166.2518,179.01735048887605,6.0,11.657567903334767,-0.2059668938633817,-1.994906801996806,-6.862154188280113,15.724011708832883,1.5574729000000002e-19,2.448972211578991e-18,9.977947354334793,-0.05781800164579349,-0.9831583418207682,-5.627367543267724
6509,6509,7.426233000000025,0.0,2500.0,-2500.0,2500.0,-2500.0,12.125549063742767,90.05523724888643,99.04858021447028,105.0,12.0,1.4951406966564325,1.5443802369053659,9.83930983194728,0.12745025835969884,-0.35134350740644105,-0.03293164947023415,0.0,0.2765636999366494,0.14254044621865974,0.09415358302354612,12.074164917327126,-4.116992134048468,-34.967332627157056,-268.2642554062264,25.190713642369122,8.217442860288532,-5.806313514654512,-0.5444601185269334,166.2518,178.96408792893502,6.0,11.80376540782516,-0.3627583550665533,-2.454269942202095,-7.9557077100656475,15.724477363329827,1.5574729000000002e-19,2.449044736004966e-18,9.996621267528257,-0.3132297605283559,-1.2409148279084832,-7.0761238711811725
6510,6510,7.5240720000000465,0.0,2500.0,-2500.0,2500.0,-2500.0,12.31308889427596,92.86251712195656,99.00293573511904,105.0,12.0,1.4966155897517204,1.544871917100232,10.010396939369652,0.1301516656807176,-0.3659795573515915,-0.030435738997607275,0.0,0.03518068707879661,0.2405356795896013,0.14450696487708806,12.952188390731775,-3.177984806666509,-34.060858696855824,-267.4818710865668,24.61363378722887,8.241378788834803,-5.839436580966363,-0.6765757169753861,166.2518,178.90480955385146,6.0,11.952784867748914,-0.5221389790791146,-1.5896047884649165,-8.763993115515934,15.725706137063055,1.5574729000000002e-19,2.44923611418394e-18,10.044988251877472,-0.4984130956687815,-1.2162175413385865,-6.9036000241040965
6511,6511,7.618001000000049,0.0,2500.0,-2500.0,2500.0,-2500.0,12.48095814132153,95.4118112019284,98.95256071785715,105.0,12.0,1.4973440036368302,1.5439682515142976,9.993091154486043,0.13723235600357686,-0.3715657610841673,-0.035056231341943044,0.0,0.02305152504642417,0.19500473789104605,0.2246714137182068,12.966551135286455,-2.295739860487738,-32.828101885339585,-266.73207900802026,24.04559072362905,8.28764641476343,-5.8344340801623735,-0.6896691200953736,166.2518,178.8496198646216,6.0,12.114880708240333,0.1005618026890034,-1.383048793510416,-10.202683487640726,15.726885804557496,1.5574729000000002e-19,2.4494198441993e-18,10.091327187170052,-0.6550978358334565,-1.0832802206204195,-6.127103695759652
6512,6512,7.713620999999989,0.0,2500.0,-2500.0,2500.0,-2500.0,12.594585960614088,97.15695579822712,98.90832191919294,105.0,12.0,1.4978246102509842,1.5425262394099641,9.906573312154103,0.12611874150655178,-0.36082358938722975,-0.0358885552290541,0.0,0.10319501510561792,0.07347208236481133,0.2467130232717937,13.301609960440102,-1.8774596019731928,-31.394258636865004,-265.95271233729363,23.474962382194065,8.371549422500205,-5.789994460654332,-0.616046809086688,166.2518,178.80490734279925,6.0,12.289426358011985,-0.031704987408896435,-1.5414635458625838,-11.089653396203433,15.72659185272,1.5574729000000002e-19,2.4493740619972197e-18,10.13648922508584,-0.7993647692775969,-0.9422459726837076,-5.3107167147252285
6513,6513,7.831387000000063,0.0,2500.0,-2500.0,2500.0,-2500.0,12.629874646391896,97.70216948674714,98.87059490980036,105.0,12.0,1.4988329369436424,1.5407506570516842,9.894156800098,0.17803849773284808,-0.34878859898581577,-0.03148114786535007,0.0,0.28353028023713306,0.049626701396684215,0.22471001877059352,14.105660480208144,-1.813631625395825,-29.839191482941327,-264.9962396546423,22.775215914548873,8.502101844878538,-5.7151800599973965,-0.39470160362375145,166.2518,178.77463950048968,6.0,12.472796499510286,0.26090068697710017,-1.2529002710922812,-11.860024712308965,15.72617260576,1.5574729000000002e-19,2.449308765419359e-18,10.201015026241732,-0.9017208715075504,-0.7192746163601136,-4.033256119566758
6514,6514,7.928074000000038,0.0,2500.0,-2500.0,2500.0,-2500.0,12.73432075977651,99.32478922408406,98.84487461343087,105.0,12.0,1.4998047385904163,1.539293027463002,9.916507363396057,0.13713533580430576,-0.32112257130289584,-0.019095070173943497,0.0,0.6301836399053964,0.02670075458510028,0.2308139283955077,16.723504270909608,-2.0003390682472326,-28.58231949282513,-264.1922936094865,22.214531489329968,8.591293107659734,-5.6351876022178935,-0.32280598000221217,166.2518,178.76204983456824,6.0,12.609668326296635,-0.0958085398535215,-1.6128884513140962,-10.137662244469618,15.726062730623916,1.5574729000000002e-19,2.449291652664675e-18,10.22276146310452,-1.0333527001052547,-0.6805439449749079,-3.808642820136797
6515,6515,8.024699000000055,0.0,2500.0,-2500.0,2500.0,-2500.0,12.773217486107306,99.93248534075431,98.82570576892151,105.0,12.0,1.5003765597943577,1.5378705076676946,10.012112693223918,0.046172162443007765,-0.2911826203556013,0.003568301080228028,0.0,0.8552440670451696,0.10806587281933222,0.2403409274791002,20.87188781499468,-2.1036272287305056,-27.27726235002768,-263.38830544924207,21.666177404216718,8.682153793472905,-5.508995784387028,-0.3791740497224431,166.2518,178.74619838295325,6.0,12.732152935577016,0.1132675008768304,-0.8329119465372616,-9.918164959379519,15.728867430461989,1.5574729000000002e-19,2.4497284770637183e-18,10.220626354255193,-1.1857067364959633,-0.7389917413804719,-4.135515035620116
6516,6516,8.12187199999994,0.0,2500.0,-2500.0,2500.0,-2500.0,12.649884825062324,98.01201354029774,98.80190697093649,105.0,12.0,1.5008504900373627,1.5364485747453862,10.126815045301312,-0.051656173707106935,-0.2566086474187953,0.032964623660231236,0.0,0.8066227741985789,0.11337707705547355,0.2161520037304921,25.40990778804614,-2.089771759342696,-25.89827004819912,-262.5605788843826,21.136297331448702,8.835939975965465,-5.2862264055401464,-0.4292955556571995,166.2518,178.7252590114048,6.0,12.809580667909856,-0.06428006046140178,-1.0113159043358726,-9.693419573371958,15.731688036903027,1.5574729000000002e-19,2.4501677788730662e-18,10.234968214186253,-1.240007687375421,-0.7580383928342779,-4.235796845332241
6517,6517,8.218657000000007,0.0,2500.0,-2500.0,2500.0,-2500.0,12.552792343873556,96.5132579983066,98.7694159331866,105.0,12.0,1.502006844083674,1.5356644300525764,10.13044679534939,-0.10961199118298512,-0.2342604904493716,0.05335106046110965,0.0,0.4429744067430557,0.119024750983133,0.16739236256541,28.575928716115236,-1.9845420562520453,-24.727541445071907,-261.72370318859925,20.630168746357967,9.002951001040556,-5.001107713257652,-0.5098772964684747,166.2518,178.70070879080737,6.0,12.837771723064831,0.05531987981135955,-0.9398932716027536,-8.506992197063914,15.734497381004735,1.5574729000000002e-19,2.450605326603585e-18,10.245610807560329,-1.1899535746392198,-0.786697802299511,-4.390777074983778
