,Unnamed: 0,timestamp,thrustinput,Position state,Position state2,PA-ON,PA-ON2,Airspeed[m/s],Differential Pressure[Pa],GPS Altitude[m],GPS Noise Magitude/ms,GPS Satellite Num.,Horizontal accuracy[m],Vertical accuracy[m],Groundspeed[m/s],Roll control,Pitch control,Yaw control,Thrust control,Roll Angular Rate[deg/s],Pitch Angular Rate[deg/s],Yaw Angular Rate[deg/s],Roll angle[deg],Pitch angle[deg],Yaw angle[deg],Local X[m],Local Y[m],X-velocity[m/s],Y-Velocity[m/s],Z-Velocity[m/s],altitude set position,altitude(Tecs),airspeed set position,airspeed(Tecs),X-acceleration[m/s^2],Y-acceleration[m/s^2],Z-acceleration[m/s^2],Battery Voltage[V],Battery Current[A],Inst. power[Ws],Body_Uvelocity[m/s],Body_Vvelocity[m/s],Body_Wvelocity[m/s],A.O.A.[deg]
3704,3704,0.0,0.0,2500.0,-2500.0,0.0,0.0,13.891148542017241,118.19046820486349,87.20802532606459,101.0,11.0,1.284,1.3936623497177756,14.271873423350453,-0.2156174070222457,-0.33947727388864435,-0.13815668126686154,0.13294377512635988,0.2981416278329807,-0.10279129572920977,-0.095389512172994,-4.649643342680462,4.353500727049221,-3.17830655137098,-313.86523058599306,54.72416488501207,14.366598495253413,0.2383271071402315,0.3798292938017691,166.2518,167.11854986506373,6.009653814880402,13.965117403312297,-1.8062431637199248,0.041567144126587685,-13.966107964278915,15.860696280520001,1.5574729000000002e-19,2.4702604632040702e-18,14.261103479179518,0.9126218835798432,1.3832639563920768,5.540106515603831
3705,3705,0.09724600000009787,0.0,2500.0,-2500.0,0.0,0.0,13.823816994947755,117.04749946602823,87.24355845288677,101.0,11.0,1.284,1.3897797507648213,14.270417934067964,-0.20227045969974872,-0.31432091124001005,-0.1414283763882389,0.12347988621566025,-0.37925283204808,0.10894426104680452,0.00828409980080333,-5.86161229881782,4.623065766442373,-3.2512485695909352,-312.4888301378313,54.778103877162636,14.268465037043429,0.11928530385983847,0.3913992091268756,166.2518,167.16821114238576,6.008142248985701,13.912652553576589,-0.7967162177487386,-2.595501435006199,-9.811559367127105,15.865397152160002,1.5574729000000002e-19,2.4709926112226384e-18,14.160861395913274,0.7682560487639483,1.4549072258078806,5.866068056507786
3706,3706,0.19380200000000514,0.0,2500.0,-2500.0,0.0,0.0,13.661119512812286,114.30858543237257,87.27851514483402,101.0,11.009481961147154,1.2840189639222943,1.3859810370259018,14.26573919588342,-0.15167035627201295,-0.32483669808004456,-0.14973880350270272,0.12507830676349654,-0.31500096990681425,0.11912324770394543,0.042009687908042166,-7.575663652368117,5.269707570875287,-3.278741998787212,-311.1287895331298,54.817568612239455,14.152187871047087,-0.007625017815865513,0.43573318336748734,166.2518,167.2151878421777,6.000079189233827,13.830470934546582,-0.08790566759255157,0.5886023958207898,-10.382469065521574,15.870443428972091,1.5574729000000002e-19,2.4717785551607112e-18,14.029719166790116,0.5701273386367516,1.6428444732630334,6.678775007322751
3707,3707,0.31222200000013345,0.0,2500.0,-2500.0,0.0,0.0,13.369268015498127,109.47662448265639,87.32927632904449,101.0,11.604844548123946,1.285209689096248,1.3847903713882068,14.060933870600815,0.1275235173075604,-0.3544233078540933,-0.13175221628270764,0.1288792817384871,-0.1816090091932679,0.12197812379672845,0.046215335576378164,-9.137567901612632,6.170408628913356,-3.1991553923502867,-309.47347933269316,54.86050301282764,13.99404112468554,-0.2009634751882976,0.5301181417849312,166.2518,167.27002082555063,6.000000368026768,13.675035600509375,-0.2880024707821042,-0.6711044318853001,-9.36257767128172,15.877156232825671,1.5574729000000002e-19,2.4728240561692075e-18,13.845455957265143,0.2545639369873129,1.9419331772031376,7.984096727435223
3708,3708,0.40900800000002846,0.0,2500.0,-2500.0,0.0,0.0,13.151864390793197,105.94511327595865,87.37746241094561,101.0,11.908435530316751,1.2861831380958135,1.3834507040254536,13.898446303791859,0.1027390170723129,-0.37174703586161423,-0.12920596338158666,0.13227613638022187,0.16205425743028368,0.07887805279558892,-0.022339765129195187,-8.750098708349576,6.736586532398406,-3.2408985600408293,-308.1306368436331,54.872170802982225,13.849328866009548,-0.35845046633821004,0.6021612323912735,166.2518,167.31828812576111,6.0,13.500417315620773,0.03935607686715559,-0.4194015764774411,-8.915098281221036,15.882642683034856,1.5574729000000002e-19,2.473678555921008e-18,13.68120387464551,0.08406933914804632,2.146646934356319,8.917280184050306
3709,3709,0.5042240000000788,0.0,2500.0,-2500.0,0.0,0.0,12.921023210864954,102.25865341915345,87.42792978825815,101.0,11.429086369036755,1.2871418843532896,1.3805745611228577,13.75943504702066,0.08132258674647147,-0.3828879923624895,-0.12561770211050668,0.136187689834154,0.12081220788521008,0.049253103550231415,-0.08867781446907398,-7.579169422865231,6.975316389473531,-3.592180643589725,-306.82510893613943,54.882379931613094,13.70332224471672,-0.4583774634078232,0.6064385527181779,166.2518,167.36271007235888,6.0,13.298134030390813,0.2807348233934221,-1.1184018074661295,-10.004463454533782,15.887273259399038,1.5574729000000002e-19,2.4743997556408672e-18,13.53003396179525,0.09920768062357208,2.197814056178389,9.226517678904258
3710,3710,0.6013040000000842,0.0,2500.0,-2500.0,0.0,0.0,12.696609054968276,98.73739933474259,87.48273904646116,101.0,11.0,1.288198252517408,1.3775376287136722,13.608248551460404,0.06804961363378342,-0.3898822225120579,-0.1220621855106198,0.14124711566304204,0.13941264588612834,-0.012602274526628009,-0.18108146146919574,-6.765352283497164,7.043289541107389,-4.451462418031572,-305.50550740197326,54.87642242008767,13.554986252837185,-0.5638573399551864,0.6577941102241869,166.2518,167.41161570999398,6.0,13.06760146690366,-0.6434161965763532,0.10354352760304142,-11.013742913182476,15.891401775323304,1.5574729000000002e-19,2.475042760807794e-18,13.374891720753718,0.21346204011768627,2.2390909679756024,9.503757429398775
3711,3711,0.6995229999999992,0.0,2500.0,-2500.0,0.0,0.0,12.518656783030341,95.98906632727328,87.53511000099907,101.0,11.0,1.2898409215001307,1.37370460665325,13.38648112032326,0.058448586265854065,-0.3938197655949818,-0.1188964036210867,0.14637777595501444,0.0987754303978874,-0.032569514258405034,-0.23899898905823985,-6.154001987411803,6.87299641992589,-5.657920348542764,-304.18895410814116,54.86994922737164,13.411873287361285,-0.6646946937185396,0.6526400734258998,166.2518,167.46830919349202,6.0,12.825464720766721,-0.16836685436711274,0.6211617510406308,-10.028429560598754,15.895578729439144,1.5574729000000002e-19,2.47569331009179e-18,13.237583633243071,0.4145372981016732,2.1608967990103274,9.271162697909377
3712,3712,0.81773000000004,0.0,2500.0,-2500.0,0.0,0.0,12.269026849079387,92.19904674285317,87.59303695206933,101.0,11.0,1.2912129467143334,1.369296426285331,13.20402110732466,0.04201526069125035,-0.3949186756704686,-0.11688771648118595,0.15355853791783966,0.20499982749215628,-0.041348033201204115,-0.2650541926439189,-5.435920146561712,6.516201161635423,-7.357565125979076,-302.61610019499415,54.839624838154364,13.242822681610123,-0.7513901003093828,0.4821472928371528,166.2518,167.52566284156285,6.0,12.527326061133635,-1.0556853849300118,-0.5690653003359561,-8.890220379076329,15.901249425546867,1.5574729000000002e-19,2.4765765056429816e-18,13.089824333183875,0.7569346167561141,1.8636345375484653,8.102902992055856
3713,3713,0.9150240000000167,0.0,2500.0,-2500.0,0.0,0.0,12.134187921593846,90.18359654058048,87.620028893464,101.0,11.0,1.2916366106536497,1.3659071147708013,13.152334318560047,-0.00024272154987028252,-0.4053957057054658,-0.11536459517671395,0.1606053038474737,0.3526580177449524,0.02792138242230413,-0.24889501546723145,-4.03248240103187,6.391828026974987,-8.794557977319048,-301.34362833675067,54.81896194916626,13.107571704870287,-0.8050798621948034,0.3183372279239062,166.2518,167.54963298935053,6.0,12.286522346632664,-0.09491504917536298,0.2606027630642157,-8.762860829073832,15.906311939984686,1.5574729000000002e-19,2.477364978547258e-18,12.959829052182842,1.0762961509910018,1.6332164396391469,7.182633438536572
3714,3714,1.00179200000008,0.0,2500.0,-2500.0,0.0,0.0,12.12420680793282,90.035287632303,87.63086956181465,101.0,11.0,1.2920170943165534,1.362863259141657,13.103044143885054,-0.02634861357874397,-0.4107191480037339,-0.11328213119100487,0.16567926678695313,0.2702190053444737,0.016249996040163417,-0.2664067227556231,-2.642932645666503,6.425368994321474,-10.104077829463668,-300.2179883445666,54.78506707075736,12.989809976532252,-0.8442087312601831,0.25386656934278873,166.2518,167.56069215451416,6.0,12.103398664770156,-0.34397612319452797,-0.2244024749878295,-8.967942829969859,15.910826753362086,1.5574729000000002e-19,2.4780681484956438e-18,12.826781645237277,1.3602922314158596,1.5361492706984647,6.82927845980934
3715,3715,1.120315000000005,0.0,2500.0,-2500.0,0.0,0.0,12.142716129825216,90.31041762745838,87.63970521279738,101.0,11.0,1.2926280924109028,1.3579757631364635,12.925872413696794,-0.04056083940808923,-0.4095836023671448,-0.11165755996200563,0.1712453331745241,0.052218475433589984,-0.03415799645210472,-0.2842110491856504,-1.738229686929019,6.275597334039035,-11.98392079028147,-298.6947022492358,54.739151314752995,12.832365522742322,-0.8869971634512123,0.1816032056666983,166.2518,167.56500706178878,6.0,11.919294240866453,0.17525493127110464,-0.7732492652772343,-9.796908494351587,15.916638046348147,1.5574729000000002e-19,2.4789732416296184e-18,12.640693763731383,1.7383352665185916,1.3756596622315478,6.210934344013928
3716,3716,1.216414000000043,0.0,2500.0,-2500.0,0.0,0.0,12.201459360087691,91.18630838596451,87.64155137514071,101.0,11.118669528960604,1.2932374390579209,1.354050655635268,12.789520313049454,-0.031136778565152613,-0.40730177099543,-0.11226872147394293,0.17370111558700402,-0.03628085410952433,-0.014015802335615946,-0.2709442501370145,-1.9454581390514931,6.08591063979357,-13.519628230381288,-297.4737865192216,54.69737115192211,12.706948855656815,-0.9431751348806606,0.11620960739414195,166.2518,167.56141033362462,6.0,11.836172536371574,-0.0197267184478076,-0.16595273963359047,-9.568040887816444,15.921140104415825,1.5574729000000002e-19,2.479674424973081e-18,12.49213744533875,1.9928139148720732,1.230231946704661,5.624381307667339
3717,3717,1.3106050000000096,0.0,2500.0,-2500.0,0.0,0.0,12.28254278765744,92.40229137649692,87.64015295040598,101.0,11.585648205529845,1.2941713964110595,1.3503148729205818,12.677445430672837,-0.01666003045995471,-0.4028297284770776,-0.11400140754261183,0.1745590040568228,-0.0963463631888071,-0.04331142941671655,-0.2529114098555561,-2.4614697047436254,5.92258576589884,-14.934404436609812,-296.28565476447574,54.64976837187128,12.581032664797045,-1.0234330956881308,0.05234949879719783,166.2518,167.55578722053482,6.0,11.798958039187374,0.41058985794756253,-1.0635124299305103,-8.997142852275216,15.925552776258948,1.5574729000000002e-19,2.480361686654308e-18,12.348120431219726,2.184129597984777,1.0998541676175042,5.0899358467907945
3718,3718,1.4302290000001676,0.0,2500.0,-2500.0,0.0,0.0,12.471581747991618,95.26847129896328,87.63426779450896,101.0,12.0,1.2948164312472614,1.3455308968984012,12.532088403075035,-0.0049827100325013215,-0.3908077083051554,-0.11671338890109913,0.17311368822802184,-0.061531449408946885,-0.026209900482001797,-0.2034441001766016,-3.0705081693852634,5.606619079265768,-16.441292632109075,-294.79499057453336,54.57863225463255,12.416732165773704,-1.1358621594331852,-0.06472300890185984,166.2518,167.54625682140716,6.0,11.834806739706194,-0.5906983630868211,-1.2826417733356448,-10.673153058082963,15.927435323187769,1.5574729000000002e-19,2.480654888236769e-18,12.178315264508296,2.3527703162143063,0.8919476186443792,4.188900292253918
3719,3719,1.5268050000000244,0.0,2500.0,-2500.0,0.0,0.0,12.632924894967172,97.74936792122534,87.6272919832968,101.0,12.0,1.294324365294519,1.341594762889866,12.409084215308305,0.016545538594820792,-0.3820437760177281,-0.11752178919674758,0.16976355385315745,-0.1800017543782958,-0.025048532588158017,-0.1933475831170648,-3.853094285201461,5.4451921057441615,-17.551682797091004,-293.60330023070765,54.51009015502623,12.288673005867887,-1.2447790476853509,-0.09957814761610756,166.2518,167.53632229904582,6.0,11.926245607333689,-0.3072400882881217,-1.1579860358868117,-9.620319048535263,15.927382838681178,1.5574729000000002e-19,2.480646713917101e-18,12.046844170887926,2.437203968108958,0.8069120970941347,3.8320162375422986
3720,3720,1.6246960000000286,0.0,2500.0,-2500.0,0.0,0.0,12.677358386964036,98.43818496913832,87.61878618525394,100.83078489823568,12.0,1.2936615697964713,1.3379848093894142,12.289081526594208,0.046888122599728715,-0.36995455027674296,-0.11814088981998695,0.16519403997473242,-0.18319898744512506,-0.034734148426602475,-0.1954288621600204,-5.12495123614372,5.164844824950559,-18.67475129886028,-292.4103445575924,54.43214717996668,12.153296484228596,-1.3753415155678357,-0.1343916529375418,166.2518,167.52629253576075,6.0,12.053343922626732,0.635052387048552,-1.3391502957809795,-9.114218248510687,15.927329639534033,1.5574729000000002e-19,2.4806384282941024e-18,11.917385021061456,2.49382005700556,0.7054675738610631,3.3877565872113804
3721,3721,1.7221050000001696,0.0,2500.0,-2500.0,0.0,0.0,12.637756138950335,97.82415944773855,87.6042548898018,100.34923200893765,12.0,1.2926984640178751,1.3350954920536258,12.178324362055655,0.0575597824890247,-0.3584153283121836,-0.1195612794102851,0.16073018476530473,-0.058870439665277836,-0.0398967709257361,-0.1548268611538536,-5.847268196107643,4.85504982452447,-19.635794513795798,-291.23240492776347,54.332845422018174,12.01816829182698,-1.5306528823869203,-0.20362043279838984,166.2518,167.51425388231146,6.0,12.17219713421334,-0.34942894648069656,-1.5263835631399294,-10.120917360370562,15.92901172829691,1.5574729000000002e-19,2.4809004090604598e-18,11.808419199820076,2.506261557409595,0.5747051290329195,2.7863354020937092
3722,3722,1.8187580000000025,0.0,2500.0,-2500.0,0.0,0.0,12.52803877683124,96.1329647937825,87.58474981648627,100.0,12.0,1.292128078429731,1.3327439687536615,12.073540465974688,0.057184578300888834,-0.3461098627865485,-0.1200628229979549,0.1570897377126661,0.020818209891791933,-0.034073225181621015,-0.11765431074710063,-5.9867249244962135,4.541533050595754,-20.437797905492356,-290.07398086937303,54.220242527596646,11.890884297671509,-1.6839306076589728,-0.2873730837984613,166.2518,167.49479333166582,6.0,12.259353824012006,-0.20845442897111546,-0.9593997905252216,-9.359347340022945,15.931338839875867,1.5574729000000002e-19,2.48126285038241e-18,11.716310756707685,2.4991714381193884,0.4350245083386763,2.126405162846944
3723,3723,1.9356510000000071,0.0,2500.0,-2500.0,0.0,0.0,12.426161174338949,94.57581857346979,87.55353454162602,100.0,12.0,1.292703682885194,1.3315928749521169,11.963611007927167,0.06016922963909521,-0.33839074245734857,-0.11943833326560828,0.15434021966581568,0.005428119668529779,0.003132459785941375,-0.12538915350208893,-5.944419215414662,4.2297198552838715,-21.335165007917432,-288.68974986202295,54.061373364999035,11.742254984240805,-1.8631305989866052,-0.4225498507457772,166.2518,167.46226372938392,6.0,12.326566888862574,-0.2737139338816499,-1.2439435576465168,-8.51395699620187,15.934153269368998,1.5574729000000002e-19,2.4817011901488614e-18,11.61491494600122,2.484665323049484,0.24586666698979026,1.212666546701676
3724,3724,2.032178000000158,0.0,2500.0,-2500.0,0.0,0.0,12.293014600610332,92.55991904329426,87.5229443828289,100.0,12.0,1.2930001,1.3298652161067464,11.86614586076185,0.048512440142170855,-0.3368429335307515,-0.1204421252425675,0.15328274118706295,0.09541447389491706,0.023054221666393933,-0.08821870826173009,-5.554442974677789,4.166790938100217,-22.001338110522408,-287.56206509474254,53.91716500117803,11.619131873769527,-1.996646289351694,-0.5360672967711753,166.2518,167.43140894526766,6.0,12.342585795589482,-0.1466232096747205,-1.0131387122195783,-9.381551300121927,15.937474316341632,1.5574729000000002e-19,2.4822184342148118e-18,11.529467944266218,2.465725861946,0.11927707689431287,0.5927272044212847
3725,3725,2.1277430000000095,0.0,2500.0,-2500.0,0.0,0.0,12.086048883357126,89.46947515535055,87.48696386288418,100.0,12.0,1.2930001,1.3268800194631445,11.758680572680314,0.051768439390211834,-0.3402595542485542,-0.1198769167947212,0.1530911825257626,0.0026522101977208,0.04882061294026742,-0.12292154227033365,-5.192708928011066,4.265204730770508,-22.675728299992016,-286.45545402667597,53.75600925381085,11.506713234159632,-2.1256775096235767,-0.6327502701420799,166.2518,167.3963645383615,6.0,12.318990927178149,0.3235911054280566,-0.981794822309452,-8.55214574526483,15.94098234943746,1.5574729000000002e-19,2.4827648008627173e-18,11.452127749850659,2.4479194556778223,0.034640017602370565,0.17330585209689894
3726,3726,2.2259730000000104,0.0,2500.0,-2500.0,0.0,0.0,11.878013443038054,86.41593440365801,87.4455448522007,100.0,12.0,1.2930001,1.3238819063479654,11.630437407499185,0.05749864589458281,-0.3382781724542647,-0.11975309516259405,0.15559662330230056,-0.002637937557582636,-0.0038053315403050983,-0.13328662699907226,-5.325360545251592,4.280739602290563,-23.504277042445153,-285.3277733030833,53.58114452749078,11.3924011183175,-2.2636451171487053,-0.6956019286858235,166.2518,167.35008259532844,6.0,12.247487581253825,0.4757837855787442,-1.2446201829080978,-8.716333341494439,15.944588210275668,1.5574729000000002e-19,2.4833264039163853e-18,11.370217409889046,2.4465237837216978,-0.03131802447545362,-0.15781458020095182
3727,3727,2.322731000000033,0.0,2500.0,-2500.0,0.0,0.0,11.767406906629109,84.814028890614,87.3994746354327,100.0,12.0,1.2930001,1.3210383130877763,11.476408965306751,0.059329061247953965,-0.3322814627598337,-0.12007063753428696,0.15830257436260306,0.0015087826404411252,-0.04135364654139816,-0.1274298370225,-5.3352733507513275,4.097568762919677,-24.291726618165647,-284.2290097312332,53.389015563830824,11.286448384073735,-2.4148145457582793,-0.7069927678828254,166.2518,167.30076894925912,6.0,12.150941302200303,0.4521296139167373,-1.2461252136650456,-8.674974021393451,15.945987406821134,1.5574729000000002e-19,2.48354432498652e-18,11.302272628926044,2.4264152333756828,-0.07406271951464727,-0.3754484296365931
3728,3728,2.4388020000000097,0.0,2500.0,-2500.0,0.0,0.0,11.57742351943832,82.09752129645567,87.3370549578773,100.0,12.0,1.2925357367533774,1.3173748098963265,11.367393252258875,0.05657697231068279,-0.3220895813345878,-0.12350744809800693,0.16245768364090946,0.14318330886003694,-0.06942753912886583,-0.0995388623197927,-4.903085100641105,3.733155923036765,-25.08669156511948,-282.9244923547638,53.14310171417509,11.163412891556947,-2.58505629999998,-0.7503634883810936,166.2518,167.23596982702222,6.0,12.016376429198067,0.4224179699922568,-0.6691178682572466,-8.411461304415216,15.946648598026474,1.5574729000000002e-19,2.483647303724923e-18,11.231450969708886,2.3885233625267963,-0.17479711238807927,-0.8916326446052694
3729,3729,2.533909000000051,0.0,2500.0,-2500.0,0.0,0.0,11.433706399312165,80.07193134275855,87.27842979397512,100.0,12.0,1.2915903200625232,1.3140660169179856,11.370229833210738,0.046880438626260464,-0.31250447022744937,-0.1264445980175755,0.16740863966399566,0.18754504141646275,-0.06670603239347989,-0.10102224734952917,-3.863519442279701,3.3606068771929607,-25.571958781714343,-281.8685264571725,52.92200917035655,11.073097055509978,-2.689804954178739,-0.8776561776185009,166.2518,167.17993936680682,6.0,11.880884808607444,0.3232422276921103,-0.3983223743522766,-7.83920342994703,15.947190369114564,1.5574729000000002e-19,2.483731683103693e-18,11.181733816408961,2.3642670644739963,-0.3600110687243856,-1.844078225456911
3730,3730,2.629532000000097,0.0,2500.0,-2500.0,0.0,0.0,11.294500576192336,78.13402542070584,87.2140088160429,100.18379809496778,12.0,1.2898972298100029,1.3105296152402577,11.360972930503838,0.03126014245413797,-0.3050246284038211,-0.1261714014690032,0.17285336089458986,0.15165394228274975,-0.06909491976661207,-0.11136406399101786,-3.0698519217973708,2.932984940814533,-26.13737217221804,-280.81552662702575,52.690581386265485,10.992958969924826,-2.780765336865336,-1.0189782440225943,166.2518,167.1176238660292,6.0,11.731944405828743,0.5156160119593317,-0.6590931569761724,-8.816465195974336,15.947075625201302,1.5574729000000002e-19,2.4837138120501583e-18,11.131426645235646,2.3672912881894868,-0.5694038200910168,-2.928288189010616
3731,3731,2.750190000000032,0.0,2500.0,-2500.0,0.0,0.0,11.243177508824568,77.42554533224497,87.11804218702066,100.79577200474743,12.0,1.2862254475487158,1.3056338239620209,11.32425388394315,0.02001551775459309,-0.30072811662576954,-0.12488167996560713,0.1799717726370876,0.07314156741118971,-0.022508957926394,-0.13356907002052607,-2.397569557963289,2.68332774430758,-26.981156367611288,-279.4953495705872,52.376960862462795,10.90745767759841,-2.9030613805190697,-1.1034036045730011,166.2518,167.02802777076232,6.0,11.54809068756052,0.05071659106588955,-0.8842543904552779,-9.024116403225714,15.946696659286944,1.5574729000000002e-19,2.4836547891359957e-18,11.076910217775831,2.3835084296819495,-0.6955191988792513,-3.592885231439569
3732,3732,2.8477960000000166,0.0,2500.0,-2500.0,0.0,0.0,11.165179888050067,76.355031893111,87.03098033887008,101.0,12.0,1.2841376541472798,1.301987626343653,11.336723735259929,0.022223451964359358,-0.2927029857282261,-0.12379663497561015,0.1850463852633132,-0.006031649752628984,-0.057362501215151115,-0.14714048616181738,-2.3245965742237367,2.4344877389779254,-27.74128916292564,-278.43081959888826,52.115025908700105,10.852609162644221,-3.0012318416988224,-1.136696561270519,166.2518,166.94698203411585,6.0,11.421470413426196,0.4933133904628193,-0.6929648422731078,-8.996857711883386,15.946390095718536,1.5574729000000002e-19,2.4836070426910037e-18,11.040559766308698,2.4203526059667304,-0.7695292438925618,-3.9870791714118528
3733,3733,2.9435399999999845,0.0,2500.0,-2500.0,0.0,0.0,11.072717624265275,75.09561459772266,86.94370209053905,101.0,12.0,1.2826975771378148,1.2986274466549017,11.37800642289026,0.019868095573801214,-0.280985290773828,-0.12640919694918906,0.18948840976583745,0.1118125664814278,-0.06691123904106219,-0.11926023269513375,-2.2710847971186428,2.0722973947048056,-28.456384515973085,-277.39235486257223,51.84344294852197,10.797055857781599,-3.114529057729679,-1.1727833378809904,166.2518,166.86468000252898,6.0,11.305230715897098,0.7969051935387517,-1.0323965905366823,-9.304733849837275,15.946189591760547,1.5574729000000002e-19,2.4835758147429118e-18,11.011827038432612,2.4355946304155065,-0.8615065795542852,-4.4734041294440186
3734,3734,3.040143000000171,0.0,2500.0,-2500.0,0.0,0.0,11.05883993190514,74.90749078500399,86.85432927240177,101.0,12.0,1.2812945849105801,1.2960593680856731,11.29829152434448,0.0423625733846414,-0.27243778743155384,-0.1252330951898155,0.1935675813349015,0.1124646090423781,-0.033786455136434065,-0.09153227851941463,-1.7274927199206305,1.7295088364836868,-29.036656498076162,-276.3415499657176,51.55673447595454,10.752131976879186,-3.2260406125754457,-1.2276919304066118,166.2518,166.78126738013952,6.0,11.19909230399286,0.5386494295492446,-1.4076247736295353,-8.444425797588838,15.945995307402073,1.5574729000000002e-19,2.4835455554805902e-18,10.998567191181117,2.4241177096779234,-0.9681247041096974,-5.030370008215039
3735,3735,3.1534850000001597,0.0,2500.0,-2500.0,0.0,0.0,11.085932428558301,75.27497496733854,86.74664819692053,101.0,12.0,1.2797026498253743,1.293936911785112,11.073305531835183,0.031560845819313184,-0.2671137370029642,-0.12030609002318945,0.19769145993351164,0.20240789561830044,-0.006953171484669378,-0.06588141260320496,-0.7185765562083871,1.5203529184839968,-29.630591655760256,-275.11436623393274,51.202825804288786,10.712749170777606,-3.3528313936220573,-1.2482054783349428,166.2518,166.67897569123727,6.0,11.111231649339512,0.3308582420178462,-0.9713046018524636,-10.31277031886315,15.945767358189757,1.5574729000000002e-19,2.483510053008514e-18,10.998770380158277,2.3932225347753864,-1.0198481163516238,-5.297536554054122
3736,3736,3.245339000000172,0.0,2500.0,-2500.0,0.0,0.0,11.150073696328331,76.14854443173589,86.6575298508388,101.0,12.0,1.2787824040222888,1.2914767540618293,10.959855629315719,0.018151576077527903,-0.26476032334812233,-0.1137008335264859,0.2001055318024003,0.2140349354783614,0.006434496472640848,-0.08216455945667284,0.4535060262409366,1.4695893775206148,-30.05410187195176,-274.12723597142553,50.90908543901175,10.69828455957932,-3.4483889786963218,-1.225554069552529,166.2518,166.5891160860861,6.0,11.079264275675676,0.5250953447193697,-1.241020891870105,-9.571280494195626,15.948407052844868,1.5574729000000002e-19,2.4839211782974752e-18,11.01476191005431,2.364877886579079,-1.0042082847626337,-5.209216022128492
3737,3737,3.3402280000000815,0.0,2500.0,-2500.0,0.0,0.0,11.236901556884279,77.33913743252612,86.57508943470155,101.0,12.0,1.2782887643940812,1.2880208817131789,10.927765350814754,0.04995032211527043,-0.2616208740509708,-0.11025731105917423,0.20129830387222025,-0.019033578338719218,0.010252728068498295,-0.09595989139084288,0.9143618784265848,1.5181981323580183,-30.584275300849303,-273.1103112193578,50.60229186205224,10.697807284787313,-3.5335224693613725,-1.13508222520723,166.2518,166.5015219325506,6.0,11.081366776867347,1.3795985756788127,-1.3745817301280214,-10.330151948390359,15.951204465294794,1.5574729000000002e-19,2.484356867705563e-18,11.033630357027995,2.3868585821919166,-0.906558078851842,-4.697052399601069
3738,3738,3.458987000000036,0.0,2500.0,-2500.0,0.0,0.0,11.419427785391575,79.87206104668684,86.48378657962206,101.0,12.0,1.2770290454701725,1.2840579233088292,11.022290018831415,0.08519489325593263,-0.2508689610499408,-0.1118173340903285,0.2002628912182656,0.1127199127221734,-0.030285388251734543,-0.04859269195731363,1.0117012174018334,1.411494275360435,-31.185137711334377,-271.8453184212046,50.2142261428984,10.700591943868243,-3.6418431799481135,-0.9789565104792516,166.2518,166.40501442142573,6.0,11.14439673687098,1.5154853343417116,-1.4414910953231388,-9.692459907327658,15.954658127320599,1.5574729000000002e-19,2.484894766206658e-18,11.060870961699527,2.4120154559614795,-0.7663413484801327,-3.963346987989218
3739,3739,3.550343000000055,0.0,2500.0,-2500.0,0.0,0.0,11.486612304133024,80.81464467597169,86.42714330035739,101.0,12.0,1.2756269551345212,1.2812537893738711,11.185867692020825,0.11545108946689088,-0.2399477265671621,-0.10827254933079362,0.19776150118935185,0.12813713682567315,-0.029600793646977944,-0.0577267941594117,1.7452904008651406,1.2445692136098383,-31.506725822808885,-270.87189599743806,49.91153415946199,10.70257228770413,-3.7078103853986715,-0.8978529698494854,166.2518,166.3477065198899,6.0,11.223821651988981,1.2282341816521871,-1.3832118679474708,-8.589835536663202,15.955637670206313,1.5574729000000002e-19,2.4850473273565473e-18,11.07937492364302,2.4113546293439,-0.7098799513442599,-3.666055567423269
3740,3740,3.665345000000002,0.0,2500.0,-2500.0,0.0,0.0,11.55943463457778,81.84258707107948,86.36577116527036,101.0,12.0,1.2739113131237398,1.2778224899545836,11.31416583880156,0.1015567598245248,-0.2319183957854009,-0.1040580613533868,0.19480403002059268,0.21013835370480893,0.010447810589722932,-0.07922965568442335,2.5794325840027184,1.1011348362086677,-32.02700921080766,-269.64393310616435,49.513900497689455,10.701733874957975,-3.7846967892692236,-0.8636639147483339,166.2518,166.28208074766349,6.0,11.330228700934622,1.0733580385032522,-1.5141315364279195,-8.23643529343085,15.956870751678164,1.5574729000000002e-19,2.485239376454137e-18,11.094558333422532,2.4369390759798817,-0.6973207025378703,-3.596451979147057
3741,3741,3.7593390000000113,0.0,2500.0,-2500.0,0.0,0.0,11.737823963445694,84.38819810327038,86.32163599425692,101.0,12.0,1.2725312943307958,1.2750624063680691,11.384086330971124,0.06274684881859832,-0.2348171971288911,-0.09885868174023862,0.1922988763533857,0.2673770632468805,0.03023471154775513,-0.07531505612427791,3.8971513243422975,1.2608429282993403,-32.37716824227957,-268.6383102690868,49.17762857173891,10.709197915806056,-3.826606304083826,-0.8110839638948143,166.2518,166.23699475654868,6.0,11.434249327709427,0.4148189341186862,0.011246922656044987,-11.298133198801365,15.957878719651925,1.5574729000000002e-19,2.485396364734457e-18,11.108632546830123,2.4638161980857194,-0.6205502987654421,-3.1973330894150918
3742,3742,3.854822000000013,0.0,2500.0,-2500.0,0.0,0.0,11.944583773303936,87.38732294541384,86.27984060570442,101.0,12.0,1.272301202759314,1.2736988671273983,11.33692161447292,0.03264312459692807,-0.2419850040376485,-0.09546434626200552,0.18791795293507516,0.11291005402029085,0.07607259452590749,-0.07368808241418259,4.767473973769917,1.712145706823619,-32.80265381929347,-267.61071980478033,48.83070468723831,10.718310904289238,-3.870441373946672,-0.7560189530212745,166.2518,166.1970799669173,6.0,11.574437138496222,0.8409111032113523,-0.46091426741859204,-10.365505593736897,15.958907192486643,1.5574729000000002e-19,2.4855565465913035e-18,11.123615963358548,2.516980201643776,-0.4986781163155405,-2.5668841221650998
3743,3743,3.9487250000000245,0.0,2500.0,-2500.0,0.0,0.0,12.01082688189046,88.35923359756558,86.23553122328899,101.0,12.0,1.2727779822208567,1.273222039983141,11.219622613812824,0.0204091923079898,-0.2445362607304205,-0.09423251892454323,0.1843691300474204,0.11912416803731107,0.0470150848511663,-0.029954240279110787,5.46789372986575,2.142475845861976,-33.10992989259515,-266.5961756662104,48.484272461122856,10.716782672474524,-3.8933073917736163,-0.7784988710695557,166.2518,166.15784721719572,6.0,11.725547541714516,0.4177178207070057,-1.0448051084132521,-8.859283045720867,15.959918646720366,1.5574729000000002e-19,2.485714077847165e-18,11.124685097337736,2.556495060104412,-0.45814392149098904,-2.3582589564739207
3744,3744,4.0707620000001725,0.0,2500.0,-2500.0,0.0,0.0,11.907939218934894,86.85190088757372,86.17437569181433,101.0,12.0,1.2733914247440823,1.2726086143983921,11.3352703722511,0.00810502401994895,-0.2558303938081466,-0.08891513080201069,0.1836915525135944,0.24252248352185074,0.13331950094575054,0.03257466700399715,7.094607107490586,2.784452806440872,-32.99073629686346,-265.286057709251,48.04471659946446,10.718957300221703,-3.8590108570297423,-0.8881916509055333,166.2518,166.09387219190137,6.0,11.855658007922571,0.1983672820408262,-1.1326388167516042,-10.273488810572728,15.961363378238824,1.5574729000000002e-19,2.4859390908659424e-18,11.12191412273174,2.553641428295452,-0.4719390753927667,-2.429789072968326
3745,3745,4.166776000000084,0.0,2500.0,-2500.0,0.0,0.0,11.905390512698018,86.81472288911249,86.11673153549658,101.0,12.0,1.2738713411708258,1.2721287459632915,11.544033537968009,0.03541545855138298,-0.2697554083929731,-0.08161420989163308,0.1849260692810531,0.1549509717663895,0.12894824840041216,0.002356318669367378,8.117848838974098,3.5486056558202983,-32.850486202005605,-264.2505662395081,47.706104136090495,10.738348104909955,-3.7876115691920966,-0.8486698855311645,166.2518,166.03909862425155,6.0,11.91132254535928,-0.24787721351475325,-0.9819538162643618,-11.7990516573047,15.963379719286785,1.5574729000000002e-19,2.486253130519877e-18,11.10704498710192,2.6151980628277616,-0.3234813690644949,-1.6682096483601767
3746,3746,4.261122999999998,0.0,2500.0,-2500.0,0.0,0.0,11.945398105438187,87.39917822301638,86.05555038864235,101.0,12.0,1.2733273302514043,1.271327396616235,11.521966743834955,0.01617811190604672,-0.27806480631468244,-0.07697926648613143,0.18603237571666206,0.1892686876325423,0.09559066232070483,-0.015221525354961116,8.803381181031439,4.221241918185143,-32.813741640430685,-263.2296606153849,47.36426383846165,10.749885453846149,-3.719329360769256,-0.7826108063077168,166.2518,165.98545359209737,6.0,11.951506227524456,-0.1535283361538969,-1.2443573992306618,-11.254094838461798,15.96536105251789,1.5574729000000002e-19,2.486561717801209e-18,11.077768980434243,2.6973177716485304,-0.16620985917210762,-0.8595962734554773
3747,3747,4.3565020000000345,0.0,2500.0,-2500.0,0.0,0.0,12.050704057145126,88.94695572837607,86.00166258411757,101.0,12.0,1.2723921695833782,1.2703921891878376,11.413483149744566,-0.022182075853935213,-0.28586366197782204,-0.07255971812080082,0.1875211595033401,0.1402985797323039,0.13703286800407352,0.012985396883354329,9.781361995170585,4.7612486654983375,-32.77553659067028,-262.19386679665337,47.02086970769554,10.757789056819924,-3.6428419668882888,-0.7271346566480807,166.2518,165.92906260003,6.0,11.992690248014393,0.4392994265102371,-1.4818878795708053,-10.984676329011316,15.967364058254693,1.5574729000000002e-19,2.4868736805165702e-18,11.039512595251123,2.783552801255281,-0.04207646404454235,-0.2183784937874733
3748,3748,4.477208000000132,0.0,2500.0,-2500.0,0.0,0.0,12.133250232965922,90.16966061873735,85.9411502788708,101.0,12.0,1.2720001,1.2691696349235089,11.331877160132091,-0.050274718291658166,-0.2979467515632876,-0.06803147479346867,0.18871468208176892,0.14962033137490613,0.10729407690955334,0.0012448010458157171,10.75187375322484,5.520205467082048,-32.7158175614752,-260.88396115819376,46.600220718162014,10.772133844344944,-3.5250079215428833,-0.6191403040702409,166.2518,165.8662370841858,6.0,12.055267288188062,0.6286948368441155,-1.6889395460298833,-11.740901808056885,15.970553979947825,1.5574729000000002e-19,2.4873705021755883e-18,10.977121494883956,2.9248625370419536,0.1563933992623615,0.8162500078400597
3749,3749,4.574781000000087,0.0,2500.0,-2500.0,0.0,0.0,12.121537590709758,89.99565345298029,85.90669214049744,101.0,12.0,1.2720001,1.268165757611033,11.288210178449814,-0.051441369698745694,-0.301725102267662,-0.06544467347647706,0.1883816432975052,-0.006402651834581803,0.057305210718112135,0.018097327274899905,11.209292446096368,6.013634398621142,-32.56385168100535,-259.8227221361448,46.270980218602354,10.801330433816496,-3.4020355046710526,-0.4661610456135563,166.2518,165.82978725524043,6.0,12.096701703131947,0.7322699812627615,-1.4483514347719346,-11.329613339174056,15.973139318517687,1.5574729000000002e-19,2.4877731616515768e-18,10.92305061363436,3.0628416760852013,0.3602479666925861,1.8889603234450647
3750,3750,4.672333000000037,0.0,2500.0,-2500.0,0.0,0.0,12.036785753568568,88.74161952220419,85.8783553260449,101.0,12.0,1.2720001,1.266794084532842,11.278186103446744,-0.02212606866276022,-0.29860991825373645,-0.06950583933478206,0.1865700753017301,-0.2457096120906069,-0.007954910167001825,0.035462526628736536,10.303248596745675,6.105987644939182,-32.460133481121375,-258.7574136088028,45.95773098228293,10.818074728740859,-3.2838534786063343,-0.3926921230465536,166.2518,165.80171412351646,6.0,12.11233446347548,1.2679116564658148,-1.622080998322858,-9.828039841847447,15.975290819086952,1.5574729000000002e-19,2.488108252034673e-18,10.870386366538186,3.1555258681315697,0.4326736335698554,2.2793388482792984
3751,3751,4.7692610000000855,0.0,2500.0,-2500.0,0.0,0.0,11.93207669609933,87.20436340899793,85.86138625399363,101.0,12.0,1.2720001,1.265358849523438,11.274837110125027,-0.04976739383319465,-0.29170460330674786,-0.07376903234789092,0.18591093707264328,-0.06327613607635027,-0.0386011989594359,0.05803584973460212,9.55647999966305,5.897954456169241,-32.254856485214766,-257.7003992202395,45.654077431098,10.810551341971696,-3.197500650384463,-0.3582912526868528,166.2518,165.7827687591861,6.0,12.089233015847606,-0.18476445346113124,-1.008742416440819,-9.10093772262354,15.974538349763005,1.5574729000000002e-19,2.487991056976661e-18,10.828145911985485,3.175052802402932,0.4328782756830988,2.2893021970113723
3752,3752,4.864502000000016,0.0,2500.0,-2500.0,0.0,0.0,11.894072392415268,86.64973415277015,85.85105832062565,101.0,12.0,1.2712790789774544,1.264279042926403,11.26606912926251,-0.1013485239098962,-0.2914527631789213,-0.08075057659453835,0.187220693682984,-0.03676901868486615,0.003376385297553875,0.07417247294540306,9.429107118114693,5.74639210981217,-31.876249570244564,-256.66386480181546,45.366106406565855,10.800784203372887,-3.117311422517578,-0.4158678889182486,166.2518,165.7678169624693,6.0,12.045396119957914,-0.22202926930915534,-0.9117983665118504,-7.738948157418221,15.973798976920461,1.5574729000000002e-19,2.487875901660135e-18,10.805410714869172,3.150860036977889,0.3543091364563823,1.8780542301028755
3753,3753,4.982836000000077,0.0,2500.0,-2500.0,0.0,0.0,11.828210945454474,85.69280525874025,85.82430010564416,101.0,12.0,1.27007759049391,1.2630774943684346,11.252853356687762,-0.0960254201277696,-0.2914431811965119,-0.08480324646420513,0.18901293722368634,-0.1912816584736005,-0.008892582563281053,0.09438806017575224,8.360234309001159,5.684112890220407,-31.314419967708407,-255.37706135069809,45.014367067034556,10.792014594626828,-3.0139868703292,-0.4959550876786923,166.2518,165.7434499117179,6.0,11.979700449828046,0.2662668493260991,0.3383128946713391,-10.525324637308367,15.973112280699187,1.5574729000000002e-19,2.4877689505846182e-18,10.782478063091686,3.102701914949181,0.26819751917158546,1.4248503882732098
3754,3754,5.078131000000042,0.0,2500.0,-2500.0,0.0,0.0,11.629624324565356,82.83950553983411,85.79526179933495,101.0,12.0,1.2695785788315728,1.2625785631273767,11.195943868791122,-0.010478813797238057,-0.2898493228093962,-0.0846423890849536,0.19163841402153126,-0.021785576715133818,0.010701591089999293,0.1172390313142046,7.792424982639961,5.641243172535929,-30.734172868555678,-254.3437836162664,44.73551116166677,10.783809385164814,-2.9521683380933745,-0.52194400021846,166.2518,165.71542868954236,6.0,11.897081190288306,-0.0034008712837383377,0.18881377361751908,-11.077514619006365,15.973327545529347,1.5574729000000002e-19,2.487802477498548e-18,10.77702817026884,3.0324180600353436,0.24275610164378855,1.2903880510609669
3755,3755,5.174008000000015,0.0,2500.0,-2500.0,0.0,0.0,11.406717414819536,79.6943450411657,85.76301301620144,101.0,12.0,1.2691175612407388,1.2621176377308416,11.134634199159574,0.03863497476620385,-0.2856664638816478,-0.08196678111001593,0.1959566287914173,0.12963627350687512,0.0018225857100181676,0.16982745025066834,8.145056702414117,5.542884446492557,-29.964691955081648,-253.30588359996815,44.45980355109947,10.790929957928672,-2.888364249644172,-0.5131437932335545,166.2518,165.68520274597944,6.0,11.77090083238448,-0.02067376408590088,-0.22711907355171426,-10.405657560042801,15.973544125057346,1.5574729000000002e-19,2.4878362091731028e-18,10.790290327687757,2.9492323793209416,0.2473237991740026,1.3130442843913426
3756,3756,5.898311000000092,0.0,2500.0,-2500.0,0.0,0.0,11.06228587046944,74.95421628797016,85.50457524020497,101.0,11.117974143689311,1.2725281034252427,1.2655281152226572,11.143696723976701,-0.09361403585036238,-0.20577754903648984,-0.05954724774042214,0.22304439106058802,0.07552166055263143,0.005770661696645779,0.15732437977595135,12.402094868126062,3.422593872702532,-25.31972513404732,-245.4109360554544,42.614724087437956,11.090800153297383,-2.219042886162517,-0.7260637517002747,166.2518,165.4199231121761,6.0,11.174940809445292,0.8608431232785947,-0.9569912140645219,-8.176187623198151,15.975180275561323,1.5574729000000002e-19,2.4880910351801303e-18,10.998154290354774,2.7174909955286406,-0.2313919321837812,-1.205277279059555
3757,3757,5.994741000000033,0.0,2500.0,-2500.0,0.0,0.0,10.93880334178999,73.29018039640587,85.45007153518951,101.0,11.013661427042676,1.2729863399391002,1.2660273228540853,11.146453542918293,-0.08426238546732509,-0.2091329655020156,-0.05691258720673757,0.2279483946800488,-0.007559310362550263,0.05742277218192492,0.14522533795856046,12.521675074611695,3.423958110884074,-24.496590107922312,-244.34513626786259,42.402754186186705,11.133212026057704,-2.1321848463785744,-0.8561553028999159,166.2518,165.365322857803,6.0,11.085441109644973,0.19815704495756048,-0.5149907820119612,-7.816457117470032,15.97539810427817,1.5574729000000002e-19,2.488124961412463e-18,11.046623831980405,2.628570375151289,-0.35190149668403864,-1.824598600217963
3758,3758,6.090082000000166,0.0,2500.0,-2500.0,0.0,0.0,10.946757899913127,73.39680487836675,85.38842139424312,101.0,11.475211432610354,1.2725248360885328,1.2669504228652206,11.127991542695586,-0.07706175311750534,-0.2126405969650053,-0.05931568331429149,0.2320974872506681,0.009088363168535564,0.05485326122866181,0.16915509370880905,12.359947188522035,3.618236745512653,-23.534026443030353,-243.29113409752804,42.20032667119469,11.185380091415828,-2.0403856124377526,-0.9115784838025022,166.2518,165.3027499090459,6.0,11.00425399342556,1.0038715611633549,-1.7864022752352735,-9.143561638273448,15.975613473019154,1.5574729000000002e-19,2.488158504510222e-18,11.105190552722515,2.545202706199264,-0.3700787773252737,-1.9086667478745505
3759,3759,6.1851780000000645,0.0,2500.0,-2500.0,0.0,0.0,10.906908579790663,72.86339915794319,85.32287515492754,101.0,11.935575382321208,1.272064518175217,1.2678711507646423,11.109576984707154,-0.09036777519086912,-0.20753286194630796,-0.060903067587305126,0.23570005296590565,0.017805854740332798,0.050178837152050536,0.22959516394744106,12.383358397345084,3.630793141194229,-22.40193698158404,-242.22968430943862,42.00856428627161,11.246559734215829,-1.935478996335976,-0.9360024613159068,166.2518,165.23567956482643,6.0,10.94579368318764,0.9647008836314829,-2.1181051987076107,-9.930344944664013,15.975183117614069,1.5574729000000002e-19,2.488091477822143e-18,11.172355017854764,2.4425575355889837,-0.381731051976576,-1.9568902916671185
3760,3760,6.305104000000085,0.0,2500.0,-2500.0,0.0,0.0,10.848196292045042,72.08105676643662,85.23695442598941,101.0,12.0,1.2731153361132472,1.2691153476424348,11.269275525871803,-0.10194694738373934,-0.19726665148944966,-0.06532149559337568,0.2396744034469541,-0.06793420049275352,0.007322409939035333,0.2208435169679785,12.358035219622554,3.435325557711632,-20.8724432605075,-240.90049378871385,41.76296965809478,11.332243083409304,-1.8035322467613093,-0.935317886205816,166.2518,165.15074255838272,6.0,10.872058022307439,1.375577039749315,-1.712561703407692,-9.784610022976727,15.971978470007596,1.5574729000000002e-19,2.4875923626420296e-18,11.267017755688812,2.2923619360551246,-0.39556508423351705,-2.0107277136918102
3761,3761,6.401802000000032,0.0,2500.0,-2500.0,0.0,0.0,10.905062712837584,72.8387417480899,85.1590069451122,101.0,12.0,1.274,1.2700001,11.393291373993303,-0.11455862636509365,-0.1852746916361909,-0.07343601267057262,0.24159809428568524,0.029937524003146494,-0.009511044661710558,0.2490247670124145,12.123725850476992,3.130381127191147,-19.598583074174346,-239.8108838162541,41.578320406291375,11.403291239718332,-1.688356027042294,-0.9446930132008582,166.2518,165.07937772439502,6.0,10.838675510080384,1.2970671356357608,-2.0813626409501143,-8.946471477270016,15.969394518118511,1.5574729000000002e-19,2.487189919137814e-18,11.343685869293273,2.162700977844059,-0.4404742559058991,-2.2236725918367783
3762,3762,6.499687999999992,0.0,2500.0,-2500.0,0.0,0.0,10.897910561049168,72.7432363886858,85.07684702123397,101.0,12.0,1.274,1.2700001,11.355263950806613,-0.1391471397989182,-0.17597686814430688,-0.08215568956172742,0.24440149679118586,-0.05675749206101027,0.014489972869521887,0.2681589054020624,12.101328743170875,2.7967382753730092,-18.228908593592006,-238.7063362443153,41.38770803316307,11.461886135940675,-1.588372702861534,-1.0202691161407735,166.2518,164.99550488161947,6.0,10.824789468852543,0.8685873992863342,-1.54635880996288,-8.328069364374127,15.966882958941055,1.5574729000000002e-19,2.486798750602251e-18,11.419752520809677,1.9771142736609848,-0.5546482243464654,-2.7806249812246873
3763,3763,6.59580300000016,0.0,2500.0,-2500.0,0.0,0.0,10.894190127833578,72.69357455062662,84.98833848209591,101.0,12.0,1.2740516342805257,1.2700001,11.321575832647461,-0.14471827957786293,-0.17454624350900616,-0.08539154278239486,0.24724148518158146,-0.0699991410774945,0.0633028875689127,0.26983159380158084,12.065032650217033,2.7092778756279947,-16.810752053407306,-237.61109467803254,41.21960267064781,11.525629923590733,-1.4663962622611482,-1.0769611972852635,166.2518,164.90328038429996,6.0,10.818336140764227,0.9689932984653156,0.6290664318901418,-9.958573380302921,15.964719114565654,1.5574729000000002e-19,2.486461737704801e-18,11.49528305299848,1.8157982072830967,-0.6136064568283577,-3.0554903157161526
3764,3764,6.690608000000054,0.0,2500.0,-2500.0,0.0,0.0,10.852302418630336,72.13564063328421,84.89731141821764,101.0,12.0,1.2749674786145202,1.2700001,11.34950885587321,-0.10944832742876118,-0.17076439715929873,-0.07926595570412609,0.2495091320956795,-0.17357855447599774,0.07363114046292814,0.2582271215702418,11.676412028000698,2.8145243084697693,-15.363118836459506,-236.53414473399428,41.059762884534685,11.591810870560787,-1.3439221768669736,-1.0811411649891178,166.2518,164.8101148453402,6.0,10.816120165338152,1.1424058988861507,-1.4273573445983163,-10.06250123813697,15.962584762320851,1.5574729000000002e-19,2.4861293181267667e-18,11.57281786702391,1.66911746892395,-0.5900414260983013,-2.9187045010719
3765,3765,6.810078000000033,0.0,2500.0,-2500.0,0.0,0.0,10.729653480778211,70.51434235486381,84.79061101625702,101.0,12.0,1.2924641926960656,1.2862698208398469,11.39623308081977,-0.06694139384031472,-0.16789633614397093,-0.0750415080300534,0.2511647767008713,-0.1206625926830453,0.06263046211273678,0.24156230595649844,10.67068449277892,2.9442034123720275,-13.66850163147195,-235.1602230997617,40.882352503468006,11.692614884787258,-1.175338983211385,-1.0024753809413924,166.2518,164.69905351948057,6.0,10.788017541298721,0.922579017371624,1.4997619965553135,-11.994573551690586,15.960523909505188,1.5574729000000002e-19,2.4858083458856387e-18,11.675334834161832,1.5441389051978516,-0.4796061316553438,-2.352306506828105
3766,3766,6.902887000000021,0.0,2500.0,-2500.0,0.0,0.0,10.751256056001985,70.7985802301383,84.71088486552974,101.0,12.0,1.4138612896958511,1.4062329988355902,11.508549009421374,-0.04835941931095721,-0.1607558478385968,-0.07707241934709701,0.25220923236603443,-0.025608253078319564,0.030758072544418237,0.23163007794878065,10.428727924837103,2.9192796889312627,-12.392034420395827,-234.0953094227253,40.753884385587824,11.75695971608459,-1.0642311565922535,-0.9181254073818198,166.2518,164.62303653748063,6.0,10.770159285242789,1.1857661089291018,-1.6087665095722494,-10.265448562705805,15.960093584101967,1.5574729000000002e-19,2.4857413238702688e-18,11.742992038482905,1.423664782583617,-0.3907466907224301,-1.9058072082951367
3767,3767,7.001561000000095,0.0,2500.0,-2500.0,0.0,0.0,10.70188937294886,70.14989561653655,84.63685693600115,101.0,12.0,1.5369558088989022,1.5278577508957198,11.6170286618996,-0.0574879901096117,-0.16039688666581556,-0.07583725683968505,0.25304025550982345,0.032731603070317944,0.08661727455653227,0.24616969176442546,10.519445879200825,2.9673756628113463,-11.043908757845918,-232.9509765617749,40.63567797909499,11.81494772373369,-0.9223145850589316,-0.8784041788529285,166.2518,164.54829247822641,6.0,10.751175908551062,0.9245926032548232,1.1286842984751853,-10.62844328508833,15.95963606458514,1.5574729000000002e-19,2.4856700664454006e-18,11.802509805045387,1.3073426757928033,-0.3335810005409282,-1.6189519795159453
3768,3768,7.0972810000000095,0.0,2500.0,-2500.0,0.0,0.0,10.712128378869732,70.2841936843058,84.57044300044141,101.0,12.0,1.6043104326519302,1.594263812173836,11.626989563976386,-0.07604166836281434,-0.16460729379479294,-0.07106159380844744,0.2537355606567497,0.07627525200864653,0.0949613088004835,0.20658559531625048,11.037296073567463,3.2549798107268866,-9.783232554176054,-231.83589673653952,40.535268321475776,11.87247412453993,-0.7812156301904923,-0.8245444033292981,166.2518,164.48372734328137,6.0,10.735423562062591,0.9616705678653704,-1.038055902857453,-9.967056417113874,15.959127697687435,1.5574729000000002e-19,2.485590889678758e-18,11.860293948093084,1.2165377531242387,-0.2194006038200843,-1.05977938271597
3769,3769,7.217275000000029,0.0,2500.0,-2500.0,0.0,0.0,10.54665370298976,68.12959339201021,84.48933194062309,101.0,12.0,1.6736518804714031,1.6624159874334357,11.656704551439267,-0.08506588814483114,-0.16353014829324392,-0.063602405361789,0.2547167840850688,0.03310485268600041,0.06118577452366874,0.16639219572162592,11.344324148596087,3.58101790615772,-8.452607155846492,-230.42609515625068,40.435601841375046,11.946229176249965,-0.5701001477126079,-0.7447400433800403,166.2518,164.40877445946626,6.0,10.700525748815176,1.4615451051622173,-2.768298847749364,-10.179585672624762,15.958200186201243,1.5574729000000002e-19,2.48544643227834e-18,11.923547258488819,1.1897570321292257,-0.07445430007987675,-0.35776783748398394
3770,3770,7.3108530000000655,0.0,2500.0,-2500.0,0.0,0.0,10.357832805919722,65.71188895806164,84.42701802278499,101.0,12.0,1.6801473704601977,1.6679835105129517,11.734186378256116,-0.09223773874687796,-0.16218941238827292,-0.059178431324626385,0.2568850879785865,0.011777171839418902,0.06515716959869187,0.14753381833304072,11.377957445526436,3.7691558588914758,-7.560248674738557,-229.32572640228096,40.37601022164436,11.984175397229428,-0.3958680139983832,-0.7185461057611642,166.2518,164.34968807423675,6.0,10.627532775893119,0.8206125241751607,1.6286934053238662,-10.022288859121911,15.957476861119535,1.5574729000000002e-19,2.4853337763570738e-18,11.953507305537062,1.195047071324319,-0.0117930356665934,-0.05652658544881505
3771,3771,7.407554000000005,0.0,2500.0,-2500.0,0.0,0.0,10.288092619746909,64.82997461802833,84.3618423768664,101.0,11.93599888361132,1.679855986426575,1.6666639894775206,11.789920754394489,-0.10661318221682377,-0.16716583812815086,-0.059432984170718815,0.2608497241437632,0.005000015262262396,0.08873486442779277,0.14900674807133127,11.459525161705596,3.9807324328525113,-6.677223115426315,-228.183725266308,40.33341148031121,12.01670746140035,-0.2326953966547481,-0.7198786451825241,166.2518,164.28341987421388,6.0,10.522335904761961,0.4642341253023133,-0.04526830826735884,-9.822461751466252,15.956720186897163,1.5574729000000002e-19,2.4852159263975272e-18,11.98336960352175,1.1856324920666863,0.029096997698598862,0.13912045972615586
3772,3772,7.503551000000016,0.0,2500.0,-2500.0,0.0,0.0,10.367139459527577,65.83003116862999,84.29679753772042,101.0,11.439841638197034,1.6322248412510791,1.6175444221815063,11.680766160403344,-0.1417253236205718,-0.1774393143634502,-0.06934561883438173,0.26447810309466296,0.00997970069273027,0.08904811118978734,0.1416533084223869,11.495903540401896,4.2791923173974125,-5.822965630217298,-227.04521031850697,40.30481060877604,12.042247941383838,-0.06218746866312564,-0.7376196634599631,166.2518,164.2161710450036,6.0,10.43713481961065,0.30487660054323473,-0.19580101507511802,-9.903290419949403,15.95594964326748,1.5574729000000002e-19,2.4850959163153772e-18,12.008044735714385,1.1882999859395125,0.06908988070181278,0.32965524175739336
3773,3773,7.622872000000086,0.0,2500.0,-2500.0,0.0,0.0,10.516129696456092,67.73576320184907,84.21344312810467,101.0,11.17095810477309,1.5705107931516782,1.5538270436367754,11.594771189642598,-0.26894423459338906,-0.19541302807124794,-0.10775762789554437,0.2680095293815768,-0.10540186595542786,0.06452617422460885,0.1503036524801803,11.381363508002625,4.655042974647056,-4.7517276321356,-225.62945677952783,40.29886470925045,12.0664499697856,0.1625334491382278,-0.7494685502912104,166.2518,164.1307731618381,6.0,10.3886117067932,0.712474788261272,-1.9861050063589964,-9.543312480535064,15.954991883791275,1.5574729000000002e-19,2.484946747872486e-18,12.032716376079554,1.2026638369008131,0.1290694890460533,0.6145622608827065
3774,3774,7.71908800000017,0.0,2500.0,-2500.0,0.0,0.0,10.558363056594061,68.28091246811715,84.14516988394223,101.0,11.651639139514467,1.5157132032592648,1.4971066815372929,11.625053614150273,-0.31710232353216017,-0.2002010674167614,-0.13182248010072484,0.26933685768828713,-0.3164415040547152,0.031417375620900155,0.14554462277691527,10.25899988214429,4.816019954941494,-3.97516138302486,-224.49412019900916,40.32287729634484,12.083681739887009,0.3534032519677355,-0.7152992651146302,166.2518,164.06063584168785,6.0,10.388281369993516,1.2850462772532767,-2.9585759248009156,-9.146216320435736,15.954442838953558,1.5574729000000002e-19,2.4848612356269237e-18,12.047692223286974,1.2389764473567786,0.1925512781529284,0.9156472588911709
3775,3775,7.814883000000009,0.0,2500.0,-2500.0,0.0,0.0,10.446410920845176,66.8406192886456,84.07905541096393,101.0,11.872303004174016,1.4632303876477015,1.4433580974132274,11.69897280499817,-0.2598306756797783,-0.1924104098038972,-0.13423009783046375,0.2703423570697801,-0.3759126654665666,0.01975275083990103,0.15743247659606108,8.227739811393626,4.812907202761751,-3.120349166333905,-223.3609294928403,40.36315727281819,12.089478964372852,0.5095361332553797,-0.7180898252751796,166.2518,163.99438205758003,6.0,10.378997012356539,1.5800999379930318,-1.8787689058902048,-8.798753523977993,15.95419503930824,1.5574729000000002e-19,2.4848226415037016e-18,12.061602002966547,1.2049476533122276,0.19400907986129834,0.9215146516094541
3776,3776,7.908398000000091,0.0,2500.0,-2500.0,0.0,0.0,10.329342993772658,65.35088905206655,84.01523500409759,101.0,11.41415665601892,1.4174157070175577,1.398001608945873,11.885438826843645,-0.2067523770830185,-0.18653280439376627,-0.1352811203153897,0.272050303247096,-0.4547457448988901,0.04350493321755364,0.22502890759452412,5.991215062680664,4.796465983072941,-2.101117630946648,-222.2599038514299,40.41359047435812,12.086472360641071,0.6168964170320725,-0.730943220239922,166.2518,163.9287417628237,6.0,10.340620409959003,0.7947497449345474,-2.499558814919609,-8.614497187982785,15.953953137498836,1.5574729000000002e-19,2.484784965952441e-18,12.074628858350222,1.0850908408971676,0.18954454814569374,0.899341159949574
3777,3777,8.024079000000086,0.0,2500.0,-2500.0,0.0,0.0,10.242674389859962,64.2588370910511,83.93889164550261,101.0,11.152845392799863,1.3758471698917394,1.3563887031442614,11.996072443283458,-0.16805387662934912,-0.18344283728648927,-0.1350811794599848,0.27517921369869264,-0.347683249288776,0.06986799534374405,0.2692534946223158,4.128059111912477,4.838870062204948,-0.6453368950809486,-220.89147516909844,40.482429778792735,12.08045898792724,0.7247978739116592,-0.7730620675108963,166.2518,163.84652489828477,6.0,10.272651393298748,0.7503715100379899,-2.6249044747931185,-8.271201725564639,15.95385603115344,1.5574729000000002e-19,2.4847698419023037e-18,12.09371548704734,0.8755968161339998,0.17471693554760204,0.8276899410398333
3778,3778,8.115390000000161,0.0,2500.0,-2500.0,0.0,0.0,10.113962157870358,62.65407402112476,83.87978911111105,101.0,11.600957952181282,1.3753991021436138,1.35459620809548,11.826237335165342,-0.16142152632790066,-0.1834857103149599,-0.13343594970304304,0.278090303221213,-0.014281814335185938,0.028858010899576805,0.18023822344616552,3.6004981982559823,4.983475818895169,0.4812130014649368,-219.8069603369304,40.53791430938367,12.077231502337256,0.8067941177136407,-0.7967729112457728,166.2518,163.7843922650651,6.0,10.208901248713016,0.6627448175707686,1.539463026462931,-11.034075872721083,15.954020695872321,1.5574729000000002e-19,2.484795487986028e-18,12.107117500712107,0.7187385113900621,0.19414454323021224,0.9186918062439544
3779,3779,8.232478000000015,0.0,2500.0,-2500.0,0.0,0.0,9.734790757378585,58.04434744972362,83.79576706823582,101.0,11.817241872534986,1.3631208217147741,1.340572465608192,11.680665501951413,-0.15710106233653814,-0.17713593164492591,-0.12965257906772695,0.2835430461472248,-0.1082347591174642,0.021145719876741492,0.16285876717587172,3.3539908447188465,5.140931553181883,1.6894125415103485,-218.41921564904104,40.60690221124692,12.074003152593866,0.9021439073537728,-0.8105636350272335,166.2518,163.70396267864274,6.0,10.060490245109829,0.93416992593768,3.5452777303049854,-11.57638324059842,15.954231845269485,1.5574729000000002e-19,2.4848283739324222e-18,12.119326810297148,0.5597732363406087,0.2271313602765891,1.0736689625604432
3780,3780,8.324943000000019,0.0,2500.0,-2500.0,0.0,0.0,9.652318867603793,57.064970200512285,83.72619042559954,101.0,11.34489364310696,1.3324181868019525,1.3084528332419092,11.695308297063685,-0.14040788891760053,-0.1722121259226434,-0.12636799838377016,0.28780407029177146,-0.07222171151290765,-0.00511743641478626,0.09827153122371338,2.90687414979885,5.170187553917348,2.3632358389085173,-217.32847325737183,40.653727470622975,12.073993302283785,0.9603877710943,-0.8008775707881512,166.2518,163.63644311723934,6.0,9.911792148007848,1.5869921119218695,1.7142568344870526,-8.914289618503883,15.953347105327378,1.5574729000000002e-19,2.484690578084084e-18,12.126252728449376,0.4746888777815405,0.2510812048552009,1.186173367584102
3781,3781,8.416516999999999,0.0,2500.0,-2500.0,0.0,0.0,9.629004525354024,56.789620501690045,83.65870855958613,101.0,11.0,1.3109513070967893,1.2850001,11.677226104223015,-0.13642343238963045,-0.16744370206792253,-0.12523405000348167,0.2916746379160617,-0.1421795468015841,0.016491859680827094,0.144879711652913,2.495543657569537,5.162742585334722,2.9232452330076812,-216.25636152308175,40.70984722157815,12.072052295716894,1.0168334015643803,-0.7746882765092665,166.2518,163.5695860878496,6.0,9.776868934902849,1.631116158111766,-1.8702577263148081,-8.658688212179857,15.95145952937549,1.5574729000000002e-19,2.4843965932449084e-18,12.128788948809412,0.4120827892432794,0.2817277651415643,1.3306282981395594
3782,3782,8.533940000000086,0.0,2500.0,-2500.0,0.0,0.0,9.68533637852397,57.45601677168251,83.57310416191426,101.0,11.0,1.3155937939385725,1.2850001,11.536791457569931,-0.13199940070424773,-0.16297180981532433,-0.1222027872329556,0.29552870306322304,-0.18674859864897814,0.030740304735266663,0.11682663556414648,2.3894358971500957,5.177574643075738,3.478272522096171,-214.87403267839906,40.803120548698175,12.069506400916104,1.1125538494696376,-0.7661997068370295,166.2518,163.4860350217424,6.0,9.658986394361976,1.223329568924717,2.774287476013438,-9.199383669720431,15.949039138969937,1.5574729000000002e-19,2.4840196239985013e-18,12.134484813139427,0.3904701905425044,0.2957761339590149,1.3962990115762466
3783,3783,8.63009900000003,0.0,2500.0,-2500.0,0.0,0.0,9.685323848850617,57.45587929238097,83.50701042915966,101.0,11.0,1.319262908435472,1.285180485741886,11.474284015589069,-0.11703948758097135,-0.15985345213273555,-0.11942442787707408,0.29813555585369106,-0.20856457797466454,0.0200575458639844,0.06954629132107765,2.059375863566822,5.209135721167375,3.729829185044344,-213.75629974141808,40.894504188481605,12.068337749630313,1.1541203959913369,-0.7619544304504251,166.2518,163.41550667230996,6.0,9.59468406941198,0.9462595108930606,-2.9111646971593967,-8.60656446818724,15.947011998093133,1.5574729000000002e-19,2.4837039023004903e-18,12.136984647660636,0.3773621093489065,0.3078836364774712,1.4531328022636512
3784,3784,8.726555000000076,0.0,2500.0,-2500.0,0.0,0.0,9.694754139387864,57.56780613853982,83.44219618974482,101.0,11.0,1.3227138788131871,1.2856734392527474,11.502385175824175,-0.08881278842013021,-0.1580426381214064,-0.11691480393464912,0.30006750594419124,-0.3406238141452569,0.05852840339584533,0.07244200654909043,1.299965178902914,5.279661429614321,3.846610324469681,-212.6378682972641,41.000262555384396,12.063996473317866,1.2234523628610077,-0.707439974782,166.2518,163.3498955939684,6.0,9.554063652813547,1.190650858248572,3.3948819387628504,-11.1260134792375,15.944937651309473,1.5574729000000002e-19,2.483380828410416e-18,12.132576287738276,0.4189481456394168,0.37274793341327217,1.7597389985560457
