,Unnamed: 0,timestamp,thrustinput,Position state,Position state2,PA-ON,PA-ON2,Airspeed[m/s],Differential Pressure[Pa],GPS Altitude[m],GPS Noise Magitude/ms,GPS Satellite Num.,Horizontal accuracy[m],Vertical accuracy[m],Groundspeed[m/s],Roll control,Pitch control,Yaw control,Thrust control,Roll Angular Rate[deg/s],Pitch Angular Rate[deg/s],Yaw Angular Rate[deg/s],Roll angle[deg],Pitch angle[deg],Yaw angle[deg],Local X[m],Local Y[m],X-velocity[m/s],Y-Velocity[m/s],Z-Velocity[m/s],altitude set position,altitude(Tecs),airspeed set position,airspeed(Tecs),X-acceleration[m/s^2],Y-acceleration[m/s^2],Z-acceleration[m/s^2],Battery Voltage[V],Battery Current[A],Inst. power[Ws],Body_Uvelocity[m/s],Body_Vvelocity[m/s],Body_Wvelocity[m/s],A.O.A.[deg]
7454,7454,0.0,0.0,2500.0,-2500.0,0.0,0.0,13.22062061065308,107.0557063433071,86.67932114044143,103.0,12.0,1.2615990176543312,1.357802104794242,12.958635221090498,-0.19520025567506974,-0.25711106231889,-0.12994138971151198,0.007081609250844737,-0.5121832399529901,-0.011099640497194687,0.4745447860018816,6.330349772376501,1.1717024694910274,-9.608952437084797,-333.0818910026386,-33.595552826699496,13.583945054286106,0.4494331551136589,-1.4131937471761324,166.2518,166.57801000804182,6.199478844491169,13.122091635303589,0.22124487950994207,-1.2022686833619023,-9.945764059683675,15.610436502720717,1.5574729000000002e-19,2.431283181015829e-18,13.344454308627812,2.5842723976489808,-1.189029996778705,-5.091775223435293
7455,7455,0.1073430000000144,0.0,2500.0,-2500.0,0.0,0.0,13.15986658901515,106.07404881628784,86.59405861940304,103.0,11.930813759323506,1.26327675188133,1.3546540687966175,12.912245421518413,-0.12582382667794312,-0.237097359836164,-0.13718752516575014,0.0,-0.22655866289625196,0.08279870250534824,0.4414453320292345,4.0749116685585465,1.1694738492985493,-6.787161277937241,-331.69516538068285,-33.54903083910997,13.539141030475678,0.452079917181455,-1.257905647267481,166.2518,166.50133856457902,6.011684784676862,13.234132146239086,0.18864821213394475,-0.8637020288223457,-10.046588394190671,15.608882462969413,1.5574729000000002e-19,2.4310411435360112e-18,13.413715688461,1.9786125665945475,-1.023670980193146,-4.364082325669242
7456,7456,0.20227199999999357,0.0,2500.0,-2500.0,0.0,0.0,13.014567151367562,103.74469864309677,86.53960493739612,103.0,11.450467043810225,1.2651981867780546,1.3522523352190512,12.920892142744371,-0.1166960926216917,-0.24663118142547455,-0.13546162691920224,0.0,-0.07291203869438308,0.13815996962923047,0.40477949287719023,3.3420437097619486,1.7040190234361898,-4.434017093972463,-330.47274105508654,-33.50311627559151,13.491599460501835,0.467480966186088,-1.12416262338067,166.2518,166.4516287608171,6.0001301318675795,13.270669977460251,-0.22579911402727945,-0.5024144590109872,-10.508799073445251,15.608183837705965,1.5574729000000002e-19,2.430932334544504e-18,13.442574109439926,1.4662126918370266,-0.7683933930034109,-3.2715343049975942
7457,7457,0.29513200000019424,0.0,2500.0,-2500.0,0.0,0.0,12.787588447341076,100.15750438017824,86.48673101328583,103.0,11.018406114899504,1.2671105348487854,1.3499263773810135,12.929074624459595,-0.11215845629274153,-0.25845456359912755,-0.13059541620484122,0.0,0.046609245778226255,0.1169304097602278,0.3087646885060432,3.367021744506817,2.2733982259084256,-2.504009210262006,-329.28056776185065,-33.45660548328902,13.44022680869804,0.5083015691582027,-0.996613647637983,166.2518,166.4124119019381,6.0,13.232693465721704,-0.2063885767112999,-0.3732220907547881,-10.731712339849624,15.613525837852613,1.5574729000000002e-19,2.431764336590524e-18,13.434168890798375,1.066892493665197,-0.5067096389976412,-2.1600568043885087
7458,7458,0.4157820000000356,0.0,2500.0,-2500.0,0.0,0.0,12.38996420171664,94.02584417604513,86.43633238911161,103.0,11.59731585488152,1.2705839353977035,1.3476107963120594,12.931390263419525,-0.12481798631288668,-0.27716321683729805,-0.12455297052280463,0.0,0.1410328361973689,0.09329256404193828,0.21825033248598388,3.9017478739991067,3.00126254471516,-0.6060015769736895,-327.742111090138,-33.392774254490554,13.369622524982919,0.5925536572785777,-0.7839979284519302,166.2518,166.3678624517021,6.0,13.078993299273687,0.047984343790752115,-0.32478323444996193,-10.992801467693427,15.620466526175814,1.5574729000000002e-19,2.432845329987597e-18,13.385327693293915,0.7272509048835271,-0.12151745361562127,-0.5201401207980362
7459,7459,0.5071490000000267,0.0,2500.0,-2500.0,0.0,0.0,12.09496509345331,89.60170332532263,86.40057981218817,103.0,12.0,1.2731934087712906,1.3459227380387229,12.92793379153635,-0.12650377301157004,-0.2897098240050613,-0.11766413321786705,0.0,0.09697481569811407,0.08201717191453624,0.12771327188571652,4.436206536937732,3.4614142483125683,0.328840434895984,-326.5770848156682,-33.338057026768176,13.316908075025038,0.6785421138017514,-0.5810096022549405,166.2518,166.34477239388798,6.0,12.883989314091783,0.02034191668821549,0.7675502755622508,-12.856860234716224,15.624580790314836,1.5574729000000002e-19,2.433486115477594e-18,13.331361404970027,0.6183518287547951,0.18727367875626144,0.8048154545298751
7460,7460,0.6029070000001866,0.0,2500.0,-2500.0,0.0,0.0,11.703812411479216,83.90030477911596,86.39670000000002,103.0,12.0,1.2756813772185445,1.344927570563171,12.862750321887695,0.11535653371899908,-0.2932091560250292,-0.09831171402746887,0.0,-0.04804131159427229,-0.0011398041360616373,0.06749873602235283,4.531339382366609,3.604723854211148,0.8758314456740165,-325.3636435662645,-33.27168014698792,13.25052325301201,0.783612843132578,-0.3869920351083792,166.2518,166.3373158237146,6.0,12.624467937640318,-0.2474241663684056,0.8610289087005972,-11.69148452258183,15.622396475178554,1.5574729000000002e-19,2.433145914314613e-18,13.25904825181619,0.6151869379681415,0.4096002327707788,1.7694259029559607
7461,7461,0.7151820000000271,0.0,2500.0,-2500.0,0.0,0.0,11.320762546409563,78.49782536810751,86.39670000000002,103.0,11.884338402201905,1.2788097311845867,1.3440001,12.779446872767773,0.2145666063667956,-0.3047156222043552,-0.08152821190395823,0.0,0.32622271078614035,0.01990008133884387,-0.017701440480877583,5.4962875698521785,3.6067493036605733,1.0451511857404372,-323.94577390330437,-33.181057187764466,13.159636480245428,0.9023649881597824,-0.25630647655053473,166.2518,166.34118281580518,6.0,12.230512792456766,-0.0016265972243424964,0.8563206765898721,-11.46706650827763,15.61983539430881,1.5574729000000002e-19,2.4327470329096788e-18,13.163937077404047,0.7157448774538023,0.5286558249890935,2.2997283872553296
7462,7462,0.8125870000000077,0.0,2500.0,-2500.0,0.0,0.0,11.21218943875674,76.99933323120004,86.41639987061336,103.0,11.39517084831594,1.2822339040617885,1.3440001,12.684058710592456,0.15400344772882854,-0.3165474212780245,-0.05879287646248964,0.004320905088177796,0.4253166404158685,0.013310451852417205,-0.12680984769227224,7.697527078357925,3.7722902304000048,0.6486671865469245,-322.72492479215214,-33.092130219589144,13.080667962488107,1.013091548131738,-0.1556790000665416,166.2518,166.35498060796644,6.0,11.880602060946623,-0.001157563739718922,0.9468259360946656,-11.428211757805993,15.618651338399978,1.5574729000000002e-19,2.4325626194106697e-18,13.073177785556672,0.957622280405616,0.6426854485885496,2.8144298945429203
7463,7463,0.9213130000000547,0.0,2500.0,-2500.0,0.0,0.0,11.162697856453924,76.32106848052145,86.43979212228771,103.0,11.148837071024339,1.286190796568195,1.3445954334003902,12.602386050798247,0.07000449356630596,-0.32655754916836754,-0.03395453554730636,0.016147653583223526,0.38506974105503056,0.00529142819680508,-0.2081817468588982,10.057395717368252,4.023276378024087,-0.4564482642966618,-321.3657527100923,-32.98231417931076,12.990019742411047,1.157597960935009,-0.08437073936754552,166.2518,166.38242455757606,6.0,11.532666109206671,0.22047920504653426,0.03161198538787546,-10.258305958883069,15.621884866926795,1.5574729000000002e-19,2.4330662327158597e-18,12.954316716149695,1.4022843602434392,0.7253847887554702,3.20496484534608
7464,7464,1.0167410000000245,0.0,2500.0,-2500.0,0.0,0.0,11.198797936470882,76.81551242387705,86.4666338968177,103.0,11.62167893844929,1.2899735315075942,1.3464867535859033,12.587727952908072,0.0051707527476576596,-0.3398132344215499,-0.017951152859078414,0.028025784936408445,0.20015811644372425,0.03960955973454937,-0.25226386498070746,11.770719889219036,4.343996338596362,-1.6848467564941632,-320.18198320946175,-32.87558565741794,12.90233628478376,1.2927969152046972,-0.07177488278189084,166.2518,166.4065275235473,6.0,11.278520115055887,-0.26084573838796565,0.3552911808469291,-10.662652192247311,15.624722910819305,1.5574729000000002e-19,2.4335082503610187e-18,12.827244335688516,1.8508767645266215,0.7568199543647739,3.3765925254362763
7465,7465,1.1327630000001818,0.0,2500.0,-2500.0,0.0,0.0,11.420899083255865,79.89277739877267,86.49907471845583,103.0,12.0,1.2943881682812226,1.3489914773437306,12.55815360610832,-0.05150056955614743,-0.36083181107396617,-0.011185208435021406,0.036380330797200905,0.10138968959662403,0.08891741647750884,-0.25771355070476143,12.807860434870634,4.9797198528672375,-3.3864077705069335,-318.75098515741405,-32.73170427118113,12.793359888094079,1.447532602176943,-0.06739244440275989,166.2518,166.42632451421971,6.0,11.07942901857465,-0.1219368963114522,0.2853718690173132,-10.736433480339944,15.627764448259887,1.5574729000000002e-19,2.433981961574823e-18,12.64348409600173,2.4216170265228922,0.8172493653241392,3.698338959692975
7466,7466,1.2211409999999887,0.0,2500.0,-2500.0,0.0,0.0,11.666892266674097,83.37132261936183,86.52134775352694,103.0,12.0,1.2974805478768308,1.3512003199120222,12.518394881647588,-0.0904435657138571,-0.3749073248670976,-0.026240129463767272,0.037067525520567336,-0.0654660593463432,0.013770527719835723,-0.2535682745805791,12.666172798816929,5.481863411757303,-4.626815040757636,-317.6677878498785,-32.613042538445384,12.709276446344465,1.5470483027330246,-0.04374306920286311,166.2518,166.44272300746994,6.0,11.033345419541817,-0.2711198026939987,-1.1382243539417152,-10.065840715502887,15.629448587822365,1.5574729000000002e-19,2.43424426174766e-18,12.489879542571716,2.8086570864996405,0.8813568711009028,4.036424831202622
7467,7467,1.3174260000001823,0.0,2500.0,-2500.0,0.0,0.0,11.98597875783058,87.99417248342655,86.54561351176795,103.0,12.0,1.300483342792878,1.3531208257999343,12.454831060610895,-0.14397645928802252,-0.3849853660389368,-0.05334786636429456,0.03251619181325382,-0.1179665216159512,0.004248426735228794,-0.1674947866546137,11.795167376082494,5.8278803936376695,-5.728262923209653,-316.4917324680937,-32.47415086807902,12.615891147183495,1.6328525015051605,-0.005860004207959456,166.2518,166.46802748091602,6.0,11.084763618320695,-0.01046121304797448,-1.805296895270576,-9.761610801874156,15.631283403927881,1.5574729000000002e-19,2.434530029383743e-18,12.326473895883662,3.12496878449398,0.9329735807305968,4.328384627271031
7468,7468,1.4372339999999895,0.0,2500.0,-2500.0,0.0,0.0,12.361595681022555,93.595554973366,86.5666423399181,103.0,12.0,1.3028680677508278,1.35371708156394,12.301012455357986,-0.2491341434851157,-0.3891007892218307,-0.09682196427077353,0.022465379248674224,-0.3217927601892952,-0.022286271417665808,-0.06865538603396389,10.096987690829376,5.960113067630254,-6.477718171191821,-315.0370226353487,-32.29088939858348,12.496818941979113,1.7011446351486543,0.004581351790548012,166.2518,166.4970260592755,6.0,11.287111609020881,-0.05025200579900745,-1.470270137564658,-8.895679635024628,15.631838558783352,1.5574729000000002e-19,2.434616493248013e-18,12.158559550967693,3.3067226328599464,0.9323285699264668,4.384907636989823
7469,7469,1.5352359999999408,0.0,2500.0,-2500.0,0.0,0.0,12.469056403448867,95.22988641113199,86.58361102357571,103.0,12.0,1.304,1.3542008775653762,12.168163100950375,-0.1900512315008184,-0.3798516499275823,-0.10559190786868876,0.012521531606231486,-0.40122141345572426,-0.01857216896932964,0.032198310070163584,7.883671038800772,5.894443594261484,-6.525052298152918,-313.86090596293656,-32.1351853999135,12.400928093169027,1.7290190850764484,0.0017770001691945149,166.2518,166.51410702705402,6.0,11.494859524178608,0.2084440360993753,-1.5053286303452689,-10.264813684643846,15.629744104603205,1.5574729000000002e-19,2.4342902876854254e-18,12.059831150625214,3.281520875881197,0.9139482923356492,4.333847909886765
7470,7470,1.6290800000000445,0.0,2500.0,-2500.0,0.0,0.0,12.41294024118367,94.37467047426092,86.60369048912172,103.0,12.0,1.304,1.354658935858884,12.031647619878646,-0.13450522609248894,-0.36860313218121227,-0.1116954556627494,0.0037048315455103674,-0.4343007343257223,-0.05346168646360153,0.0946789537735936,5.586659122684666,5.744515645345263,-6.168884333018707,-312.7450114425075,-31.98378622661122,12.312601055733245,1.7282939687290089,0.03435615397288602,166.2518,166.53087709005374,6.0,11.67757898166284,0.5936929338191878,-1.1158046574175289,-10.42043275645586,15.627738513308312,1.5574729000000002e-19,2.4339779222763987e-18,11.991602349857212,3.1469172177875198,0.9305455236166632,4.437246655410892
7471,7471,1.72487000000001,0.0,2500.0,-2500.0,0.0,0.0,12.312030893657068,92.84650635257759,86.62418633333819,103.0,12.0,1.303730401718605,1.3547304017186048,11.930404532221234,-0.0335214519277702,-0.34495384321888417,-0.10781509898999188,0.0003555051840076528,-0.3846385120743448,-0.13753144617317542,0.14398342065841746,3.440018696241125,5.153147146049376,-5.5127771958911165,-311.6154265398881,-31.82722714761617,12.227805551352088,1.6974737731472151,0.07761227336448619,166.2518,166.5512618004917,6.0,11.823146761416444,0.5338455300720003,-1.4452931077856772,-9.748096546688153,15.623740096128659,1.5574729000000002e-19,2.4333551796363783e-18,11.952671159687242,2.9220982583539743,0.8965004999259266,4.2893924425560686
7472,7472,1.8424770000000308,0.0,2500.0,-2500.0,0.0,0.0,12.174025501831533,90.77673250305298,86.6492505468237,103.0,12.0,1.3025069155106137,1.353506915510614,11.932240373276324,0.08550658043648808,-0.3221200851358605,-0.11898060624441398,0.0,-0.13170275302011467,-0.1234669764458808,0.17840188466463713,1.456151211523844,4.315039997086811,-4.4619719365521835,-310.2455110276543,-31.63512326944043,12.133893241036162,1.6361985153473075,0.1101696886083888,166.2518,166.57844391772457,6.0,11.945282166773785,0.25264850452182763,-0.7630216326463201,-9.740927372424764,15.61324782337744,1.5574729000000002e-19,2.431721036589435e-18,11.927607013593613,2.5936033135847936,0.8163853814350116,3.915504433205364
7473,7473,1.938680000000204,0.0,2500.0,-2500.0,0.0,0.0,12.071436018433113,89.25328193036253,86.66935035182733,103.0,11.765124942488,1.3015302733724816,1.352530273372482,11.896125615970616,0.09893066894956123,-0.3061878359322709,-0.11746682903266645,0.0,0.10262194539198036,-0.09871814268369533,0.13227869574356144,1.4763682851374706,3.696276390468936,-3.5720548400491166,-309.13581822440733,-31.479920065984672,12.062617341771324,1.5935342379472417,0.10481435408412963,166.2518,166.59778996838025,6.0,12.002586152829034,0.12191836753697265,-0.132983929553406,-9.701325338529472,15.60466510197917,1.5574729000000002e-19,2.4303843009908297e-18,11.90830499426761,2.3596395968641146,0.7230592100089438,3.4746709188705016
7474,7474,2.035056000000054,0.0,2500.0,-2500.0,0.0,0.0,11.850645270461062,86.0182621321133,86.67470952286978,103.0,11.288329960966117,1.3005767310889362,1.3515767310889362,11.821268803871678,0.09204747407836814,-0.30093624058834817,-0.10990543079471486,0.0,0.08743376850107314,-0.04788141628454543,0.056238139891589975,2.0236784639158034,3.3352308412305662,-3.0618110823554354,-308.02794521703555,-31.325037244881607,11.998591498933056,1.5650232680155207,0.06874449913683464,166.2518,166.61226724419583,6.0,12.012303251918215,0.2776805906179659,-0.7663547240819094,-8.868088222336516,15.600356772772868,1.5574729000000002e-19,2.42971329039252e-18,11.873718802330265,2.226806992549812,0.6321415104289384,3.0474765326315705
7475,7475,2.1329130000000305,0.0,2500.0,-2500.0,0.0,0.0,11.546407260282884,81.65825390424334,86.68015104773802,103.0,11.0,1.2996033401652165,1.3504049404098328,11.759733648393953,0.05955184127291827,-0.2923944153932831,-0.1006329584605322,0.0,0.26253104264477545,-0.06459013276879183,0.007280821776793161,2.974272730105641,3.035504495930769,-2.9203227333604063,-306.90796446087535,-31.167720169356407,11.935926424356438,1.5471731797316652,-0.0215839921900754,166.2518,166.61183767635075,6.0,11.946259029687214,0.17874041672671592,-0.9237103269461828,-8.459643345109688,15.602397505190227,1.5574729000000002e-19,2.4300311289361395e-18,11.826129876339008,2.181663240571738,0.4906741988900926,2.3758782770316262
7476,7476,2.2278009999999995,0.0,2500.0,-2500.0,0.0,0.0,11.361240767627153,79.06017051694961,86.66108021299482,103.0,11.0,1.2986520629466265,1.3489779770180863,11.720730806793144,0.03766632550323056,-0.2928643537546691,-0.08830275044873473,0.0,0.2423729198935428,-0.011137423515430848,-0.04569967878996879,4.4533343933458704,2.802920110458522,-3.0298464342553375,-305.83416292927603,-31.01350041570128,11.870155197994153,1.5445788631938406,-0.16429343565443955,166.2518,166.59691790705818,6.0,11.82353015872152,0.11523746647071452,-0.9264939071137364,-8.368418910066554,15.604376321397742,1.5574729000000002e-19,2.430339324197868e-18,11.765872521933675,2.1991909094240745,0.3042093273589562,1.4810655263503625
7477,7477,2.346649000000184,0.0,2500.0,-2500.0,0.0,0.0,11.250991095737424,77.5331911581415,86.63578058538755,103.0,11.0,1.2977332969364541,1.3474664739058235,11.675058876600561,0.013375809851085541,-0.3026747831050272,-0.07505116916292101,0.0,0.14424707399713382,0.022335623443703684,-0.09483520033169374,5.772995143908341,2.9878821348190936,-3.52111442158874,-304.4940438367663,-30.81920009594368,11.803202538787529,1.5560253820079717,-0.2627643640617624,166.2518,166.5589319564676,6.0,11.648042664790525,0.6186067038133828,-1.039261938703315,-9.912795144622931,15.609308432966724,1.5574729000000002e-19,2.4311074872087143e-18,11.683166659831496,2.3097735439859006,0.2261906655507481,1.1091300867811258
7478,7478,2.440057999999908,0.0,2500.0,-2500.0,0.0,0.0,11.275947907521351,77.87755135897412,86.61075273404009,103.0,11.0,1.2972702040391224,1.3465404270251389,11.642182568520846,0.011236180155730987,-0.3081337844191537,-0.072027049693746,0.0019440719967948167,0.020923092419620357,0.025639755850263152,-0.1111468971248908,6.113097545942487,3.2087924448038003,-4.042040489265371,-303.4456677290957,-30.66416817173852,11.763026392901454,1.5723742644841114,-0.2413932860619364,166.2518,166.5264588549131,6.0,11.531092896346175,0.5820114199971224,-1.2244718294185208,-9.740202127278051,15.61579627856115,1.5574729000000002e-19,2.4321179515779847e-18,11.618222182752902,2.4374774403136263,0.2730404869362032,1.3462634966671914
7479,7479,2.5360890000001746,0.0,2500.0,-2500.0,0.0,0.0,11.38395595931428,79.37659617963226,86.58502234839476,103.0,11.213473904975233,1.2965730735374401,1.345786604747634,11.62492147861868,-0.00011889068932777193,-0.3093910901055792,-0.07295564861446094,0.003176603434631037,-0.026260456192046814,-0.003395565445450088,-0.10596660826010093,6.043725141928152,3.321696316856435,-4.639158877335895,-302.36783051908344,-30.504711108256817,11.730988590822072,1.5859320348544683,-0.153656050765138,166.2518,166.5017703572337,6.0,11.451824990891053,0.6957058895419674,-1.271406109037999,-11.074674408830708,15.622466238632224,1.5574729000000002e-19,2.4331567797834626e-18,11.553760029007409,2.579688538506636,0.3672222180364455,1.8204638531472284
7480,7480,2.634521000000177,0.0,2500.0,-2500.0,0.0,0.0,11.5929708016766,82.318202143106,86.57665895318087,103.0,11.71944957052312,1.2955611728039107,1.34528057848452,11.629475765584278,-0.014623365929313346,-0.3027341613289454,-0.0768326962548297,0.0021047195124635504,-0.041445757810365705,-0.04993441624653773,-0.09102078038430196,5.882409569818482,3.21604544646582,-5.226788812614352,-301.2688374208767,-30.34166802964901,11.698862418077436,1.585617988589339,-0.05041692563051897,166.2518,166.48843724282298,6.0,11.435187891583292,0.3260991068369342,-1.0581278673604817,-10.349997115996162,15.629576233272116,1.5574729000000002e-19,2.43426414218054e-18,11.490478522276785,2.7016000045117123,0.4436405962495191,2.2110580135155637
7481,7481,2.755150000000185,0.0,2500.0,-2500.0,0.0,0.0,11.81137732201355,85.44905908946885,86.56971529373409,103.0,11.668140459119739,1.295331926354926,1.3453318927268345,11.581226158385778,-0.005096055413426079,-0.29723864459062604,-0.08382844404440289,5.659491403729538e-05,-0.117988758548534,-0.021139515888144358,-0.07664633128140154,5.236157255204866,3.0542971061627133,-5.849909930736665,-299.9247298595876,-30.143167052716976,11.654438183745985,1.5658889063790504,0.040142873545535834,166.2518,166.4851191010101,6.0,11.507458139316284,0.5016807019025675,-0.8347311711470156,-10.670488623029794,15.638853624037894,1.5574729000000002e-19,2.4357090706505813e-18,11.415764234888163,2.800946056627837,0.5003225130788067,2.5095153047372483
7482,7482,2.850853000000029,0.0,2500.0,-2500.0,0.0,0.0,11.910250944023154,86.88564516486295,86.58218623771309,103.0,11.187300598393307,1.2958127181316663,1.3458127806715467,11.507657178854775,-0.0009666876231600104,-0.2900567960372317,-0.0894931083535713,0.0,-0.04526191364309172,-0.03197630847234373,-0.03915856363488445,4.783102906020574,2.950137328631228,-6.185326831126707,-298.8654920329185,-29.98761047012299,11.618387362279913,1.5332538938298481,0.09996563726026346,166.2518,166.49533357853255,6.0,11.598702069619055,0.21334920303079874,-1.368506430970652,-10.502792271959834,15.646213994499867,1.5574729000000002e-19,2.4368554284034294e-18,11.365317738032715,2.8296549757256537,0.5405437807765267,2.72298208230384
7483,7483,2.943881000000033,0.0,2500.0,-2500.0,0.0,0.0,11.977499454640231,87.86956885297155,86.59430860562712,103.0,11.0,1.296,1.3448880723595762,11.464544280074401,0.017037192341088497,-0.28475217314497586,-0.0927061883548544,0.0,0.011198506277924696,-0.01154230723190141,-0.008234668360306355,4.637854342932061,2.835233771691421,-6.3185017160799175,-297.8372115856949,-29.83932760960091,11.579698352332752,1.497174617375166,0.13279904412791652,166.2518,166.51141899768442,6.0,11.69676266159444,0.4874223076549503,-1.3988041750055018,-9.522947235002393,15.651849524770574,1.5574729000000002e-19,2.437733146970805e-18,11.32412957580354,2.8152029601894624,0.554869477901019,2.8051845291846984
7484,7484,3.04061999999999,0.0,2500.0,-2500.0,0.0,0.0,11.996866092827004,88.15394219409279,86.61367971587809,103.0,11.0,1.296,1.342958415470539,11.439459850041887,0.008263840349528756,-0.2805893717263754,-0.09316994942703637,0.0,-0.01039456878777572,-0.00896901549647283,0.003599733930030617,4.801398140710762,2.7653352311668087,-6.308142686117514,-296.76999720718095,-29.687591514856305,11.537412325991333,1.4651481883984443,0.1388853876030185,166.2518,166.52969088671315,6.0,11.79500655244077,0.7041940529781021,-1.512031469959482,-9.900186605234321,15.656097418525176,1.5574729000000002e-19,2.4383947449112924e-18,11.286706356775431,2.7780551832906086,0.5503949738392667,2.7918106963127505
7485,7485,3.1532600000000457,0.0,2500.0,-2500.0,0.0,0.0,11.940957761162993,87.33423360332242,86.63661263509142,103.0,11.0,1.2953457083381863,1.3410185952218632,11.377274833702176,0.017125704660200743,-0.2765619112543539,-0.09503532673313228,0.0,-0.13049994317892413,-0.008858343505724633,-0.011129813120686713,4.24961932669476,2.7534393178511842,-6.372748293664548,-295.53515765560667,-29.51271094593155,11.493224368646919,1.4336256388609196,0.14212984346079496,166.2518,166.55481890439145,6.0,11.885812941279818,-0.12613056173900927,-1.0885745773921345,-9.924760820740714,15.661043539040366,1.5574729000000002e-19,2.4391650897775462e-18,11.243247833594255,2.747967399914286,0.5514191545967011,2.8077914515368723
7486,7486,3.245714000000021,0.0,2500.0,-2500.0,0.0,0.0,11.79180954772394,85.16614775484975,86.64915674075381,103.0,11.0,1.294409185528841,1.3396138578339856,11.306099100191947,0.027540015455828924,-0.27147236120651064,-0.09804883747427516,0.0,-0.16252534975438548,-0.03923045179038637,-0.013170479146139974,3.5152973324508574,2.64794911461345,-6.485571621546378,-294.52515676177586,-29.370071988546812,11.458043332892823,1.39812900413375,0.12962618157230488,166.2518,166.5746156204051,6.0,11.916535083920975,0.1640397340824804,-0.8352196122985163,-9.374695923356699,15.663826432848447,1.5574729000000002e-19,2.439598517946513e-18,11.208816851477255,2.7202782885227323,0.5229641984911884,2.6712835305471816
7487,7487,3.366478999999913,0.0,2500.0,-2500.0,0.0,0.0,11.581969215513956,82.1620104490677,86.66441863727104,103.0,11.379273731153186,1.29362076419622,1.3374829671480142,11.290551222977278,0.04503927094121291,-0.26907687111972434,-0.1013795103144727,0.0,-0.018445133216510687,-0.022632459101437238,-0.01925886446049354,2.7793165739976424,2.456291738644563,-6.651605188432863,-293.2114674369498,-29.189574978749384,11.408750600063438,1.3319809049623272,0.07061481150272336,166.2518,166.59069192908862,6.0,11.882439992534325,-0.06793224147644222,-1.4573472625155477,-9.36627580721807,15.665810678026276,1.5574729000000002e-19,2.439907558755655e-18,11.16437438777846,2.6687310416043197,0.4356111692955413,2.2344312800316
7488,7488,3.4616829999999936,0.0,2500.0,-2500.0,0.0,0.0,11.401332046670186,79.6191308015253,86.66761002971919,103.0,11.82855052971842,1.2931715323253343,1.3356858150260733,11.308971571718454,0.042138907715241314,-0.2697197737931653,-0.10014045059673464,0.0,0.05107622051110311,0.000584004237048727,-0.008708398741266622,2.938498388570028,2.397172164957167,-6.719806831938605,-292.1789920753248,-29.05428377777893,11.363778743778846,1.2773789709468746,-0.016056016716942095,166.2518,166.5955242152221,6.0,11.80732491596474,-0.5114147719800625,-0.9116935925426384,-8.340612258332778,15.667374939839794,1.5574729000000002e-19,2.4401511882939613e-18,11.127167400194788,2.6191076191612743,0.340476455491378,1.7526274546746876
7489,7489,3.5601350000000593,0.0,2500.0,-2500.0,0.0,0.0,11.225998549010217,77.18913643842707,86.66981126343971,103.0,12.0,1.2926864972575562,1.3343728885865282,11.289033704078063,0.04393778845829248,-0.2759775367071127,-0.09726127464193507,0.0,-0.021026813654194995,0.008205053150546466,-0.03897785635039987,3.06786970670203,2.478750395394067,-6.84276440638484,-291.1149728457501,-28.92342026205344,11.3116188141586,1.2312966287265232,-0.1559224150172304,166.2518,166.5893598944906,6.0,11.68451821231271,-0.07816943339041804,-1.0422634310902024,-7.673083988058858,15.668943411862529,1.5574729000000002e-19,2.4403954735609427e-18,11.080713805595067,2.5851637367308724,0.21198448815538606,1.095988514002508
7490,7490,3.6567140000001928,0.0,2500.0,-2500.0,0.0,0.0,11.154740669831138,76.21229792186232,86.6508522006501,103.0,12.0,1.29219894169241,1.33339792370828,11.247107874280683,0.049166569284453114,-0.2828226723064224,-0.0962519258882788,0.0,-0.03878705163956932,0.016382849860620708,-0.06168311446995674,2.918145893946087,2.5507719393785355,-7.083721195271858,-290.08079602358714,-28.80185340609393,11.261117994168046,1.1852139368051111,-0.2976296838668549,166.2518,166.57170438712257,6.0,11.544422522095536,0.4039923164609304,-1.0650250031466,-8.440383136797855,15.670432951378176,1.5574729000000002e-19,2.440627465303853e-18,11.031320141017654,2.5721929741257537,0.07910706524914618,0.4108686193539641
7491,7491,3.7521310000001904,0.0,2500.0,-2500.0,0.0,0.0,11.215799538043036,77.04892785707878,86.63212124574072,103.0,12.0,1.2919999999999998,1.3321519730837563,11.208232776095027,0.051151028496309314,-0.2857236618626671,-0.0982343764280742,0.0,-0.07126596937164488,0.004221505560525536,-0.07571414181154403,2.4373960763626465,2.638083502662404,-7.447096479100018,-289.0577968002138,-28.687867282684394,11.215230001936169,1.1303220218015184,-0.4195206246171577,166.2518,166.5458978362573,6.0,11.42721188888883,0.005483139315813401,-0.970474137204893,-8.261629013476417,15.671904569348591,1.5574729000000002e-19,2.44085666581466e-18,10.981806106565307,2.5753317683281858,-0.032539868118269644,-0.16977094975899482
7492,7492,3.8720280000000002,0.0,2500.0,-2500.0,0.0,0.0,11.115065571855107,75.67111647068663,86.575547634559,103.0,12.0,1.2919999999999998,1.3303364099978812,11.161635179404637,0.08952064392134954,-0.284174144042954,-0.1007630942480857,0.0,-0.0436374169296679,-0.017597099052492644,-0.08663318631051642,1.9367388309679403,2.6137071191519383,-8.017061707622274,-287.7807504126912,-28.554060473638355,11.157732641300807,1.047148330318187,-0.570821449058654,166.2518,166.4955864947474,6.0,11.307713957578885,-0.18725204295889253,-0.9690120363683452,-8.578049606749255,15.670102581634382,1.5574729000000002e-19,2.440576011111558e-18,10.91732823538458,2.5878942964413865,-0.1912526654827388,-1.0036200762943353
7493,7493,3.967510000000175,0.0,2500.0,-2500.0,0.0,0.0,11.008040218888905,74.22089883370387,86.52730348470959,103.0,11.59595658791614,1.2928080868241676,1.3291919535801735,11.157041030077426,0.12417694066446346,-0.2810178478744593,-0.10133168489029333,0.0,-0.0037460878764725733,-0.024682441526260212,-0.08692360925190583,1.7633318931998747,2.502222298030742,-8.489031336585096,-286.7643846378148,-28.456737761209087,11.122178473193397,0.9744917141813452,-0.6532985678549131,166.2518,166.44314030971026,6.0,11.20200475143382,0.5760287598487027,-1.1045526737276383,-8.725515129209796,15.665823058503616,1.5574729000000002e-19,2.4399094869814497e-18,10.874641393641332,2.597688807801432,-0.2923765397126541,-1.5400882155613451
7494,7494,4.063310999999999,0.0,2500.0,-2500.0,0.0,0.0,10.90016421842085,72.77331064017321,86.45841584218185,103.0,11.067638364988367,1.293864723270023,1.3281353699661405,11.16232368398848,0.12759834001418488,-0.2726378304602496,-0.10043313198686936,0.002209776027200488,0.03653189342437087,-0.0664389002023354,-0.08472239857085441,1.8477005675959584,2.274005561807169,-8.946108168921286,-285.7474958808029,-28.36689458724156,11.093907599013525,0.8992669462972023,-0.7296357937393306,166.2518,166.38221520684382,6.0,11.093299040515845,0.6090793615562562,-0.8957412933023836,-8.657197134019935,15.6615292377264,1.5574729000000002e-19,2.439240736031653e-18,10.839540626513212,2.601766043193575,-0.4033189295631935,-2.1308852447634585
7495,7495,4.160219999999981,0.0,2500.0,-2500.0,0.0,0.0,10.897020231512773,72.73133661994477,86.38873146989219,103.0,11.0,1.294,1.3276189027901115,11.16757390912775,0.0941438371092264,-0.26334549252054285,-0.09598747358013636,0.007241032825454846,0.24050514886983,-0.05824501077201565,-0.053979902606711615,2.665098302139159,1.9660871096197807,-9.349301498327478,-284.71495783464536,-28.283904107106423,11.070059604072817,0.8305099532048087,-0.8233827656630416,166.2518,166.30836460650585,6.0,10.990607467995863,0.5348534743383094,-0.8732167807742341,-9.132587772576723,15.659863947687091,1.5574729000000002e-19,2.4389813716209662e-18,10.809987158488962,2.5952467757092785,-0.5421037686315852,-2.870887756158569
7496,7496,4.25774100000001,0.0,2500.0,-2500.0,0.0,0.0,10.877412439700636,72.46984481040622,86.30407858041674,103.0,11.0,1.294,1.3271797135610393,11.172843652902241,0.04608444749003546,-0.2547711030535357,-0.0852215208418793,0.012731503685359821,0.3261677551964033,-0.03156307792324193,-0.05252096745205104,4.36763543331428,1.7490703926623117,-9.664259834130313,-283.6781898209838,-28.207547878122696,11.054055232317207,0.780450617270126,-0.9108112008589966,166.2518,166.2242127878758,6.0,10.91632124196048,0.601861132856342,-0.9778299821173144,-9.201930637476828,15.661010261189555,1.5574729000000002e-19,2.439159906842465e-18,10.78894646408442,2.579539648473748,-0.6602124338778846,-3.5017576002668003
7497,7497,4.37759600000004,0.0,2500.0,-2500.0,0.0,0.0,10.880139924597179,72.50618499999997,86.19685195267138,103.0,11.0,1.2948057160997095,1.3265971822359504,11.074285487536315,0.03464025966391755,-0.2550672260583385,-0.07467454952573083,0.019208036482183333,0.0927599068055056,0.016152505182313773,-0.07998723744702485,5.746452580124973,1.7532203931424222,-10.18871618135492,-282.40200258737616,-28.1214232431752,11.053510598763397,0.7482640439323551,-0.9962433650185326,166.2518,166.10982552786948,6.0,10.84495874477132,0.6704890223780399,-1.143304481237276,-9.523810398698204,15.662419100360985,1.5574729000000002e-19,2.4393793297254613e-18,10.772289628936855,2.623687323970368,-0.7459815814660118,-3.9614111923527062
7498,7498,4.471393000000035,0.0,2500.0,-2500.0,0.0,0.0,10.700543155002396,70.13237118393369,86.09790630056112,103.0,11.0,1.2957509788014532,1.3261245981482137,10.956127649818372,0.060418871508874226,-0.2512438338173708,-0.07245802999439632,0.023421754773885042,0.03385527023132736,-0.0018078783817210566,-0.0660896010747762,5.859822415247122,1.8554077369865365,-10.601339554158553,-281.4009475745566,-28.056303913514448,11.069322700552197,0.7284747913687623,-1.018711179719668,166.2518,166.01036197125455,6.0,10.79559053378577,0.8326533011630118,-0.9763394658729108,-9.902894038385536,15.659964020384828,1.5574729000000002e-19,2.438996957672442e-18,10.773709303623543,2.682640610078958,-0.7558555081182434,-4.013147620478483
7499,7499,4.567584000000011,0.0,2500.0,-2500.0,0.0,0.0,10.470340094101305,67.14715859196728,85.99643523835087,103.0,11.348951646366556,1.2977447931269974,1.3253021967072671,11.007003985847788,0.07237412299746099,-0.23329026023922605,-0.06942906157994917,0.028395302572769412,0.1186713261535648,-0.081859987406534,-0.04477290126025496,6.162117787684523,1.5928465293155727,-10.94850760338177,-280.37242188552585,-27.98927493458869,11.095526340056312,0.7015735936960273,-1.0188339186937356,166.2518,165.90816103141677,6.0,10.704671577158694,0.806067109044623,-1.064728515184424,-9.815491259361288,15.65524493988631,1.5574729000000002e-19,2.4382619736735057e-18,10.784483486257598,2.7178450672033883,-0.7929050015592233,-4.204977988295808
7500,7500,4.67929300000003,0.0,2500.0,-2500.0,0.0,0.0,10.351175539030338,65.62743918569839,85.88295291786531,103.0,11.894285923503075,1.3004715190461078,1.324211528152994,11.135158086309149,0.05960174184095885,-0.22213685451886825,-0.06647757235719552,0.03510420214068199,0.09840487988924823,-0.039873596554195714,-0.0003790133318576808,6.804353845703123,1.2300440433224558,-11.148528369552174,-279.17558068344374,-27.914211489512812,11.128034776483057,0.6661053684943906,-1.0476162742595845,166.2518,165.78976742411362,6.0,10.576181246286977,0.7809943615949911,-1.1921409696161651,-9.335573735082118,15.649764554367822,1.5574729000000002e-19,2.4374084184808458e-18,10.809249525971351,2.7078768728023337,-0.8702375886056037,-4.602875628603496
7501,7501,4.773900000000026,0.0,2500.0,-2500.0,0.0,0.0,10.384565030165533,66.05150692756911,85.78692230081712,103.0,11.24464692482943,1.3017554530751705,1.3224893560820052,11.14413858542142,0.04897208231457178,-0.21653992536262867,-0.0659550733491451,0.040642191357006835,0.07581915871576217,-0.011288050281702615,0.025069468568796136,7.27372687143292,1.0647346294982816,-11.113332602096387,-278.15670042863997,-27.857062656728054,11.1555268664287,0.6396223724038633,-1.0923930425610415,166.2518,165.6885264301684,6.0,10.484157913797368,0.5510370241939304,-1.2148767871229376,-9.339354907647131,15.651291155772624,1.5574729000000002e-19,2.437646182512554e-18,10.841479397619134,2.6645589763843307,-0.9355373102225356,-4.931972935376621
7502,7502,4.868893000000185,0.0,2500.0,-2500.0,0.0,0.0,10.316240570267738,65.18523795305329,85.69306995978873,103.0,10.261078898322618,1.3027390211016774,1.3205221708505903,11.123483656864774,0.051836881348124884,-0.2163921512400458,-0.06512875056313958,0.045465789826509284,-0.00360138673456234,0.017735891050561083,0.034456049900302294,7.424581780586205,1.0766845298220178,-10.950495288312744,-277.1302943819163,-27.80465087219847,11.18586132593945,0.6176992111676249,-1.1274163006853273,166.2518,165.5892841658746,6.0,10.414153566905071,0.5529869166080141,-1.1937757608245785,-9.492686764813492,15.65650935767628,1.5574729000000002e-19,2.438458903317721e-18,10.884113487207449,2.6115658007387617,-0.9666445417673224,-5.075261268427476
7503,7503,4.9893520000000535,0.0,2500.0,-2500.0,0.0,0.0,10.300286433381087,64.98374883237821,85.57209463954177,103.0,10.49098135442057,1.305455006772103,1.32,11.085596230608239,0.0640944729597624,-0.21682287022962934,-0.06897458339475973,0.0504283165810917,-0.00438496342353906,0.01661938031682671,0.07261251586531564,7.140460972730335,1.1934969968311573,-10.606945486737802,-275.82363432909233,-27.74127340644501,11.224538508281334,0.5922546998079629,-1.1355671885081584,166.2518,165.4684902839686,6.0,10.330122398657801,0.7273189872507813,-1.3624074390310652,-9.791817334060692,15.66312647033839,1.5574729000000002e-19,2.43948950068247e-18,10.945011489860043,2.5348263492308654,-0.9559106944664076,-4.991408559938009
7504,7504,5.085014000000001,0.0,2500.0,-2500.0,0.0,0.0,10.325906529673778,65.30743077884722,85.46470997381344,103.0,10.984117492408949,1.3079206874620448,1.32,11.053049245501008,0.037695467635880484,-0.20676632264224148,-0.06739033448192708,0.054837845483135035,0.21327041014675585,-0.00920883456221673,0.1148495697015495,7.839167145381049,1.1616338713152052,-10.094742986339428,-274.7805488523802,-27.689682255810226,11.23235765058503,0.5815462586087514,-1.2175771374098383,166.2518,165.37025535644702,6.0,10.283874395114164,-0.025496051912192952,-1.0601550767129029,-7.456629851713372,15.665893268901653,1.5574729000000002e-19,2.439920422060674e-18,10.978973296871429,2.405049489040201,-1.0374250227674822,-5.397964568693474
7505,7505,5.181018999999992,0.0,2500.0,-2500.0,0.0,0.0,10.506187173420283,67.60774688017179,85.35588935651238,102.54891919049759,11.0,1.310255504047512,1.3190978834890763,10.844954457357593,0.028949371807158106,-0.21047560399412032,-0.06478424835325472,0.06084195209378385,0.04717585007892945,0.06947629994946536,0.09107050588232034,8.495795578165852,1.172018262182117,-9.543588432099034,-273.7356075636771,-27.633737606569373,11.220242423434502,0.5837095748668809,-1.3844120086341896,166.2518,165.2543237957226,6.0,10.2701292326604,0.08802258295580494,-1.0219026900344663,-7.745919313156067,15.667777608689711,1.5574729000000002e-19,2.440213902876103e-18,10.99419603950524,2.264071866569438,-1.1968758610664605,-6.212999793450201
7506,7506,5.277933000000189,0.0,2500.0,-2500.0,0.0,0.0,10.661418726990103,69.62035786354015,85.20640857226459,102.07846973102332,11.0,1.3126077513448833,1.3181570316150737,10.629017685009444,0.02781342675864975,-0.2264809972929619,-0.06415856804064766,0.06683304437465483,0.0710641417640116,0.16305714864872853,0.09406159056178716,8.872635281450377,1.7987651842485983,-8.95662447791328,-272.6868319546466,-27.57274282457315,11.207860198349712,0.5981562604098156,-1.509108733642846,166.2518,165.1203351077413,6.0,10.306545677523985,0.3317675795888957,-1.073700693128362,-8.709893239097179,15.669679789890898,1.5574729000000002e-19,2.4405101624432768e-18,11.020032178579877,2.155127897111384,-1.2231641176004502,-6.333597753468844
7507,7507,5.375073000000043,0.0,2500.0,-2500.0,0.0,0.0,10.827325340707924,71.8039905973446,85.05657920414636,102.0,11.402744481691705,1.3150138224084589,1.3180001,10.771415805389426,0.010210659890714298,-0.2366331447676473,-0.06176427793702403,0.07170159588481867,0.14220698110819904,0.1454168554511425,0.11245204611194344,9.557897016614671,2.5926969904676733,-8.221575073184093,-271.645257853699,-27.505077800104022,11.192279079852359,0.636638754191177,-1.554347104211178,166.2518,164.96732085273715,6.0,10.382070660664443,0.6111596649704213,-1.0456252905958512,-9.31898552619966,15.671310710285704,1.5574729000000002e-19,2.4407641738749737e-18,11.045275336173889,2.0530190837556783,-1.1420345713804243,-5.90316367899101
7508,7508,5.4949220000002015,0.0,2500.0,-2500.0,0.0,0.0,10.938347731958798,73.2840778092788,84.8647663737394,102.0,11.998836156731004,1.317994280783655,1.3180001,11.035484417431837,-0.020507885928200825,-0.2306948638656513,-0.055917536460523616,0.07598533183169383,0.1296831484203538,0.06765616540222143,0.10214463579656337,10.691001572018736,3.2159637947296518,-7.363523285813729,-270.36618147103184,-27.413281347118602,11.17556398217017,0.7167963741463234,-1.5289239995285009,166.2518,164.7727184165621,6.0,10.509223282308689,0.5379158520600535,-1.0883631177804058,-9.71743821101459,15.673117333378643,1.5574729000000002e-19,2.4410455505257503e-18,11.059993369431462,1.971020707375761,-1.0143331670801758,-5.240046967530215
7509,7509,5.590503000000012,0.0,2500.0,-2500.0,0.0,0.0,11.020601247787564,74.39036654867195,84.71235134975323,102.0,11.52382688427686,1.3203809655786158,1.319904744845581,11.049809496529086,-0.01187865881621262,-0.2282761047385652,-0.05519533371492781,0.07715686485944982,-0.04886159842912045,0.07300990946347294,0.0787688541255594,10.899297438393779,3.4857188305155096,-6.8515993052613045,-269.3422627043649,-27.33615507501626,11.164979729383534,0.7869432672006296,-1.4999242665456785,166.2518,164.61984125000012,6.0,10.616803249999917,0.4014609921881312,-1.2678805274190863,-10.305473475397418,15.674558136738256,1.5574729000000002e-19,2.4412699517444327e-18,11.062224664273801,1.9526483254478058,-0.942412317548514,-4.8693808876133415
7510,7510,5.686819000000014,0.0,2500.0,-2500.0,0.0,0.0,11.080609504430807,75.20269529652347,84.57024887286039,102.0,11.042814478915224,1.3227860276054242,1.3218287463657872,11.063759337296979,0.020673755029021437,-0.23065705585169305,-0.06127331375752375,0.07728196514038152,-0.2987898017326967,0.062482518347245386,0.06228802764085066,9.9440688399599,3.8083655980677094,-6.391650321924906,-268.3111295489701,-27.252535029646296,11.15808614352143,0.8510902442825717,-1.4434121217313094,166.2518,164.47119553861842,6.0,10.728247390874301,0.5931714055754207,-1.1923061564658468,-10.442742864492397,15.6665009056212,1.5574729000000002e-19,2.440015059833048e-18,11.065576039201472,1.9607441824280316,-0.838024093152451,-4.330887275666344
7511,7511,5.782880000000205,0.0,2500.0,-2500.0,0.0,0.0,11.089418694596162,75.32232465921473,84.42852261727654,102.0,11.434239653751966,1.32517129826876,1.3219999999999998,11.202654970239372,0.07213756089146306,-0.2217772101091535,-0.0729949357378234,0.07649071868447589,-0.4226200255501434,-0.012395131159952107,0.04752752246743207,7.92538346771504,3.9275247587203377,-6.094682981270977,-267.27800564692944,-27.163546074375216,11.157668878697086,0.8900509568739303,-1.356407156450976,166.2518,164.33304705395642,6.0,10.834151434108954,0.8245784437248894,-1.1773308909375186,-10.696645123940188,15.655020011235724,1.5574729000000002e-19,2.438226941645733e-18,11.067177863322003,1.982090497037338,-0.7358051879085741,-3.8037319676527566
7512,7512,5.879058999999984,0.0,2500.0,-2500.0,0.0,0.0,11.075105809304809,75.12801660675771,84.30918699792663,102.0,11.911616387225822,1.3275581819361293,1.3219999999999998,11.353983394750585,0.1195839453673741,-0.19462197094794645,-0.08662155257505914,0.07540357946101972,-0.3253652548526456,-0.1355338969533053,0.05036191071874155,5.77451418007717,3.4594348736752187,-5.918057697742508,-266.2378257564753,-27.075120570356077,11.162700590064091,0.8924023159861192,-1.2786535682254987,166.2518,164.2078150591997,6.0,10.921991310136354,0.8360511662240949,-1.1827365958415266,-10.309961417200183,15.643525013878849,1.5574729000000002e-19,2.4364366269588437e-18,11.068286872776651,1.973308777989789,-0.7317948403148935,-3.78268296017678
7513,7513,5.998992000000044,0.0,2500.0,-2500.0,0.0,0.0,10.90277578553085,72.80820835163361,84.16206976834928,102.0,12.0,1.330239489667403,1.3231197788129136,11.298581649405467,0.1634215766848955,-0.15545398643888442,-0.0977390774736447,0.075613674342054,-0.15931333882627752,-0.14148053382682035,0.052791224419255864,4.132660172727854,2.3876739977384447,-5.6539946481592045,-264.92647419776193,-26.979683779638762,11.177601162741547,0.8537284165270818,-1.2595200172037655,166.2518,164.06255997552324,6.0,10.981089405215046,0.5556493076244768,-0.9237049555914988,-9.606331993691764,15.628649460006162,1.5574729000000002e-19,2.434119799755924e-18,11.082000663414307,1.8915601332829792,-0.8777247067782127,-4.52852868254326
7514,7514,6.092216000000008,0.0,2500.0,-2500.0,0.0,0.0,10.769851911764817,71.04374602941323,84.04847204201644,102.05938189946785,12.0,1.3323562913968072,1.3241188637989358,11.229734936147368,0.1834706565922107,-0.14027317597955405,-0.10035428390916204,0.07718962558788804,-0.06298205975822663,-0.06854956422403033,0.03218395640663254,3.512562191203821,1.8280250619767409,-5.4705521589417225,-263.90185153409493,-26.912792102769753,11.19230000559831,0.8097150699176487,-1.2953029324202088,166.2518,163.95095018239857,6.0,10.97869649703603,0.41288419973076457,-1.0392008699559112,-9.30434854408983,15.616897899276882,1.5574729000000002e-19,2.4322895260190673e-18,11.099818166807383,1.8143865843157403,-0.9996820145915356,-5.146340514531452
7515,7515,6.188103000000183,0.0,2500.0,-2500.0,0.0,0.0,10.560925994368356,68.31407386966876,83.93162932785602,102.49951115619609,12.0,1.334997066937177,1.3249991223123925,11.205527386898057,0.17681696087920734,-0.1343094878562962,-0.0986951170015994,0.08066421242409959,0.02737181553261249,0.007194830257151182,0.017873246886333048,3.4560189772388155,1.6709487505328653,-5.341311666652831,-262.84757429251795,-26.849727336675638,11.204174919263403,0.7629385901889544,-1.3708173776841828,166.2518,163.8309194463875,6.0,10.928569537123993,0.5498206876832246,-0.8670746615309746,-8.857459848639296,15.60481064810068,1.5574729000000002e-19,2.430406969404825e-18,11.119762583334916,1.7387225506305954,-1.0976755327628225,-5.637627415313674
7516,7516,6.284491000000003,0.0,2500.0,-2500.0,0.0,0.0,10.38230256569407,66.02277698506575,83.7978228842562,102.94194004434013,12.0,1.337651640266041,1.3258839800886804,11.181193355621247,0.14927434860003935,-0.13833667877014424,-0.09234456682754844,0.08552893231421098,0.13117602567345252,0.06334092577506505,-0.021215153861683062,3.8610340766907383,1.874904056174166,-5.371190857510422,-261.7824001275573,-26.789787753683786,11.216220327468651,0.7245357915328947,-1.4509289020232792,166.2518,163.70287099465463,6.0,10.831906739521477,0.5799204869452299,-0.7956296702343162,-8.906811679921512,15.604536981158876,1.5574729000000002e-19,2.4303643465202767e-18,11.140678150100024,1.6971348061511784,-1.1425011904264744,-5.8553394125490525
7517,7517,6.404581000000007,0.0,2500.0,-2500.0,0.0,0.0,10.129396016662373,62.845365810390255,83.62947697805778,103.0,12.0,1.3418380205861484,1.3265483338262989,11.233925991115386,0.10525937701573047,-0.143808409692638,-0.07837323399732432,0.09326019614674774,0.2193449774269657,0.07238713264801848,-0.05339017493498692,5.289592508207671,2.3942234086372856,-5.5759719015775735,-260.4545707181458,-26.71608562027141,11.242510248769063,0.7038401665065451,-1.48800032634202,166.2518,163.53287672440632,6.0,10.655861766154553,0.5847585795902813,-0.7963454177409607,-9.95652579990332,15.610785444757164,1.5574729000000002e-19,2.4313375277923737e-18,11.173377394475878,1.6970995660011812,-1.0926708812693056,-5.585329541904273
7518,7518,6.502410000000054,0.0,2500.0,-2500.0,0.0,0.0,10.098032484127,62.45679763492082,83.48763544099566,103.0,11.953803188586864,1.345461968114131,1.3270923982425074,11.282911352922216,0.08684186867935523,-0.1451894570999803,-0.0676256675509351,0.10045671420820358,0.17907964553396666,0.04356527681031371,-0.08718568928117931,6.331269015294106,2.762919782693813,-5.954426165046014,-259.3674175524754,-26.65914773812085,11.273957895769275,0.7043370131496054,-1.4666901710594966,166.2518,163.39267577497304,6.0,10.503585963675533,0.867224827763893,-0.9580258341677048,-9.989241236676108,15.615875634992467,1.5574729000000002e-19,2.4321303111271057e-18,11.19781525063872,1.765557388800313,-1.0124802263448238,-5.166501419305884
7519,7519,6.596557000000189,0.0,2500.0,-2500.0,0.0,0.0,9.97072738107416,60.891958363171256,83.35113240825706,103.0,11.486790281456587,1.350132097185434,1.328026470758059,11.312332699058516,0.09421486350596542,-0.1379075433344657,-0.0582248730944011,0.10613965148373193,0.07409878392370556,0.0105350503681421,-0.13230922402948078,6.955956313023036,2.9852620952672977,-6.543406518133883,-258.3154483884526,-26.60732483057734,11.313473016976312,0.7098469006892641,-1.4190055905629217,166.2518,163.25670052591062,6.0,10.365979357054817,1.0625683628484266,-1.0260942599462577,-9.807481357230197,15.616577170074768,1.5574729000000002e-19,2.4322395733150142e-18,11.217641155335093,1.8905161613678552,-0.9336522967084906,-4.757802606585527
7520,7520,6.6921350000000075,0.0,2500.0,-2500.0,0.0,0.0,9.807274259116642,58.91186058633441,83.2268465908768,103.0,11.012678948778369,1.3548732105122163,1.3289747408345485,11.342201238905911,0.11502726977628605,-0.12209378196617178,-0.055404923306952736,0.11129731187491068,-0.11121032447237447,-0.06640774578978463,-0.17374254132633069,6.6984091730215605,2.932236142032476,-7.435447870230597,-257.2395376951964,-26.554374029105354,11.36453278841738,0.7126076865746793,-1.3546951591238872,166.2518,163.12338907299312,6.0,10.213299381679443,0.9381191555931141,-1.1278151819570668,-9.93616735276474,15.61646468910882,1.5574729000000002e-19,2.4322220547093917e-18,11.231419667297974,2.083320002470395,-0.8872229665573876,-4.5166852704705045
7521,7521,6.812776999999983,0.0,2500.0,-2500.0,0.0,0.0,9.728364904879994,57.96766431491779,83.07233226424084,103.0,11.0,1.3609830064498456,1.3307949421048892,11.375308234829163,0.13434030576718722,-0.08767684581725711,-0.06266638964499205,0.11654095353048645,-0.04080954544993195,-0.13483949149965607,-0.1275510501695531,6.010067409749367,2.3071565562791467,-8.564550347929583,-255.87288928323673,-26.48917369106808,11.431560005913866,0.6916627912754444,-1.3156736317556361,166.2518,162.96826874702145,6.0,10.02349960161841,1.0719046656657252,-1.184902023044648,-9.764532156120914,15.61632271157535,1.5574729000000002e-19,2.432199942093313e-18,11.244963160647647,2.2940128995089606,-0.9550100259794128,-4.85435603328883
7522,7522,6.901358000000187,0.0,2500.0,-2500.0,0.0,0.0,9.715436896659703,57.81369872233815,82.97439420299196,103.0,10.95356502544456,1.3654179194144964,1.3320464396180527,11.408237310277393,0.13593718623097065,-0.07029518913810212,-0.06561562931708473,0.12122425782309253,0.05292866648002571,-0.09020755665031256,-0.11525761714344755,5.88765902129605,1.7832141971101219,-9.238255940532186,-254.8618463093133,-26.44292932500375,11.483882725053684,0.6644711690786502,-1.2999860602227196,166.2518,162.86291644454425,6.0,9.907340665318909,0.8427677888587893,-1.0038426352450034,-10.690494890233538,15.6157886288619,1.5574729000000002e-19,2.4321167601580566e-18,11.263269543511706,2.4008226234185552,-1.0227239285950382,-5.188325765808113
7523,7523,7.017823000000021,0.0,2500.0,-2500.0,0.0,0.0,9.732717915951497,58.01962232534022,82.84638931787846,103.0,10.371929263822386,1.3706526994326722,1.3326281335432513,11.548993746225715,0.12352328798979567,-0.05888498159924219,-0.06583044754005526,0.12552818848251338,0.11050378661905193,-0.028530933102211886,-0.1022206284943766,6.284498032445416,1.4594719371274123,-10.014164491435613,-253.52518900567523,-26.38628694173128,11.552579976340814,0.6276901305874875,-1.2622443648229569,166.2518,162.73934751724138,6.0,9.790602404797593,0.7693793632783977,-1.2464993940279825,-9.141153290094463,15.615047536176279,1.5574729000000002e-19,2.432001336980633e-18,11.295917884423265,2.5194589946995136,-1.0359070264961432,-5.239728926023405
7524,7524,7.113775000000032,0.0,2500.0,-2500.0,0.0,0.0,10.093852723793432,62.40537487654087,82.74538266804315,103.0,10.106433165839087,1.3746386989950343,1.3331065331658392,11.675507469449641,0.11356837917368945,-0.07486178224498873,-0.06639484159527022,0.12815150191600566,0.12293510252935268,0.0697576052887321,-0.1097927296264086,6.973957317199424,1.6115623155753005,-10.576865013784198,-252.41367156915683,-26.34025045440001,11.592013754795175,0.6107397670303634,-1.2500404883450635,166.2518,162.64066555910543,6.0,9.766224268370607,0.6724539340183027,-1.04967408995151,-10.025876026668634,15.614436972269779,1.5574729000000002e-19,2.431906243306824e-18,11.313648649633286,2.6138597315648067,-1.002058386427672,-5.061522434799199
7525,7525,7.20970299999999,0.0,2500.0,-2500.0,0.0,0.0,10.469934729253175,67.14217390268682,82.64381004618372,103.0,10.581799621403231,1.3774908977284193,1.3335818996214033,11.838557688341687,0.1437843833362464,-0.11232239461044792,-0.06516755263151956,0.12834115535938426,-0.13599918021339352,0.18283845408556532,-0.20152078425131714,6.973391409712247,2.5301179278785484,-11.32841779521507,-251.2962081845459,-26.29519046622273,11.625289973102136,0.5906587405367766,-1.2195623278557992,166.2518,162.54568225740402,6.0,9.853440508465178,1.0004489512968413,-1.379498635760954,-10.049037686905914,15.618210183427534,1.5574729000000002e-19,2.4324939107192413e-18,11.325612027723755,2.772494536940218,-0.8413464262311172,-4.248531240092238
7526,7526,7.308026000000041,0.0,2500.0,-2500.0,0.0,0.0,10.75353914267246,70.82866125616465,82.53101972838874,103.0,11.0,1.380139406517337,1.3339304467413315,11.967442538591573,0.17230990130434448,-0.12929487884403612,-0.07360091007874055,0.1267883177789113,-0.17726841532749266,0.09835611198860963,-0.19784466246221274,5.8003800060407915,3.520623755595901,-12.440796860344822,-250.14522454856004,-26.25311835609761,11.640426840210562,0.5391505731710114,-1.1926060402365333,166.2518,162.4466724895147,6.0,10.023702340623137,0.6900531779800327,-1.5423351864583674,-9.611710566480511,15.622350664884825,1.5574729000000002e-19,2.43313877948551e-18,11.302951993944307,2.9779931389425265,-0.6832251875931243,-3.4591270443039623
7527,7527,7.426149000000009,0.0,2500.0,-2500.0,0.0,0.0,10.782372402527669,71.20898041390231,82.39669601094626,103.0,11.0,1.381320606987325,1.3333398465063375,11.84400768007802,0.18076619228784,-0.12792896360405265,-0.08211873204971745,0.12574242779647204,-0.011269593045883479,0.05206277290205821,-0.1199524263858152,5.207478858068506,3.9464960414089263,-13.44421434953399,-248.75317015994068,-26.216998759800333,11.641024433946296,0.4481089137623081,-1.2110001952094718,166.2518,162.31357297232734,6.0,10.240002710929652,0.7104209345793503,-1.792538118648958,-9.696880660569699,15.627298064777813,1.5574729000000002e-19,2.4339093236113886e-18,11.27458462481967,3.0953207358020705,-0.6505341757867806,-3.3022575554789158
7528,7528,7.521906000000058,0.0,2500.0,-2500.0,0.0,0.0,10.689618780174472,69.98915298685527,82.29287967696422,103.0,11.0,1.3822700729599842,1.3327301270400158,11.781235175279514,0.16531255895181055,-0.12970475366237552,-0.08314620735065646,0.126084577146455,0.13111472327257925,0.06822323397938898,-0.061083511396146324,5.510649669604058,4.307583116822818,-13.895289271051624,-247.624735973698,-26.19305036739112,11.64844281274117,0.3848684055374054,-1.1997479459642189,166.2518,162.2021954061471,6.0,10.372754660762423,1.0169671714727446,-1.3628485727880986,-9.805705380179235,15.63095274968079,1.5574729000000002e-19,2.4344785308808315e-18,11.273573386605847,3.1280081793245667,-0.5905188017717089,-2.9984584780218615
7529,7529,7.615028999999936,0.0,2500.0,-2500.0,0.0,0.0,10.416954829511155,66.46429942668154,82.19246774406147,103.0,11.0,1.3831742192576375,1.3318259807423622,11.808811637357948,0.1588406066710449,-0.13233925858298773,-0.0772049352726479,0.12703149982581224,0.0670557404741367,0.08397618146882843,-0.05833096606467075,5.9869760073691864,4.769489745034151,-14.180586705284787,-246.52832272647183,-26.17248688236059,11.66365212274329,0.33617705990241376,-1.1165224172130392,166.2518,162.10232408388734,6.0,10.431356628405744,1.0081079480420243,-1.1091251415249148,-11.28478749656332,15.634506904700473,1.5574729000000002e-19,2.4350320808933867e-18,11.279849391487579,3.153562280776592,-0.4429585275327424,-2.2488438547604965
7530,7530,7.727777999999944,0.0,2500.0,-2500.0,0.0,0.0,10.256562798632457,64.4332206454698,82.10015997201877,103.0,11.0,1.384441897379885,1.3308528194801257,11.820158015430264,0.18489828614626527,-0.12813452981294668,-0.06985400546315287,0.1284550531569603,-0.2376564574528117,0.026599399801405316,-0.15480884568310055,5.946597679972098,5.128657013227951,-14.748310172348079,-245.1983518804419,-26.14974128224892,11.701901407381074,0.28790637131666835,-0.8751751698548346,166.2518,162.00316578947366,6.0,10.415609578947358,1.819510385539988,-1.5003873414865343,-12.138251787159676,15.637597324550988,1.5574729000000002e-19,2.4355134054100672e-18,11.27629298804706,3.2581906556754463,-0.15853154633649247,-0.8054588659620421
7531,7531,7.823358999999982,0.0,2500.0,-2500.0,0.0,0.0,10.401796794057452,66.27092513996881,82.02695040226311,103.0,11.0,1.3859670693149715,1.3303443779960324,11.772369294797555,0.225695501577258,-0.0987495739306474,-0.08426661985672645,0.12727542801493885,-0.2363129630641223,-0.1405392719680313,-0.09520750511934467,4.448525461480264,4.7970064034170825,-15.50352310330285,-244.06753490849675,-26.132381958888363,11.746278493399725,0.23553534406908466,-0.6101101541812493,166.2518,161.94518137927594,6.0,10.415140451985,1.6340969824553226,-1.5681178174868882,-11.542002618294365,15.624493950549345,1.5574729000000002e-19,2.4334725904194547e-18,11.26751462232659,3.3807775388157166,0.05076353647207277,0.2581329434078393
7532,7532,7.919809999999984,0.0,2500.0,-2500.0,0.0,0.0,10.59516559985225,68.75774815710412,81.9953771233656,103.0,10.844549019608037,1.38762188837647,1.3293782116235302,11.769070333333294,0.2767330449575412,-0.052461239218065454,-0.09735340247153804,0.12440716777646768,-0.2763643494815632,-0.24884544854287244,-0.07829851926576638,2.9595482048771764,3.619456749510955,-16.067517879506212,-242.92219802266172,-26.114522916150452,11.781155274509395,0.1557790584761441,-0.4042921404181381,166.2518,161.90883353641664,6.0,10.468635248394056,1.0940335569526023,-1.3683003988350797,-10.460075815832177,15.611271306657427,1.5574729000000002e-19,2.431413199466653e-18,11.280851200183456,3.4194876371075806,0.0927711514084058,0.4711768216172
7533,7533,8.015176999999994,0.0,2500.0,-2500.0,0.0,0.0,10.710038750317986,70.2567685127216,81.96415869236313,103.0,10.377063725490487,1.3894917828044109,1.3275083171955897,11.856490083333275,0.2981650810740138,-0.02127729735765829,-0.10680499752328576,0.12129647498512106,-0.06248495511741412,-0.1839534124823635,-0.039953374319275266,1.732444526273185,2.290601360859585,-16.43944300564903,-241.7869127804425,-26.09744063815549,11.813375425761135,0.0455484614620817,-0.2734051719260532,166.2518,161.88680408377883,6.0,10.5503016917869,1.3068439115882695,-1.562383728454516,-10.060445679328511,15.598197270306935,1.5574729000000002e-19,2.429376953735703e-18,11.319431331728005,3.3896027354562515,0.04370288888394547,0.2212106395212364
7534,7534,8.136011999999937,0.0,2500.0,-2500.0,0.0,0.0,10.69119413553744,70.00975260419919,81.96636953737266,103.0,10.220602419322393,1.391,1.324897087903388,11.962517768908484,0.2912286378862845,-0.014616934546104925,-0.1090918295945478,0.11616705355475165,0.12795103040679404,0.005632866385941964,-0.0027452268561687343,1.9931612297006371,1.7313152199771522,-16.586170604982033,-240.3412668946653,-26.092470745567798,11.872848164270888,-0.12136746905810795,-0.10097880196662656,166.2518,161.8818106022835,6.0,10.658717423393336,0.8402070728179181,-1.5296273044332365,-11.669954639912715,15.588733833136065,1.5574729000000002e-19,2.427903049042255e-18,11.411322527765709,3.2798594012277538,0.1448683828398029,0.7273390995130637
