,Unnamed: 0,timestamp,thrustinput,Position state,Position state2,PA-ON,PA-ON2,Airspeed[m/s],Differential Pressure[Pa],GPS Altitude[m],GPS Noise Magitude/ms,GPS Satellite Num.,Horizontal accuracy[m],Vertical accuracy[m],Groundspeed[m/s],Roll control,Pitch control,Yaw control,Thrust control,Roll Angular Rate[deg/s],Pitch Angular Rate[deg/s],Yaw Angular Rate[deg/s],Roll angle[deg],Pitch angle[deg],Yaw angle[deg],Local X[m],Local Y[m],X-velocity[m/s],Y-Velocity[m/s],Z-Velocity[m/s],altitude set position,altitude(Tecs),airspeed set position,airspeed(Tecs),X-acceleration[m/s^2],Y-acceleration[m/s^2],Z-acceleration[m/s^2],Battery Voltage[V],Battery Current[A],Inst. power[Ws],Body_Uvelocity[m/s],Body_Vvelocity[m/s],Body_Wvelocity[m/s],A.O.A.[deg]
8517,8517,0.0,0.0,2500.0,-2500.0,0.0,0.0,9.737076742439788,58.071525590722885,88.00672306854891,104.0,11.44498506276747,1.2466650448116976,1.4380001,8.238634418288916,-0.3014679021131279,0.07211794265089785,-0.1101033325613928,0.4413904176476663,-0.35227508775729155,0.20951073523579444,0.2214206748567178,3.4444722393790657,12.055120287488966,11.317512438080795,-154.55476403337133,42.72449265471549,8.384697776767437,0.2554229310686044,0.4878218043702535,166.2518,167.96235689243025,6.309549145819339,9.378600827091505,6.220868232482943,-0.839037762685086,-2.4666156070536127,15.030331378305034,1.5574729000000002e-19,2.3409333799729742e-18,7.987481337673023,-1.2317843990935786,2.4920147957255416,17.327402868228862
8518,8518,0.09644900000012058,0.0,2500.0,-2500.0,0.0,0.0,9.62491914611724,56.741426761954564,88.02402115403282,104.0,11.0,1.2481011852534851,1.43805068756748,8.34445302856785,-0.2953435234558851,0.06430848384702371,-0.11780768576714686,0.4219101122819549,-0.5689737476071799,0.35587677675128393,0.20904809023452786,2.021643491253134,13.068743749349403,12.620470414761211,-153.76482292448705,42.76305672241519,8.323815998277862,0.3701590663392091,0.5482729020729172,166.2518,167.9766153353659,6.0107660643742005,9.443944965613813,3.300119231868273,-0.9943357752318436,-5.73640104470278,15.041220029540712,1.5574729000000002e-19,2.3426292578946863e-18,7.867126542804399,-1.3354424424686415,2.7171413937794378,19.053844590998864
8519,8519,0.1947659999999587,0.0,2500.0,-2500.0,0.0,0.0,9.441359894879175,54.597879149757844,88.05572780201038,104.0,11.0,1.249075928597277,1.4385380105022088,8.223584853937655,-0.10686600251514283,0.014129670611700826,-0.13357521271058376,0.4187373764299788,-0.4763030388592417,0.3144337762191526,0.19955232082214025,0.17955026485975698,14.603835954789544,13.862341308164186,-152.96370283081302,42.81097975206009,8.245465935297393,0.459739216272968,0.6531153903390404,166.2518,167.9973596035509,6.0000868156965605,9.459280856955498,-0.9045171231253804,0.8182278266765566,-16.59991867538685,15.05231956943782,1.5574729000000002e-19,2.344357981153908e-18,7.688594208003021,-1.471384864798377,3.063744842243681,21.726253200972423
8520,8520,0.31412700000009863,0.0,2500.0,-2500.0,0.0,0.0,9.220718453085643,52.07579828356882,88.12731232097076,104.0,11.131799078842775,1.2498682141010649,1.4391317990788428,8.077500072876209,-0.031007498709423056,-0.03884483505011119,-0.14074828844770415,0.4172888063525457,-0.16801964425186627,0.12492132288824505,0.1815048495506565,-1.3421142066720633,16.264969480631564,15.155618497231247,-152.00688448072412,42.872527280495596,8.125798334916357,0.5216906908953226,0.8033987884858715,166.2518,168.05853573279109,6.0,9.383597790179198,0.19597562827215187,1.7580336348057108,-16.71871749645156,15.065564931478875,1.5574729000000002e-19,2.3464209103968707e-18,7.435184616713131,-1.6264137789305892,3.4593103983357216,24.9507788264332
8521,8521,0.4081750000000284,0.0,2500.0,-2500.0,0.0,0.0,9.051111005655526,50.17762771277633,88.20183086614594,104.0,11.605721455710983,1.2493943391164346,1.4396057214557108,7.964232814373657,-0.05000794835483298,-0.061742523151628176,-0.13660308778574018,0.4171298181462533,0.1830558685574172,0.04587250326762125,0.09539426243902753,-1.2475437042848132,17.094820192123674,15.821400264319026,-151.26804513235413,42.92046234522026,7.9965722314172885,0.5454730712966148,0.9059780738243296,166.2518,168.1322035243281,6.0,9.271265024877632,2.08474691186182,2.6556547000270925,-13.227569904790142,15.075849522075774,1.5574729000000002e-19,2.348022707511097e-18,7.2295554961626545,-1.6512831742158505,3.657092878002164,26.832707771696967
8522,8522,0.502306999999746,0.0,2500.0,-2500.0,0.0,0.0,8.948207694376283,49.04314205441582,88.29598548060652,104.0,12.0,1.2488404067429166,1.4401596932570833,7.825925053060369,-0.08066953176041128,-0.07274815148879417,-0.12498557288833392,0.4166968866738897,0.17862480248652338,0.009464742651880052,0.010835145173613578,-0.4763223981826821,17.49018323355979,16.037911433911702,-150.5414252240509,42.965764005676355,7.8663737935687985,0.5773561682736669,0.9807340031355124,166.2518,168.2205544134021,6.0,9.139237955717896,5.098901968934572,0.9428769423117512,-5.124289444318858,15.086143298467274,1.5574729000000002e-19,2.349625935287939e-18,7.068069084451668,-1.5706279262130725,3.7417755577565734,27.896363256839837
8523,8523,0.6217840000000479,0.0,2500.0,-2500.0,0.0,0.0,8.6484816270256,45.81274785916254,88.42660649168225,104.0,12.0,1.2476395966682396,1.4413605033317602,7.494501412409012,-0.10728428292386556,-0.08345068768498914,-0.10843388280711597,0.4157338506274371,0.10294649044504624,-0.06372393401348349,-0.057949746300532665,0.2755865195117079,17.601372138638624,15.739109785890605,-149.64164962669517,43.018801793062075,7.703619957027912,0.6240185951506572,1.048177819181391,166.2518,168.35412180363042,6.0,8.935595931833625,4.902517955663235,2.02342103299308,-8.163237754538468,15.096026238607195,1.5574729000000002e-19,2.3511651764319635e-18,6.912035538887478,-1.4034943923873529,3.742706719220012,28.43451608732857
8524,8524,0.7186009999999214,0.0,2500.0,-2500.0,0.0,0.0,8.299965292451526,42.19484909385825,88.5430566266211,104.0,12.0,1.247159645776703,1.4424786851986289,7.322627542384891,-0.11231718379064932,-0.08977537789777679,-0.09954036794254673,0.4160021616861423,0.12536050194571136,0.010897000382008096,-0.11586142223489546,0.5750541613113055,17.514126729712288,15.224647750659251,-148.9344909009455,43.06281349523615,7.560172902300756,0.6594512025837921,1.0531634877611495,166.2518,168.47406072176017,6.0,8.709722804692943,0.7172633762443317,1.7075354969120418,-14.173120996838742,15.102268682520599,1.5574729000000002e-19,2.352137420154454e-18,6.804876561479938,-1.2538536880386488,3.657586214637822,28.257801386377896
8525,8525,0.815614000000096,0.0,2500.0,-2500.0,0.0,0.0,7.933248627318973,38.54866891076182,88.6531770556397,104.0,12.0,1.24762600554757,1.443877904433153,7.3361531883967,-0.09394123451872463,-0.09708100051500512,-0.10144438649321463,0.41801878509251933,0.08835794670209042,-0.0157690247559752,-0.1175931925863134,0.3466071789780084,17.352360172579406,14.635544657809062,-148.24429523260218,43.108889960256704,7.4324739459127,0.6941431483412018,1.0018407533885665,166.2518,168.5971414588636,6.0,8.421220174723938,4.250742607254193,2.007259141154284,-7.284128817670464,15.108523763873801,1.5574729000000002e-19,2.353111632123944e-18,6.732633742695426,-1.132362537384538,3.5130733624768364,27.555453022923192
8526,8526,0.9128799999998591,0.0,2500.0,-2500.0,0.0,0.0,7.8491741556152475,37.73591419775404,88.75587779750263,104.0,11.798266294294043,1.248201733705706,1.445201733705706,7.337518546091876,-0.07046628244074404,-0.09705458350558167,-0.10976591391423544,0.4210401117639058,-0.1752215995253714,-2.643126961252365e-06,-0.08314063256151749,-0.1426623643897192,17.176898078596214,14.058955758525574,-147.5614177640673,43.15403496183362,7.316571833896111,0.718568455498172,0.9093662201196394,166.2518,168.70862228781377,6.0,8.11860332595201,1.3049587285174913,1.3929094487590707,-11.884339366044705,15.114398214604593,1.5574729000000002e-19,2.354026561905504e-18,6.6790636057126695,-1.0396248352985271,3.3354120005906065,26.536771102962128
8527,8527,1.029247999999825,0.0,2500.0,-2500.0,0.0,0.0,8.145905205180727,40.64291764826261,88.86599646453274,104.0,10.59236153929886,1.2494076384607011,1.4464076384607008,7.280841203492817,-0.061243586149560186,-0.0870379102292225,-0.11962075386801205,0.4230988917213325,0.03953479514320565,-0.09434789626678282,-0.07029064547142734,-0.5502761095114129,16.932144021874727,13.464746692337947,-146.75459697391844,43.20243086581878,7.200168997069312,0.7237316246565315,0.7473966171990827,166.2518,168.81562744884502,6.0,7.891782789749508,5.157622882507531,1.4664329691326157,-4.239152082367438,15.120978078005074,1.5574729000000002e-19,2.3550513577986988e-18,6.642257575759071,-0.9574570057558836,3.086566032748061,24.923647173321072
8528,8528,1.1160679999999275,0.0,2500.0,-2500.0,0.0,0.0,8.342219532536097,42.62552153730099,88.93729851694637,104.0,10.295004675034804,1.25,1.447147517087751,7.205799596245133,-0.07226257529905311,-0.08200620081906554,-0.11986074710866662,0.422967301328173,0.026233110418919108,-0.0276454244351828,-0.04409594430658041,-0.4828259479460418,16.759838409746813,13.139295153230515,-146.15856101135532,43.23576708043061,7.120012918891027,0.7191366617784993,0.6327175072779938,166.2518,168.88903701706948,6.0,7.8099686458333775,5.752120458362508,0.8732141947105597,-3.3415258035053723,15.125887191682631,1.5574729000000002e-19,2.3558159389502807e-18,6.613164769838983,-0.9015532648663748,2.9170420080020905,23.802094705749322
8529,8529,1.2121360000001005,0.0,2500.0,-2500.0,0.0,0.0,8.599882427452743,45.29930547910293,89.0069892092923,104.0,11.250581892693813,1.25,1.4476253534754415,7.052907384756273,-0.08244780449711643,-0.07402806447334323,-0.1175252288195208,0.4209950052462473,0.01517509180799198,-0.019649991877883244,-0.026900044183925508,-0.20433309755623447,16.569892468612636,12.869563283889267,-145.501957347817,43.27314177387868,7.037125813556223,0.7108349028233826,0.5262622955596157,166.2518,168.95728466968148,6.0,7.818464398908794,3.6676583801979796,1.6270048248667919,-8.31520312406964,15.132401523056158,1.5574729000000002e-19,2.356830528407869e-18,6.5771270102063575,-0.8470414453592262,2.755381859882523,22.73046517797185
8530,8530,1.309255000000121,0.0,2500.0,-2500.0,0.0,0.0,8.809757091872399,47.53729731538965,89.06161546434545,104.0,11.890931765365146,1.2497818635307305,1.4478910208585416,6.917185640537006,-0.09071424015620216,-0.06674033303919201,-0.11631101141557658,0.4172804364377134,0.02184178937046128,-0.07298270711674015,-0.02032555788103187,-0.07584496717888325,16.320499756413508,12.649963484133426,-144.84616805190313,43.30711388771484,6.952730743393446,0.6978372936789417,0.4563935414330984,166.2518,169.01672390546517,6.0,7.9117910665060975,0.23251809153191386,0.8291452402695187,-13.875504067716065,15.139654920707585,1.5574729000000002e-19,2.3579602254353716e-18,6.529013408591425,-0.8109528364488088,2.6238360941661947,21.8938768900008
8531,8531,1.4267169999999396,0.0,2500.0,-2500.0,0.0,0.0,8.944132596221829,48.99847225234856,89.11721266549412,104.0,11.302633424152873,1.2486052668483056,1.4473026636874953,6.8318820280822194,-0.11696803069997715,-0.05391493854854012,-0.11774499302072328,0.4116749875499035,0.04673022130780444,-0.09079750671706233,-0.003174325817411956,0.19299992445549108,15.959018261740882,12.539443818479898,-144.05842311865683,43.351898902794495,6.870715769000987,0.6852564421504466,0.3924970729401921,166.2518,169.07423095190927,6.0,8.090641052152076,2.9368089214194466,1.4950584650665757,-10.35293994918133,15.148427648957783,1.5574729000000002e-19,2.359326554086246e-18,6.4834626803186675,-0.7834692128365102,2.4885324611948962,20.99818467253217
8532,8532,1.5235899999998992,0.0,2500.0,-2500.0,0.0,0.0,8.821682186497558,47.66608588613598,89.14968308862328,104.0,11.0,1.248,1.4471785138950506,6.7542643366587045,-0.17427629032625108,-0.04360257466841451,-0.11766987868719812,0.4079623893758209,-0.016392096842888133,-0.06585530838367082,0.022114175240488684,0.2048159908846476,15.541831302587571,12.576203508823578,-143.41717073937858,43.389331198090545,6.799037489222276,0.6763689248834401,0.3502136924990705,166.2518,169.10714474232088,6.0,8.223277348494872,4.765316244935552,1.4000505753372612,-6.299601145762445,15.152911924913989,1.5574729000000002e-19,2.360024967914037e-18,6.441317892072575,-0.7825709847857144,2.374676377761411,20.237070553185802
8533,8533,1.6186930000001212,0.0,2500.0,-2500.0,0.0,0.0,8.661681492134754,45.95270893857594,89.17103353615734,104.0,11.0,1.248,1.4476443064477589,6.666238579668876,-0.24097257658544424,-0.03704353431845082,-0.12250460509147318,0.4042525198638924,-0.0675847036529934,-0.047728571171804485,0.05043596863761323,0.03548659717316452,15.166550171791473,12.746912196145749,-142.79111871001788,43.430845030764246,6.736403545008929,0.6732731780228234,0.3123392358814001,166.2518,169.12581925892724,6.0,8.329659789880012,0.2312086802803988,-0.4363757368968677,-11.93905009406454,15.155594044083527,1.5574729000000002e-19,2.36044270070615e-18,6.403193358503254,-0.7994996025315445,2.2763698080925376,19.570574543808966
8534,8534,1.741762000000108,0.0,2500.0,-2500.0,0.0,0.0,8.51340093830193,44.392811989633245,89.17812018202616,104.0,11.0,1.2485116328622028,1.4480001,6.600535398586608,-0.20259886475889394,-0.026500067925188258,-0.13534326663736473,0.4014786732635141,-0.19307564851195289,-0.054179920699210064,0.07871772789378335,-0.6681219531356446,14.777232029210946,13.221704740672752,-141.99084049984975,43.48384803456201,6.6748042249445305,0.6780632764908641,0.2344791393650486,166.2518,169.13940453774148,6.0,8.385516216719736,-1.1291117665623596,-1.0658822962883847,-12.56243085197192,15.159064867549402,1.5574729000000002e-19,2.3609832720550287e-18,6.373102753711042,-0.8603385236507033,2.144535015687232,18.59797281910165
8535,8535,1.833825999999931,0.0,2500.0,-2500.0,0.0,0.0,8.303124232745928,42.227020189175605,89.16898167534802,104.0,11.0,1.2494457522043083,1.4480001,6.603337756612926,-0.12440590532940518,-0.01938437431148969,-0.14995681216910545,0.4021469276263221,-0.2288799161917631,-0.02194886064692221,0.10720973330183532,-1.4505052413027066,14.501870948778947,13.683024317455411,-141.39615119538811,43.52679503963005,6.626533804611696,0.6724020226644103,0.16780414134231209,166.2518,169.1248337456564,6.0,8.393197588996179,2.8464368773711928,0.9562857555037444,-6.89720418496684,15.161833491862788,1.5574729000000002e-19,2.361414477788866e-18,6.345303902224997,-0.9309956549793976,2.0428969176524685,17.84617824260204
8536,8536,1.9308939999999666,0.0,2500.0,-2500.0,0.0,0.0,8.043877990529381,39.631260627066546,89.14616673234717,104.0,11.0,1.250215480608624,1.4480001,6.582375036094496,-0.22870955046258665,-0.015248823533659068,-0.15762891210275018,0.40603506630824027,0.005178268117203204,-0.015993989206155818,0.09275975493092636,-1.7314912299472072,14.288761667880635,14.230594544640846,-140.7732927806562,43.56801059846745,6.583093602588954,0.6619653096126447,0.08586174343951243,166.2518,169.1108928075,6.0,8.296951558949884,0.20471939967042907,-0.6426379700194194,-12.004083778617403,15.164811768345606,1.5574729000000002e-19,2.361878336279936e-18,6.3201840719975415,-0.9977380993324204,1.9385445388842173,17.051970528810735
8537,8537,2.0248989999997775,0.0,2500.0,-2500.0,0.0,0.0,7.938843219989746,38.602955391604645,89.1240236900563,104.0,11.0,1.250692738451228,1.4480001,6.532262962621067,-0.2996928566632404,-0.0055024626662221925,-0.16209611650321756,0.4086603304886547,0.013140930125115826,-0.004438094705575632,0.04962827310004902,-1.880404779739375,14.097972254329216,14.72482145275862,-140.17029825664778,43.61025455815025,6.544948500624303,0.6657173593803397,0.019543499724753586,166.2518,169.07833194761454,6.0,8.194498633150728,3.48923392437788,0.7657401250823385,-6.897912887521883,15.167696064723062,1.5574729000000002e-19,2.3623275576242813e-18,6.298695132999615,-1.0415762411821792,1.8495580391656967,16.364425878744598
8538,8538,2.1444539999998824,0.0,2500.0,-2500.0,0.0,0.0,7.860356024266983,37.843439762386716,89.09577553146205,104.0,11.0,1.251,1.4480001,6.475698905315273,-0.22101418645478785,0.003773660921359307,-0.19049010045228384,0.4131751533722064,-0.3161347484139181,0.00923586030283325,0.04017789086691542,-3.658092980664257,13.896634800715676,15.178926548051448,-139.40921875182664,43.65591388456686,6.500072929640679,0.6565139111450492,-0.01519510235154031,166.2518,169.03378748462887,6.0,8.070248299875088,5.2709937258321995,1.3611713480366952,-4.780449570201733,15.17127827419785,1.5574729000000002e-19,2.3628854770421918e-18,6.260203970383536,-1.1348839795382468,1.7866588631623694,15.928717960464768
8539,8539,2.2440390000000434,0.0,2500.0,-2500.0,0.0,0.0,7.8155754094663745,37.41347846337412,89.07593537381044,104.0,11.0,1.251,1.4480001,6.434704320725253,-0.08940231452786421,0.02528042675859748,-0.22274713470274604,0.4159793255363058,-0.3489652122217798,-0.04141572262790561,0.06565068620034932,-5.4857802932105315,13.730374394413015,15.515266118429913,-138.77617777125772,43.69475075377592,6.481169211873881,0.629853705699021,-0.07671582085320636,166.2518,168.9922383809856,6.0,7.994110401079551,-0.13802639431731034,0.027992556340789454,-13.351743213179095,15.17422454846905,1.5574729000000002e-19,2.3633443512755287e-18,6.248406775180329,-1.2329818514947983,1.7085486428606176,15.292986963108987
8540,8540,2.337817999999743,0.0,2500.0,-2500.0,0.0,0.0,7.654087921615637,35.88336345335481,89.05976047679282,104.0,11.0,1.2502709985825022,1.4487291014174977,6.418187307052302,0.1065215822480118,0.027136477256720942,-0.1488536699700444,0.4192038940873272,-0.04560510854389143,-0.018944022480234104,0.020526471047200973,-6.382208705841593,13.473118476266414,15.783179622679356,-138.18259367194264,43.726915893982365,6.47064859067585,0.5931702618481421,-0.16255491755561347,166.2518,168.96617607066332,6.0,7.897836967788005,1.2560311841408651,0.14310526662062747,-8.362461126876276,15.176999049195848,1.5574729000000002e-19,2.36377647224483e-18,6.250103092616037,-1.3043402170765108,1.599086114727093,14.351246724890762
8541,8541,2.434925000000021,0.0,2500.0,-2500.0,0.0,0.0,7.532858534399508,34.75569781231133,89.04730200408814,104.0,11.0,1.248806647163495,1.4501934528365048,6.4225801660624695,0.11545133841512545,0.032802757156122214,-0.12977846892479555,0.4211519810445808,0.18047538033851385,-0.045066934444214835,-0.005418867511385525,-5.945404813401157,13.29038961738109,15.822527814064903,-137.56773996035832,43.760480622544854,6.479629183645041,0.5528370581704931,-0.22449858686450505,166.2518,168.93986271940418,6.0,7.7969015281199905,-0.7318627311228656,-0.318237787803915,-12.011360582770749,15.179392827351627,1.5574729000000002e-19,2.3641492967054542e-18,6.265463784611097,-1.3311678731860868,1.5264586887809375,13.692259270586884
8542,8542,2.55264800000009,0.0,2500.0,-2500.0,0.0,0.0,7.337568949985198,32.97695222027585,89.03828403844055,104.0,11.0,1.2470288385454722,1.4516475409696854,6.388419682328932,0.04032343814241435,0.05439300952299786,-0.1182199902970787,0.4219936619252981,0.30676927289665096,-0.0958987066400094,-0.07747038609009023,-4.0625623922385,12.932689811636676,15.455100779554195,-136.8227753460738,43.795953467751424,6.4799309206152165,0.5110556086304107,-0.254589988110058,166.2518,168.93485845289155,6.0,7.638650199625284,3.2449888694841986,-0.02948897773208836,-5.987721255356044,15.182057617546633,1.5574729000000002e-19,2.364564330556744e-18,6.276897464766438,-1.2865181497736846,1.4534149616724619,13.037076831167251
8543,8543,2.6455489999998463,0.0,2500.0,-2500.0,0.0,0.0,7.344603253612765,33.040216449690185,89.02515032534832,104.0,11.0,1.2456241917193762,1.4525839721870828,6.335511459010662,-0.005269467310838757,0.06494380913133069,-0.11159277059890843,0.4223654254325867,0.1363357572907994,0.02240580185879337,-0.1245134408620907,-2.7437220482567404,12.632207569889848,14.837038730813319,-136.23290062167268,43.82625947849533,6.479639514443713,0.4957863321567613,-0.28159750852651744,166.2518,168.92432835895139,6.0,7.531198077635228,4.175124402562588,0.046953163696213,-4.162303335606803,15.184160534342036,1.5574729000000002e-19,2.364891854148724e-18,6.2974453359095355,-1.2051731603263758,1.3795471878439205,12.356286901132087
8544,8544,2.7353879999999435,0.0,2500.0,-2500.0,0.0,0.0,7.4812906886547905,34.281464408427965,89.00822342199189,104.0,11.0,1.2440462806102668,1.4522847866147153,6.316768896948666,-0.03413198153726772,0.06654604958460665,-0.10898934805447856,0.4223391155249165,0.12893379617463374,0.0670616637186143,-0.15580219520447247,-1.8291860477813269,12.501336742315075,14.092114624170337,-135.66526466341298,43.84934260018603,6.487588715563711,0.4955450474595203,-0.3098091771538856,166.2518,168.91307036435424,6.0,7.467947097610941,-0.44369039681258027,-0.5665622438725787,-12.15191811337996,15.184847689560137,1.5574729000000002e-19,2.364998876711753e-18,6.328020105465848,-1.1075762323336908,1.3230440996492052,11.8091249569289
8545,8545,2.854451999999924,0.0,2500.0,-2500.0,0.0,0.0,7.779983571158099,37.07358363659958,88.98219635246987,104.0,11.0,1.2417076685866386,1.4505307691316935,6.328461957066808,-0.06813026240728688,0.0724340991840577,-0.11271922864769295,0.4214509258285095,0.2131792731454571,0.0014931438369169547,-0.1273166616130064,-0.9654698312991368,12.384085456700948,13.161215754968445,-134.91433229522423,43.87861118361993,6.503457573547717,0.5005899806466445,-0.3782923661691063,166.2518,168.89115722281315,6.0,7.484832197234478,2.0875399731399984,-0.23891902591210826,-6.189476088578518,15.185177418804214,1.5574729000000002e-19,2.3650502311479518e-18,6.377742707866421,-0.9872997374052316,1.2259689413312926,10.881021705795014
8546,8546,2.941565999999739,0.0,2500.0,-2500.0,0.0,0.0,7.926905001453672,38.486952910760586,88.96045433094005,104.0,10.741946727419418,1.241,1.45,6.376385385467877,-0.08859011550709947,0.07385676360223392,-0.11282592304517397,0.4202626951376779,0.2683601061061745,0.0007639665828311389,-0.11386207346023873,-0.3502862507480539,12.318762010160508,12.641466838806473,-134.36475390329952,43.894980144272395,6.5054010766824595,0.5090390031855284,-0.4504189151081766,166.2518,168.8711579712317,6.0,7.555935639796116,5.189067044906425,-0.08793422972046203,-2.439671326254192,15.185418667488694,1.5574729000000002e-19,2.3650878049767754e-18,6.406485235799545,-0.9113955075902866,1.1357627293188166,10.05313114747434
8547,8547,3.060478999999873,0.0,2500.0,-2500.0,0.0,0.0,8.050884438702562,39.70026092981471,88.9160304674089,104.0,10.141263771512943,1.241,1.45,6.479702673678905,-0.08618646170448056,0.07117496926106452,-0.1123662027862748,0.4179410313403067,-0.08840506486105099,0.026955003625092608,-0.0586267715045963,-0.16143269679914068,12.292456215690358,12.055923307535927,-133.61279269426063,43.919131826109584,6.511274694507346,0.5278726503123617,-0.542821112505465,166.2518,168.83571684123817,6.0,7.689254165077214,1.6187099093261423,-0.6260345894728938,-6.127327358203715,15.184934958204535,1.5574729000000002e-19,2.36501246856662e-18,6.444970467906666,-0.8268031099833226,1.0284176139651575,9.066198273286616
8548,8548,3.1541140000000496,0.0,2500.0,-2500.0,0.0,0.0,8.024587410906838,39.44132331665508,88.86987657315208,104.0,10.0,1.2413312330957895,1.4490064000726233,6.469886568093381,-0.06964446609216167,0.06851032996774603,-0.11901623336581985,0.4167410854067386,-0.050386932915116894,-0.03731231925090965,-0.052317546693443656,-0.4102652127578136,12.339503060127015,11.70189421555193,-133.01743940361658,43.9381101844709,6.5095563275307216,0.5379802668448211,-0.5850275683222274,166.2518,168.79226370256248,6.0,7.7997308966409875,5.073761698871317,0.8928812605357852,-4.434063961965776,15.184373876954472,1.5574729000000002e-19,2.3649250816824527e-18,6.458622177519605,-0.7809654635392471,0.9835567122446831,8.65880956158849
8549,8549,3.250549000000092,0.0,2500.0,-2500.0,0.0,0.0,7.930162804676201,38.51860844193312,88.81722481784065,104.0,10.0,1.2418176418607112,1.4475473196858977,6.4197917179958734,-0.04197392829407902,0.06499015207028876,-0.12195912928549214,0.4159090480268161,-0.13927509744012315,-0.006027794092725778,-0.02665988175281609,-0.9624435423176432,12.447768084822366,11.449516417271552,-132.3994554986235,43.96415069296288,6.5252142337978665,0.5394950760264079,-0.617421284778564,166.2518,168.74044057641353,6.0,7.881515327130944,2.4714647897385698,0.8172441830598631,-11.058899482733926,15.183796017496475,1.5574729000000002e-19,2.3648350816378686e-18,6.482685647761548,-0.7619217853665217,0.9638048011271394,8.456431459247119
8550,8550,3.363601000000017,0.0,2500.0,-2500.0,0.0,0.0,7.837564461179725,37.62432280861195,88.74913168231821,104.0,10.0,1.2423822940754436,1.4466178059245562,6.379595414827818,-0.04145626986697036,0.06929535552769672,-0.12741024600640416,0.4168839927376659,0.16091530829193118,0.02498355736139649,-0.0022476124995371343,-1.3440848158961367,12.534063102152082,11.354628355027554,-131.6762856524345,43.985148340719775,6.53158716812723,0.5177807420347483,-0.6364628772673218,166.2518,168.67491060372453,6.0,7.910107210427482,-0.4950447742970816,-0.26310983213802464,-15.329149668050649,15.186222802477934,1.5574729000000002e-19,2.3652130468221443e-18,6.488764288623472,-0.7782940770214802,0.959259211266184,8.40934877896882
8551,8551,3.455137000000036,0.0,2500.0,-2500.0,0.0,0.0,7.953886179327773,38.74939325031378,88.69587397801102,104.0,10.0,1.2428373594633302,1.4461627405366697,6.354109113462961,-0.06497615088767712,0.07289331194153137,-0.1298196441375114,0.41808293574667216,0.0476668996946123,0.049227683393374536,0.04566284793823721,-0.9435647651220777,12.532103483661151,11.504856804992631,-131.08844654581407,44.002960743419685,6.538723380559651,0.5033460134771826,-0.650656438224454,166.2518,168.62305284479024,6.0,7.924666657616421,1.7229335895994038,1.1102443315306798,-12.852796290649545,15.188633337677624,1.5574729000000002e-19,2.3655884811469445e-18,6.493873039549238,-0.8043959418662832,0.9527918416922242,8.3469761758753
8552,8552,3.5476399999998876,0.0,2500.0,-2500.0,0.0,0.0,8.097915695773526,40.16546501104114,88.64363590204907,104.0,10.0,1.243,1.4451211878353547,6.406231210100693,-0.08412404218948813,0.08365837946410706,-0.1263450636333452,0.4183431890000299,0.02498809426590368,-0.04153871223017611,0.023438639333391256,-0.4037698406541137,12.458445731351896,11.658206919919353,-130.49707384160595,44.0156000373201,6.548195037272035,0.5023881574057618,-0.661503907700515,166.2518,168.55876010947995,6.0,7.986724508086598,-0.5222116464463005,-0.8725639533090845,-12.9087431355284,15.19106933813183,1.5574729000000002e-19,2.365967881616126e-18,6.503933398356573,-0.8169689754209211,0.9387778941368852,8.213348512880932
8553,8553,3.6703180000000657,0.0,2500.0,-2500.0,0.0,0.0,8.171906190925766,40.90278665565158,88.56961578005314,104.0,10.0,1.243,1.4433177626240337,6.531869893270238,-0.09561431675470138,0.09343309501069501,-0.12010380477440814,0.41706748713466224,0.040776419842027935,-0.05051844682707453,0.02348890746946591,-0.023631321047084642,12.28246948741402,11.767450430349614,-129.71120188913108,44.03553302970212,6.572329824717773,0.5173933787875442,-0.6932357582071362,166.2518,168.48778810775678,6.0,8.096406079968146,-1.063548532771914,-0.6120493133242407,-15.336007860832467,15.19270452548034,1.5574729000000002e-19,2.3662225576142994e-18,6.537502498084576,-0.8150493232363228,0.8912198366093852,7.7629480504574255
8554,8554,3.7659000000001015,0.0,2500.0,-2500.0,0.0,0.0,8.144882744350529,40.63270905826261,88.50866363521347,104.0,9.618898213834884,1.2433811398963437,1.4426189601036563,6.570387624364387,-0.08864197099803263,0.09997832623976158,-0.12055737226438733,0.4171623883543496,0.037057258025317896,-0.007271538028606916,0.004330443250154463,-0.011175485917231793,12.17646984250422,11.823567057019146,-129.09553099748314,44.04083073028996,6.5940927901450035,0.5259667762521045,-0.7230179869219118,166.2518,168.43239819073895,6.0,8.153235441275742,0.9058371206046084,-0.5253783730551397,-8.430998306324403,15.19371356624755,1.5574729000000002e-19,2.366379712979292e-18,6.566831490737893,-0.8176306016225231,0.8537161965516752,7.407153250687811
8555,8555,3.862786999999912,0.0,2500.0,-2500.0,0.0,0.0,8.212106931832048,41.30621339866131,88.44309691085449,104.0,9.119745702024636,1.2438803423234053,1.4421197576765947,6.591850982711223,-0.092250150911434,0.10253372304580237,-0.12190701746537493,0.4180356805957216,0.13567990159229207,-0.0041588072240145695,0.02081143102459815,-1.2465830214799385e-05,12.122860054663018,11.937624286435444,-128.46599630998338,44.05067944349175,6.61310232656963,0.5340010371809985,-0.7592529181468233,166.2518,168.36263992892538,6.0,8.211527054957697,4.959513952731614,0.7862988431119211,-4.863990490449805,15.194736383648449,1.5574729000000002e-19,2.366539014017647e-18,6.593240068842628,-0.8265922668865228,0.8172000887484165,7.0654996655466835
8556,8556,3.955587000000037,0.0,2500.0,-2500.0,0.0,0.0,8.16100051931228,40.79368945325449,88.37736067766608,104.0,9.0,1.2453679719169906,1.441658057668992,6.573061779784353,-0.09532750188218786,0.10209524463317836,-0.12246743066922215,0.4187687851442407,0.0196843428210288,0.04765647122178274,0.0410062223026075,0.0225401405276955,12.159579187096329,12.106981131187696,-127.85916237504192,44.059906440326436,6.623910008490517,0.5439799280128911,-0.7842464606612577,166.2518,168.29043898741753,6.0,8.259909778010831,4.580682516232004,-0.12282474677551836,-4.14128388169508,15.19459868419692,1.5574729000000002e-19,2.3665175677012366e-18,6.6079984795800755,-0.8379224879676551,0.802175061711622,6.921528458757857
8557,8557,4.0758990000000495,0.0,2500.0,-2500.0,0.0,0.0,8.125652473494437,40.441061246123596,88.2852262769248,104.0,9.0,1.2477339653623218,1.4410666036711457,6.5316560959483025,-0.10617595823616456,0.09729174989265246,-0.1205046968955962,0.42045749711361663,-0.002322254846805788,0.02879550479349448,0.05767698842308505,0.2404656817061202,12.350548663929693,12.427478241442412,-127.06875902072704,44.077896225086405,6.634350214766602,0.5642491416157643,-0.8050695747364957,166.2518,168.20149857142852,6.0,8.280508330827077,4.65079609963974,1.7495838431561392,-8.152768276836994,15.194312765394905,1.5574729000000002e-19,2.3664730366226624e-18,6.619778845895045,-0.8537945351439278,0.8128374251080674,7.000262504640311
8558,8558,4.169221000000107,0.0,2500.0,-2500.0,0.0,0.0,8.14432950059971,40.62718405457281,88.20944176016182,104.0,9.0,1.2488101366066124,1.4401899228865571,6.631507981746164,-0.12200267775637705,0.09760296406865036,-0.11860104636368694,0.4217562643694796,0.10192278124365213,0.05080408665856144,0.050522719898453416,0.6140119840863958,12.501763953418205,12.713584272652225,-126.45681833644579,44.0899931820951,6.629648110286727,0.5782524186440531,-0.8155679696761207,166.2518,168.12517499177173,6.0,8.300236706727205,3.3195598033056664,1.7345433579060516,-10.488496604643196,15.194090987729814,1.5574729000000002e-19,2.366438495352343e-18,6.614554340226031,-0.8669764515968621,0.8249454977797887,7.109034544558438
8559,8559,4.267608999999993,0.0,2500.0,-2500.0,0.0,0.0,8.17160118156217,40.899734455826575,88.13396145255831,104.0,9.0,1.249809055327961,1.439190954219273,6.760368446854197,-0.1306089823344297,0.09628175110503913,-0.11781592877405522,0.42419234583903737,0.015797493291886927,0.053315059069695116,0.053541172431370895,0.9154691489166548,12.64983227304528,13.023520207775462,-125.80914766359754,44.10961447120629,6.630973742536731,0.6099300752749314,-0.8180751581416159,166.2518,168.04114200405076,6.0,8.311580772412317,-0.5638922875627204,0.0906498596959422,-15.428095488315373,15.193259616835206,1.5574729000000002e-19,2.3663090115885217e-18,6.616857672078627,-0.8678762483455709,0.8436823573089623,7.266289660052973
8560,8560,4.363784000000123,0.0,2500.0,-2500.0,0.0,0.0,8.117269146698156,40.35766129403214,88.0639135857184,104.0,9.0,1.2507774777891107,1.4397774777891108,6.722416544912129,-0.12489665373062668,0.09391634880011313,-0.11796271975621475,0.4264862491471019,-0.04950603222097569,0.02714028367017965,0.06080147655804111,0.9150092708905542,12.836102252700837,13.30977793298944,-125.17295678724429,44.12635622073525,6.632524761743351,0.6384809803437633,-0.8108923896473519,166.2518,167.96114175529792,6.0,8.30867000114955,2.9517066146185487,1.5827047227399411,-11.307708973239222,15.192436810756474,1.5574729000000002e-19,2.366180861771564e-18,6.616540210508575,-0.8721556896917526,0.8770499335361537,7.5507753847727415
8561,8561,4.4584650000000465,0.0,2500.0,-2500.0,0.0,0.0,8.012732237266503,39.32488487638083,87.99472404684273,104.0,9.0,1.2517289354272922,1.4407289354272923,6.645828129605039,-0.12437060513441435,0.09213483211032736,-0.11876238981272715,0.4282739276157737,-0.023990298755631863,0.038693109682391584,0.0725985462278253,0.8549416495707926,13.015410947211555,13.622469399766116,-124.54400358769753,44.14627117560799,6.6406363722029615,0.6697065918780855,-0.8045997190657851,166.2518,167.8949130313588,6.0,8.285923331010393,1.3648948352222263,1.7798990466294458,-14.611601620007596,15.191626786297514,1.5574729000000002e-19,2.3660547026572468e-18,6.622910535704611,-0.8791775203147315,0.9106570626950652,7.829134789985299
8562,8562,4.577629000000115,0.0,2500.0,-2500.0,0.0,0.0,7.996478826855122,39.16549962473496,87.90724050543032,104.0,9.921717045466893,1.2543043926136672,1.4414609124368811,6.6166266714645605,-0.1259401841682062,0.09353625885989056,-0.11971152216691275,0.431058905736338,-0.02856280875847766,0.05315412558788196,0.0688499893886489,0.8401348909470324,13.183728578645251,14.083836992481055,-123.75363703748043,44.17694128726344,6.638201369207595,0.7084712189008255,-0.7877439477778121,166.2518,167.81502889355244,6.0,8.222848622376711,6.225113137221202,0.15522733314480064,-4.166781841664776,15.189917263916655,1.5574729000000002e-19,2.3657884491792347e-18,6.616483221595134,-0.8928484249061676,0.952445003585446,8.191475759501598
8563,8563,4.673185999999987,0.0,2500.0,-2500.0,0.0,0.0,7.971114633716013,38.9174371762615,87.84352969416928,104.0,10.877201051905027,1.2566931026297623,1.4419386066658997,6.608982703864653,-0.128999130019872,0.09387915738867708,-0.1198827122304893,0.4339177113520406,0.0241073910600836,-0.006612151006870855,0.08031309439852148,0.9356374164834812,13.304419097021162,14.49361645718949,-123.11992139543756,44.210174715164136,6.6330776603501125,0.7389351380659649,-0.7669930272107355,166.2518,167.74936318857823,6.0,8.178725758328389,6.300758207201409,1.0041337712603766,-4.547669538422529,15.188482342157881,1.5574729000000002e-19,2.365564964003943e-18,6.606100225550024,-0.9066631608584684,0.9912934171980092,8.533975148106434
8564,8564,4.769191000000092,0.0,2500.0,-2500.0,0.0,0.0,8.012912647715472,39.326646325252966,87.7844352839892,104.0,11.0,1.257833398498104,1.4415833924158732,6.645082166495481,-0.1353429358666931,0.0944097561001614,-0.12231721893270515,0.4360714999849701,0.015807221673105814,0.005958050232606232,0.08442958323547466,1.0491082549366937,13.437532313716247,14.927351102595864,-122.48499303067551,44.238940369710576,6.640167399130423,0.7673169138567186,-0.7616984851390499,166.2518,167.6899713733905,6.0,8.139471747579572,6.454904202985432,0.6864196967289914,-4.539412475175251,15.187040693053666,1.5574729000000002e-19,2.36534043106283e-18,6.609688151609397,-0.92794077317284,1.0211465057046742,8.782329124400759
8565,8565,4.88254100000006,0.0,2500.0,-2500.0,0.0,0.0,7.840602920858653,37.65356799643274,87.71959270913212,104.0,11.0,1.2589615622833994,1.4410193669314144,6.695285567757509,-0.1398289574172528,0.09984595465350067,-0.12435550333049,0.4377869810321272,0.006125939044857282,0.08356560588964537,0.06245207252729914,1.0834153865605138,13.534244486522047,15.432779876281895,-121.73634542432288,44.28395683767447,6.630153452098732,0.8071289774107482,-0.7364779073855763,166.2518,167.6188538762866,6.0,8.099302374437888,5.4254994185024215,-0.8589087697384954,-1.968478496091051,15.186540435042973,1.5574729000000002e-19,2.3652625172333643e-18,6.594786950278423,-0.943226180886698,1.0605975349836103,9.136283248854113
8566,8566,4.975423000000092,0.0,2500.0,-2500.0,0.0,0.0,7.858654690920898,37.82705677039419,87.67008848596548,104.0,11.0,1.2598778234801036,1.4414389397958678,6.649162090641532,-0.13705488003532618,0.1014901056434128,-0.12674664565080687,0.4405052240521076,-0.19998328749064345,0.1151991428865174,0.07969165991611303,0.900409913951619,13.586276418315661,15.811078013788354,-121.12314406486419,44.32617259958771,6.614983252185488,0.8458790102464626,-0.7189431166730391,166.2518,167.57080028331586,6.0,8.027121558237125,0.9863989523567048,2.4305245066741827,-14.46812755514359,15.18614560400419,1.5574729000000002e-19,2.365201023369066e-18,6.579516474289084,-0.9474597019392164,1.0825434058351004,9.343299745373798
8567,8567,5.070961000000125,0.0,2500.0,-2500.0,0.0,0.0,7.865234188621159,37.890423350310954,87.62316368402443,104.0,11.0,1.2608199192653216,1.4419099641349042,6.597815208793478,-0.12658058837073788,0.10198858065196044,-0.12606143318295854,0.441763242810646,0.10765347187384974,0.02922634691567565,0.044254192106620426,0.7076410469818109,13.653003165041158,16.18651699537515,-120.49435001778522,44.37722175877328,6.601595678992043,0.8856796215086609,-0.7041169784261879,166.2518,167.52130658099398,6.0,7.9915549980001295,3.2934582585461167,1.9979338448644928,-11.048499687393232,15.185739482605175,1.5574729000000002e-19,2.3651377710617587e-18,6.5668782252590985,-0.9510059483699812,1.1040843810352805,9.543838406306335
8568,8568,5.167530999999826,0.0,2500.0,-2500.0,0.0,0.0,7.873553864778935,37.97062317382776,87.58007930013996,104.0,11.391240700863236,1.2621737221025895,1.4431737221025898,6.607953614868095,-0.11501242306748545,0.10026138052936344,-0.1249271574510646,0.4426960193221878,-0.12940061757687232,0.11265856789272745,0.03942861319869831,0.2916086615251877,13.767255728891435,16.467744552749725,-119.85823589092419,44.429340839063514,6.6057610023441615,0.9184832993343832,-0.6859425916947333,166.2518,167.4785157982488,6.0,7.960061601478517,6.6760332601086185,0.6832503224539568,-4.268427170979522,15.183050069936481,1.5574729000000002e-19,2.364718902326917e-18,6.568920333131646,-0.958674733561408,1.1392761596152141,9.83918060326736
8569,8569,5.287250999999742,0.0,2500.0,-2500.0,0.0,0.0,7.988821689277962,39.09053314688752,87.53372116085094,104.0,11.989383121910713,1.2639681493657322,1.4449681493657325,6.638458938155758,-0.10548058850523984,0.09792100368841196,-0.12449799518587976,0.4433778808597503,-0.10697451457701927,-0.00582701047200327,0.06162890180528224,0.06178744962149287,13.913385284040418,16.843924973807848,-119.06976670714936,44.499196270550726,6.59639710207512,0.9442852125546752,-0.6209347785342616,166.2518,167.4341544772681,6.0,7.945117692770842,-1.3699450777871522,1.6236123334228991,-18.584558966721282,15.179670614023975,1.5574729000000002e-19,2.36419256122687e-18,6.5430633185691836,-0.9770142142349814,1.2234536397164786,10.591138502920188
8570,8570,5.3832949999999755,0.0,2500.0,-2500.0,0.0,0.0,7.903148555519523,38.256674941098105,87.50242519462749,104.0,11.525905846483164,1.2649481883070337,1.4459481883070335,6.546551945245386,-0.10213646993759942,0.09412716371951782,-0.12528704619572847,0.44338605755480137,0.12725029230181292,-0.08027559693161004,0.06630488670945778,-0.06837597348437502,14.051416190671455,17.161608927224915,-118.43827760219266,44.55491629039855,6.595870136158467,0.9712265735531396,-0.5553479851175783,166.2518,167.40880639755596,6.0,7.939690923328486,2.1891306636286485,2.0144009222046053,-13.770441182623337,15.177341468516493,1.5574729000000002e-19,2.3638298031260647e-18,6.526461873138456,-0.989044032705956,1.3081960454920152,11.334441253936443
8571,8571,5.47931200000005,0.0,2500.0,-2500.0,0.0,0.0,7.66014429791519,35.9402041768638,87.48684425026798,104.0,11.04122118908367,1.265917557621833,1.4469175576218325,6.452038340115553,-0.08740340704635635,0.09972470670757463,-0.1240750855569537,0.4434728325047199,-0.11091276856905646,-0.0658446929720359,0.05942742587482663,-0.2868174961599368,14.135240371295733,17.452876972656018,-117.80845094905129,44.615133877160396,6.589483709208461,0.9969249190530696,-0.4650104267443834,166.2518,167.39589608547615,6.0,7.883149374235152,-0.9175154370421544,0.5179620162663454,-15.425806469359019,15.177997815455,1.5574729000000002e-19,2.363932027383036e-18,6.499305217567716,-1.0000452259378816,1.4076079503469718,12.220282154561422
8572,8572,5.5996750000000475,0.0,2500.0,-2500.0,0.0,0.0,7.536590662289887,34.79012702171909,87.4880388491008,104.0,11.561954371290893,1.266562010566728,1.4481239649380189,6.517616278834544,-0.03092288819883592,0.11748004578048732,-0.1206248484154963,0.44361580107459575,-0.26882560910762976,-0.08140874161830948,0.03533961413922783,-1.3084056927563723,13.943005669710482,17.679580619927755,-117.02506358816343,44.69011720264356,6.555512223914142,1.024401738688936,-0.3821820175606525,166.2518,167.40584192666702,6.0,7.768035275612398,3.914828529160416,-1.0236075208024544,-4.163372538064092,15.178820585241175,1.5574729000000002e-19,2.3640601715475274e-18,6.4558912709656475,-1.0125530447264062,1.4532494854864118,12.686076428472287
8573,8573,5.684993999999733,0.0,2500.0,-2500.0,0.0,0.0,7.568323730286473,35.08371316681477,87.48507322914166,104.0,11.989286519244851,1.2669893854478966,1.4489786719671418,6.573596832949728,-0.026804769982297597,0.11634177098344795,-0.11895941195726907,0.4438826161926404,0.00920160774137968,-0.051141176055576526,0.00875459803224723,-1.9199772125605,13.838600402771965,17.76089561016635,-116.4712177360036,44.74436731242797,6.5566899912304875,1.038088254132749,-0.3878432075270469,166.2518,167.4153316858984,6.0,7.689355797542513,-1.828454958545132,0.2569777659247854,-14.682687744618335,15.179587782357155,1.5574729000000002e-19,2.3641796604192366e-18,6.46317575895488,-1.0220770875028755,1.4339517679495897,12.509295978322685
8574,8574,5.80523699999992,0.0,2500.0,-2500.0,0.0,0.0,7.727403607019782,36.5740786565258,87.477268572283,104.0,11.405185438868596,1.2670001,1.4513793582445258,6.6178269484014605,-0.03619618600691489,0.10524796962850977,-0.11475014621052886,0.4442038146847391,0.021472160442349758,-0.010971558619638585,-0.006845164608784613,-1.8581459727728569,13.955921953304093,17.71704776496063,-115.688887410409,44.826519427077294,6.5389562813281135,1.037678610932636,-0.3964781353339478,166.2518,167.41416463424378,6.0,7.636375662530592,0.8383102699969474,3.1023035772932186,-14.584803886271615,15.18243131401863,1.5574729000000002e-19,2.3646225327695408e-18,6.447036941621145,-1.0105918279704849,1.434519628303678,12.544429841842772
8575,8575,5.901432999999997,0.0,2500.0,-2500.0,0.0,0.0,7.633265729742741,35.688390098059934,87.45761005139765,104.0,11.078826020998383,1.2670789181383963,1.4532365780629952,6.6376200113837935,-0.02962970900261795,0.08869933811529385,-0.11540303232671292,0.4450961446149681,-0.05603645291708633,0.0753571349530647,-0.031347488725614624,-2.001655133471732,14.244320681613017,17.52455789105982,-115.06113064386513,44.89328844117732,6.537794994361183,1.0282737015126877,-0.3980306060897203,166.2518,167.40804396159425,6.0,7.611941975136294,6.937260709894409,0.5931918717749882,-3.371229910009029,15.184706177184944,1.5574729000000002e-19,2.364976836542815e-18,6.4407361645502545,-1.0004640672805027,1.466778983474156,12.8294314457113
8576,8576,5.99656600000003,0.0,2500.0,-2500.0,0.0,0.0,7.611910080945472,35.48897166313601,87.43130683382738,104.0,11.555131652071973,1.2675551761389068,1.454665494956216,6.5809396889166,-0.11197948254938796,0.07391565291114717,-0.1454586196254386,0.4469558753184933,-0.010778727352499365,0.13233198541641505,-0.0182417180607606,-1.9609561775355584,14.638554805609074,17.359094300328895,-114.44019064093484,44.96095032228097,6.546735923101218,1.0180091386930636,-0.4250877463567006,166.2518,167.39007331315355,6.0,7.562458333256668,-0.5886674234393183,1.7718025448272967,-15.993231287465198,15.186142748931461,1.5574729000000002e-19,2.3652005786992253e-18,6.44702492369351,-0.9923619914163404,1.4919594739492992,13.029919731572743
8577,8577,6.095279999999889,0.0,2500.0,-2500.0,0.0,0.0,7.759468755531881,36.87839199090715,87.39854548967361,104.0,12.0,1.2679519924913818,1.4560481075086182,6.526367981465121,-0.13013284564289102,0.06588234480815547,-0.1455178084387784,0.4488328159784699,-0.024281183075160875,0.05683073272974961,-0.0259578292329205,-1.7203408940451108,15.012796369842148,17.2214294195156,-113.79346697794676,45.027729973890466,6.522823394256734,1.0085695964814132,-0.4101950046228797,166.2518,167.35696097297838,6.0,7.537348708156433,4.600195725850086,1.5382922860731594,-8.60466577987026,15.184901674010307,1.5574729000000002e-19,2.365007284643569e-18,6.412399848224043,-0.973673329329098,1.5451594255674983,13.547962934409842
8578,8578,6.212901000000102,0.0,2500.0,-2500.0,0.0,0.0,8.030896971560784,39.5033795701564,87.35392476744944,104.0,12.0,1.2673793057600162,1.4566207942399838,6.506894685269075,-0.0984048317220128,0.07017784042013259,-0.15073645227920454,0.4499330758389724,-0.040513096838380336,0.038060667843656915,-0.024168908913145274,-2.2388937250065686,15.187128401852613,17.00605711063138,-113.02680054818292,45.10396536407193,6.520086068457097,0.9935102197260328,-0.4297129835777809,166.2518,167.30286527503245,6.0,7.60963556214434,-1.8271552626839462,1.6833712691028517,-17.969722639023797,15.18342289214248,1.5574729000000002e-19,2.3647769683751537e-18,6.4102325585063795,-0.974044591247147,1.5444994159192924,13.546799091353874
8579,8579,6.309509999999932,0.0,2500.0,-2500.0,0.0,0.0,8.122353315173164,40.40825614434874,87.32091139648935,104.0,12.0,1.2669058261741521,1.457094273825848,6.497393880672932,-0.08644535066504816,0.06623020984208694,-0.14835820066059185,0.4505230345918991,-0.05791697107201725,0.04713203006386908,0.0096615461123176,-2.3537282030151343,15.250819058171167,16.975562634637434,-112.39820030744708,45.16701242080614,6.501580640302049,0.9731004838854678,-0.43999138568504986,166.2518,167.25999113189616,6.0,7.69291915200326,6.101247280098965,1.088008571856134,-5.784200409943027,15.182371023547946,1.5574729000000002e-19,2.3646131426921187e-18,6.389158518209858,-0.9862631365735236,1.5393482868176953,13.546176210536165
8580,8580,6.401749000000109,0.0,2500.0,-2500.0,0.0,0.0,8.305869884326581,42.254915614672925,87.29089862880942,104.0,12.0,1.266441459869421,1.4575586401305791,6.514109210363759,-0.09560593425493316,0.06384770990733281,-0.1412118105696742,0.4493404218225567,0.0020064898353530677,0.013420389897967755,0.011428869740798184,-1.9297719921888208,15.350375870049175,17.00612463022621,-111.80052158029994,45.2223854181247,6.474908838065046,0.954999325464984,-0.3909839931195474,166.2518,167.22212309963098,6.0,7.8059486442806305,-0.3869094349407813,-0.6364911500139043,-13.391660077711036,15.181634775523536,1.5574729000000002e-19,2.3644984740575488e-18,6.343741718377353,-0.9905112458524159,1.5948010825778582,14.111581781056818
8581,8581,6.514415000000099,0.0,2500.0,-2500.0,0.0,0.0,8.37290003326034,42.93959044323796,87.27045741078129,104.0,11.874457786512261,1.266,1.4583767266404633,6.520458854546039,-0.06568870962070578,0.06560653596862004,-0.12163984702980185,0.44625587869978495,0.04231744571042378,-0.07082042119448823,0.014883676592054003,-1.522636980804001,15.36449508553382,16.98976194377934,-111.07173404230561,45.2941244156531,6.447898713119558,0.93557198467862,-0.2795766051151294,166.2518,167.1863828928076,6.0,7.9764947624530445,0.9442635168229956,2.5548317961375484,-16.113798690965194,15.180735479998672,1.5574729000000002e-19,2.3643584112166427e-18,6.283781798572693,-0.9921574673472424,1.698341156693299,15.124192139598145
8582,8582,6.610119999999938,0.0,2500.0,-2500.0,0.0,0.0,8.26200300736259,41.80969448715667,87.26257916230726,104.0,11.393414525038864,1.266,1.4598198564248834,6.483899807195691,-0.08433106251240237,0.08138762387744783,-0.12521267028463814,0.44349230885443003,0.05520943824649471,-0.025955149125410942,0.027858695525099657,-0.8569594990890451,15.12381519750125,17.138663974765542,-110.45295404032551,45.35091664802172,6.4357051092657525,0.9322622199778868,-0.2452477666383309,166.2518,167.17532880319285,6.0,8.086522754552236,-2.361788492479648,-0.37661418040830297,-15.793771104604001,15.18032393291543,1.5574729000000002e-19,2.3642943138737204e-18,6.2661117077737245,-0.9923406761594966,1.7016913093139183,15.193412773758574
8583,8583,6.706352000000038,0.0,2500.0,-2500.0,0.0,0.0,8.0487349002134,39.679068730857885,87.26278684216044,104.0,11.089727834062849,1.2659102811387206,1.4610898188612793,6.461537593197361,-0.06797640513842412,0.09168392127789772,-0.1240337302597974,0.44128913544321424,0.02142083151909375,-0.15995917767811227,0.007132516481378956,-0.5483837013197822,14.8191245243803,17.195338987523364,-109.83211838781315,45.40860681215991,6.423222576864653,0.930569965270252,-0.19337655848347024,166.2518,167.17685860627876,6.0,8.130880828834247,-0.6754575875975819,1.7179970043086776,-17.18619186013168,15.180538480929384,1.5574729000000002e-19,2.364327729145469e-18,6.247434669539392,-0.9902368195640171,1.7110846593458922,15.31689246346822
8584,8584,6.801963999999884,0.0,2500.0,-2500.0,0.0,0.0,7.9651158951110075,38.858883432588634,87.26912678717726,104.0,11.56737705573183,1.2654326796819737,1.4615674203180262,6.501659888992945,-0.04841893849404694,0.1049178664714143,-0.12214417226190614,0.4397281078935892,-0.15226833763247025,-0.04911092631879718,-0.022082958777593448,-0.8714254659512459,14.530319945085926,17.047423830017312,-109.21502792212185,45.46238995919032,6.422933617093821,0.9307544427158708,-0.1522793974106813,166.2518,167.18572335565105,6.0,8.12761620075947,4.122663292058712,1.7230913621657538,-9.96083089129192,15.180751646661268,1.5574729000000002e-19,2.3643609291305298e-18,6.246655581137255,-0.983574142112468,1.71070527987452,15.31547612455535
8585,8585,6.921786999999881,0.0,2500.0,-2500.0,0.0,0.0,7.726450068590952,36.56510247999457,87.26839030043362,104.0,11.83416771900759,1.2650001,1.4623316811452132,6.553588300746198,-0.013713485583616007,0.13268716325479096,-0.1187991356792016,0.4389869743945531,-0.05615154047459163,-0.13161783906136512,-0.05690561805704125,-1.5545882761677443,14.030357510595074,16.728167792064937,-108.43920841425889,45.53131592740177,6.450301903921076,0.9216852570508074,-0.1355410001821984,166.2518,167.19709246371752,6.0,8.078998531245333,-0.9883642205239278,-0.5026154760569861,-12.888798205195513,15.180699459942396,1.5574729000000002e-19,2.3643528011904917e-18,6.283282106452612,-0.9836706944125696,1.6660122635270682,14.850257300354205
8586,8586,7.018203999999741,0.0,2500.0,-2500.0,0.0,0.0,7.363860207688493,33.2137582516228,87.26277494374851,104.0,11.352917687812305,1.2650001,1.4632942293326066,6.598825996178568,0.0095875936500065,0.1677327979905198,-0.11758063884173242,0.4407426288209728,0.031988884255983174,-0.10370183403002113,-0.04859794596094341,-2.1516508713546934,13.489136544627788,16.386899917440633,-107.8069441604427,45.586516787305314,6.492084247348704,0.8948058934573793,-0.15277993297533216,166.2518,167.1989706441446,6.0,7.954498406426772,-2.422341938342837,0.3334094975409449,-18.021133468253133,15.180246620928529,1.5574729000000002e-19,2.3642822727412756e-18,6.337669627686359,-0.9974381849261414,1.5891808440389494,14.076767034690207
8587,8587,7.110311000000024,0.0,2500.0,-2500.0,0.0,0.0,7.196651916428486,31.722477941987872,87.2442464758942,104.0,11.105016512338752,1.2647900564736712,1.4641051060106876,6.636726153556894,0.029814990287826724,0.18065430319511988,-0.11654363527314515,0.4442339184183832,-0.1376309901211991,0.04664185494225875,-0.07356518226364242,-2.524720299956663,13.100926378223306,16.092166487912777,-107.19789772532782,45.63929180306833,6.524992993184855,0.8687509196990544,-0.16605512912524684,166.2518,167.18702565976554,6.0,7.783191263631812,3.057225762055084,1.3406990712498954,-9.537936362102108,15.17981402457052,1.5574729000000002e-19,2.3642148970308517e-18,6.378323413034673,-1.0064375259355471,1.533375949925872,13.517630725179167
8588,8588,7.219680000000039,0.0,2500.0,-2500.0,0.0,0.0,7.326592847721367,32.878443563993514,87.21150344338102,104.0,11.641699421454929,1.263716636987148,1.4646417352515129,6.660876938135414,0.033683143645738406,0.18402756390989905,-0.11592078903829407,0.44866235033334734,0.03893074746281324,0.03913841360181336,-0.05517354831330658,-2.8065346871011543,12.988409136123053,15.738749377199078,-106.46455940254107,45.69768208825211,6.591226657607178,0.8316212438191409,-0.2035793950813644,166.2518,167.15019427285904,6.0,7.627369781752635,-1.8840204491298191,-0.4003426843616249,-15.799023166044991,15.17890886213842,1.5574729000000002e-19,2.3640739204350427e-18,6.4473636481847505,-1.0247592927986156,1.4985901219471398,13.085175497833928
8589,8589,7.315723000000048,0.0,2500.0,-2500.0,0.0,0.0,7.5628067818671205,35.03268599079388,87.18257781383085,104.0,11.879896514672234,1.2627597930293444,1.465,6.676880336462929,0.021206353682054903,0.18511215059907773,-0.11689545130816745,0.4513286359778711,0.15525567158423542,-0.07470565148770801,-0.02856358438592335,-2.801674300508098,13.001374487609462,15.4688033317699,-105.81415137078798,45.74680509879825,6.666717904348534,0.8032467047497032,-0.2379789409886873,166.2518,167.11252733696463,6.0,7.567401660946483,-1.7757752773034523,2.203710594147468,-18.534342122045718,15.177568783863457,1.5574729000000002e-19,2.3638652068753288e-18,6.52279282008761,-1.0398951666059584,1.4861860176732296,12.835442967707126
8590,8590,7.4118709999999055,0.0,2500.0,-2500.0,0.0,0.0,7.723469057147589,36.53684000957436,87.1535097371246,104.0,11.378389092313151,1.2617567781846262,1.465,6.67637857828686,0.008238298296398888,0.19015598313288,-0.11904421510581585,0.4521778981274038,0.08464893861479375,0.02655516856257377,-0.0340328690119991,-2.582132675986895,12.981027417145393,15.268881419029649,-105.15541220623794,45.792332417459725,6.713495771164057,0.7711218507077838,-0.21019486965235595,166.2518,167.07539545536252,6.0,7.580238295311557,5.6718615245257356,0.9096465783947298,-6.114411182288236,15.176227240534105,1.5574729000000002e-19,2.363656265137365e-18,6.556103153007597,-1.0562892099046814,1.5243264015539306,13.089001574822895
8591,8591,7.532191000000012,0.0,2500.0,-2500.0,0.0,0.0,7.864478904731125,37.88319453562502,87.12076222779638,104.0,11.0,1.26076812337443,1.465,6.675768100184449,-0.032253367360807916,0.2026050917797608,-0.1221443391633358,0.4514756047912971,0.17701986430447178,-0.13755384492478842,-0.0005931947271019168,-1.8859125389229123,12.769915561166927,15.157012292864742,-104.32309188419809,45.8454263742584,6.80940074316684,0.7443402631063729,-0.19600225574862215,166.2518,167.04270053357314,6.0,7.635769845988164,-1.686171054954606,2.255350710860137,-18.64019979256931,15.175951677579596,1.5574729000000002e-19,2.3636133469539758e-18,6.64308280714863,-1.078640948680908,1.5386586602115202,13.040789284542148
8592,8592,7.627699000000121,0.0,2500.0,-2500.0,0.0,0.0,8.012129785856255,39.31896289665466,87.09677738734501,104.0,11.0,1.2603045836734292,1.465,6.675304514124843,-0.0477762124618436,0.2118254640450533,-0.1217768328259698,0.4495143409356757,0.18896764601238594,-0.06870375056982814,-0.013105930647413444,-1.2675800781031106,12.534201440983729,15.088046442905098,-103.6556118500179,45.88721025557173,6.869371781481621,0.7350232627780932,-0.15279451004952682,166.2518,167.01706854187483,6.0,7.723819870777656,7.82501930352413,-0.4754635812110779,-2.3297923842604504,15.177058481406903,1.5574729000000002e-19,2.3637857286506407e-18,6.694415961442241,-1.0821923859289455,1.5655026439528767,13.162202742656385
8593,8593,7.72368599999993,0.0,2500.0,-2500.0,0.0,0.0,7.941140438173917,38.625309989430825,87.0775400039668,104.0,11.0,1.2600001,1.465167092047453,6.7279628827544204,-0.07243269341244135,0.22384118836064612,-0.1255560482661637,0.4475992752153914,0.191451868238644,-0.10833989751938723,0.020222409426211497,-0.7433360591978911,12.227849520513905,15.078035137301214,-102.9806539410886,45.92823039251849,6.942197625001956,0.734396600064512,-0.1468716934930946,166.2518,166.99484258008096,6.0,7.810981880865562,3.9159309027067484,-1.6781252746410198,-5.235394838012758,15.178170836172695,1.5574729000000002e-19,2.3639589748909317e-18,6.76893468591586,-1.0889896484388983,1.5488480704266898,12.888378425649572
8594,8594,7.819713999999749,0.0,2500.0,-2500.0,0.0,0.0,7.853074398689882,37.77336633246054,87.0614222511467,104.0,11.0,1.2600001,1.465649649418143,6.880918273723957,-0.09025428824329608,0.2201807116240352,-0.12175670861287075,0.4465111465929554,0.07774325601208944,-0.048728497298812665,0.021322642181860942,-0.1629005668165441,12.140984143155865,15.128363053912768,-102.30365782464813,45.97166011845066,6.991559036977166,0.7402137305809778,-0.11717100050214507,166.2518,166.97825070200003,6.0,7.860106732919992,6.716780124700089,-0.1564666549130036,-3.430046981580216,15.17898398140491,1.5574729000000002e-19,2.364085620057225e-18,6.811801158469143,-1.0891091909289288,1.5790404826375066,13.051195369494609
8595,8595,7.9293879999999035,0.0,2500.0,-2500.0,0.0,0.0,7.8054195161544015,37.31630283624853,87.04894551026614,104.0,10.797247212688522,1.2600001,1.4664055852993445,7.021602008323869,-0.09687512180129153,0.20394767042246328,-0.11711187575181492,0.4454621209725124,0.06934777811973955,0.015602361829198774,0.016441393313422887,0.16597826100210375,12.377564958144614,15.168539563761255,-101.51945962946863,46.019307889660084,7.034195481048907,0.7543229081096315,-0.05039583564203564,166.2518,166.9719050347222,6.0,7.872443093750002,-0.17214816396425106,-0.9472671716967,-13.34907160865612,15.179481830124178,1.5574729000000002e-19,2.364163158646081e-18,6.834912136188286,-1.082465078024316,1.686818106715667,13.863250651961366
8596,8596,8.025254000000018,0.0,2500.0,-2500.0,0.0,0.0,7.933221947234224,38.54835272435783,87.04195667150391,104.0,10.310528827602289,1.2600001,1.4673789733976783,7.092663135905652,-0.08516497538114137,0.17741431518430215,-0.12005684045677735,0.4442772829307165,-0.011032031065364573,0.17131147413492642,0.0042685449341303,0.020008046215110625,12.825277339657207,15.224342181589046,-100.82981862759036,46.065032998385185,7.073354569168371,0.7568267015879118,0.013405306239022051,166.2518,166.96625856015777,6.0,7.893953434911303,-1.2428368551716422,1.584556137603509,-18.263003181030303,15.17991699949268,1.5574729000000002e-19,2.3642309350959167e-18,6.8456470780417416,-1.0985202386336763,1.8224297586305556,14.907377608549295
8597,8597,8.121084999999994,0.0,2500.0,-2500.0,0.0,0.0,8.14117427367446,40.59571539096269,87.04341381011206,104.0,10.0,1.2603377791619386,1.4683376791619387,7.143234442590256,-0.05631562897851272,0.1580933121659187,-0.1269534756252087,0.4422782675859905,-0.0369795193548943,0.03538210924229626,0.03677217625558109,-0.4913650226372941,13.276263365492408,15.344575921028886,-100.13271809000251,46.103164088902645,7.105554588272913,0.755177269492814,0.08700494900383131,166.2518,166.96512353709562,6.0,7.961784615981115,1.7254027340585838,-0.8484031446762836,-9.776000982870068,15.179967542116106,1.5574729000000002e-19,2.3642388069725446e-18,6.843638238632552,-1.135864741455415,1.968667472516996,16.048615264930913
8598,8598,8.241875999999934,0.0,2500.0,-2500.0,0.0,0.0,8.167272661950811,40.856414945312686,87.0549248204359,104.0,10.0,1.2615143282461,1.4695142282461,7.161470659257487,-0.04101850468319524,0.1496504368752502,-0.13062948233684665,0.4393286122466509,-0.0952913951684972,0.05793597830194274,0.059537365046829424,-1.0864881935471382,13.61421722770617,15.694121912762293,-99.24956281496573,46.15289805328693,7.153850418914471,0.7534999809235198,0.1559347091343001,166.2518,166.9757429018565,6.0,8.055838951056089,-2.3651558251347677,-0.7476870281462055,-16.39500365037029,15.179417950393994,1.5574729000000002e-19,2.3641532095512197e-18,6.855032126615747,-1.2102520372906218,2.105070592318655,17.07088370536084
