,Unnamed: 0,timestamp,thrustinput,Position state,Position state2,PA-ON,PA-ON2,Airspeed[m/s],Differential Pressure[Pa],GPS Altitude[m],GPS Noise Magitude/ms,GPS Satellite Num.,Horizontal accuracy[m],Vertical accuracy[m],Groundspeed[m/s],Roll control,Pitch control,Yaw control,Thrust control,Roll Angular Rate[deg/s],Pitch Angular Rate[deg/s],Yaw Angular Rate[deg/s],Roll angle[deg],Pitch angle[deg],Yaw angle[deg],Local X[m],Local Y[m],X-velocity[m/s],Y-Velocity[m/s],Z-Velocity[m/s],altitude set position,altitude(Tecs),airspeed set position,airspeed(Tecs),X-acceleration[m/s^2],Y-acceleration[m/s^2],Z-acceleration[m/s^2],Battery Voltage[V],Battery Current[A],Inst. power[Ws],Body_Uvelocity[m/s],Body_Vvelocity[m/s],Body_Wvelocity[m/s],A.O.A.[deg]
5715,5715,0.0,0.0,2500.0,-2500.0,0.0,0.0,13.500563845986052,111.63755190700813,81.64329856022509,103.0,11.557614913652387,1.286345733720423,1.3894609635477275,12.988846671114356,-0.16349906308499168,-0.2274205266231093,-0.034739592265420886,0.2912037404665612,0.5141655052153646,0.15976903999886552,-0.06104340546786258,-8.028018047339298,9.304428672940343,7.146254129151259,-307.41122878743516,73.8886417420033,12.424694896574257,3.109977948386063,1.3371945797265128,166.2518,161.58697531267129,6.0,13.818076870247646,1.082667423380408,1.2059769300810548,-14.220097284902966,15.609924846873861,1.5574729000000002e-19,2.431203492004269e-18,12.331579860246306,1.0484962929587316,3.0932831515771566,14.081661524533766
5716,5716,0.09363699999983055,0.0,2500.0,-2500.0,0.0,0.0,13.245896510607134,107.46546182673798,81.74462872158338,103.0,11.098612261704757,1.2835917637090024,1.3857889882324121,12.874554551776749,-0.13647082279841516,-0.2150212430119081,-0.06932786006246232,0.2856995865313743,0.04179582620327936,0.2268837877242092,-0.06791878487383639,-7.472410199208581,10.51314797771528,6.657362144250786,-306.2366093587833,74.19076661613991,12.348989451541295,2.8940723978022764,1.5243824378240904,166.2518,161.7020167813107,6.006558,13.77627080921485,2.677328170095461,1.9841449749422853,-13.236625881215382,15.61897912815864,1.5574729000000002e-19,2.432613671777271e-18,12.111560393683686,0.9247687535928916,3.5024977714917647,16.1291466892926
5717,5717,0.1896040000000312,0.0,2500.0,-2500.0,0.0,0.0,13.130208324003375,105.596455207803,81.87504153919744,103.0,10.6226574665065,1.28337740479924,1.3846227574665064,12.818680569720039,-0.03934262865580362,-0.24495068106172466,-0.12754269870105026,0.2841776890770644,-0.05550466185610839,0.2351120083731695,-0.002675570916981982,-8.27148018354597,12.043431808213489,6.396835068736857,-305.05081214819404,74.47820741004732,12.210215013724847,2.6488509534973756,1.7995926861040852,166.2518,161.84382413157502,6.000171947369998,13.673492727259088,2.4411056958560917,2.7927805010327917,-14.636405026249333,15.62825871007666,1.5574729000000002e-19,2.4340589415133348e-18,11.780251001231015,0.6176779747927321,4.042711418708141,18.941042539520094
5718,5718,0.2862299999998186,0.0,2500.0,-2500.0,0.0,0.0,13.073039458834215,104.67893913585871,82.03520887717713,103.0,10.141957405316298,1.2838580567904243,1.3841420574053165,12.778782464641251,0.13454681516669875,-0.2767153738392505,-0.1266699978904799,0.2838812956015987,0.06840331417064946,0.14009231104545786,0.0015275034651871626,-9.414967680718,13.28432189081311,6.311235429996621,-303.87426638564204,74.74021205373195,12.041895379463071,2.356466403363485,2.1273489358786297,166.2518,161.99402636477728,6.000000293739644,13.54369969968376,2.4322899898275288,-0.6494282924642807,-9.298243037714103,15.637602014362598,1.5574729000000002e-19,2.4355141358355158e-18,11.411931111705634,0.1928550607104632,4.580450217981877,21.86923357882334
5719,5719,0.3839359999998351,0.0,2500.0,-2500.0,0.0,0.0,13.070045284616786,104.63097829156752,82.22369471915017,103.0,10.354228972919657,1.2857711448645983,1.384708522522942,12.575716354623387,0.11215791881680867,-0.3042984302709957,-0.12200724536875344,0.2825782406094231,0.1912741552728264,0.2673009970156027,0.15346822700747811,-7.838934677051772,14.245647979122891,6.534620609293977,-302.6983769954938,74.97723972181088,11.851708283294881,2.063168754090129,2.428391362294272,166.2518,162.1800082149463,6.0,13.407447178455374,2.2858994681334663,-2.5199565187393502,-8.79784642431771,15.645221701850538,1.5574729000000002e-19,2.43670088151241e-18,11.042632048187695,-0.044647431959587584,5.086900763689426,24.7336414441853
5720,5720,0.5034550000000309,0.0,2500.0,-2500.0,0.0,0.0,13.070012866236516,104.63046168946163,82.50841286446492,103.0,10.966293170551953,1.28883146585276,1.385932589711787,12.245201687901945,0.02418752167368533,-0.3268730887868717,-0.118950932324855,0.2786572339506062,0.3577545390198104,0.13904931828432934,0.0644033237635735,-4.041962035716035,15.148406247835565,6.684979433446898,-301.2864068855259,75.23101536751764,11.584957216937045,1.8024394350122157,2.7649747835571437,166.2518,162.46006508643964,6.0,13.260331777355773,1.534911790256123,-2.356839296958938,-8.702718536584117,15.654519301743779,1.5574729000000002e-19,2.438148957499286e-18,10.586366803615796,0.022304098547701327,5.600882172918254,27.88177562244831
5721,5721,0.5975029999998469,0.0,2500.0,-2500.0,0.0,0.0,12.960622564304488,102.88638217551471,82.76326383172706,103.0,10.56643550761656,1.29160143031075,1.3873006934771503,12.057910281534948,-0.03067603973506537,-0.3417954265252565,-0.11868511322338456,0.2737256357526327,0.4527525037621597,0.050754757367579034,-0.025529560594552633,-1.3792738590547668,15.480625337966327,6.6060699484902,-300.19957058188686,75.41104174075312,11.361805929315656,1.6920717498321798,2.959744774846735,166.2518,162.7103992462988,6.0,13.136079043741569,0.5373347034726642,-3.751289116330523,-11.936029917212846,15.661683572821785,1.5574729000000002e-19,2.439264773304511e-18,10.2745142552309,0.21776824161385167,5.815325685715559,29.509652499571466
5722,5722,0.691297999999847,0.0,2500.0,-2500.0,0.0,0.0,12.755971068741882,99.66283788845631,83.04612788706108,103.0,10.101498485652273,1.2943910989362375,1.3886955045430431,11.8765853079059,-0.059723951918732414,-0.3469862156234743,-0.11177612372717724,0.2677676333565657,-0.09312695351879452,0.0289209480250652,-0.008293700578574596,0.4640292029608533,15.656473104242327,6.355610313680695,-299.1402778401244,75.58080247982797,11.11785228040802,1.6452149223406605,3.2876469879256964,166.2518,162.99417223644082,6.0,12.989366064383937,1.6535047954765791,0.14826697185160853,-10.204068285308098,15.667339280851149,1.5574729000000002e-19,2.440145634503116e-18,9.927684000448867,0.43955104592875255,6.087408963319156,31.515590295390812
5723,5723,0.8112459999997554,0.0,2500.0,-2500.0,0.0,0.0,12.417680512946205,94.44676290413011,83.42659304046828,103.0,10.517970027389758,1.2960359882577768,1.3879641117422232,11.525700495568726,-0.07449783139141364,-0.3568332647893675,-0.10964439869983954,0.26009944896319004,-0.12407485211137233,0.0290374348468051,-0.019723535024857183,0.7638654203614512,15.360617916162866,5.766127466180578,-297.80867666217824,75.79400012100106,10.829590525421818,1.6130340423907858,3.5046960658965176,166.2518,163.39513215632618,6.0,12.747700515747036,0.8972524318740889,3.702523835915137,-11.842328929245674,15.674571978401197,1.5574729000000002e-19,2.4412721075459253e-18,9.617793966907227,0.5820580515149816,6.139134316181003,32.550498257185524
5724,5724,0.9096859999998514,0.0,2500.0,-2500.0,0.0,0.0,12.161293151048493,90.58701748871657,83.75300174405038,103.0,10.971637031310594,1.297,1.386971734195014,11.221676729174817,-0.09118887215639014,-0.3681395963870833,-0.1086209132220678,0.2563216725812803,-0.030227605037957263,-0.05653771763407708,-0.07138747657176288,0.9019417416130079,15.189226372465004,5.326709867954034,-296.74121055562836,75.96684426560881,10.623736389069618,1.5719066255765068,3.5054575032913533,166.2518,163.72823359839157,6.0,12.505617032570985,1.2821095032170855,-2.1626595885441704,-7.795700271363438,15.680453254051098,1.5574729000000002e-19,2.4421881002901407e-18,9.430701642621003,0.6561248644754174,6.040276933953137,32.63918505260593
5725,5725,1.006101999999828,0.0,2500.0,-2500.0,0.0,0.0,11.948551599999998,87.44535719999998,84.07914813468598,103.0,10.505769230769497,1.297,1.3865058198076925,10.986413955769363,-0.10725897957952343,-0.3775992216309112,-0.10987078758541753,0.25465475339185634,0.07225914383104562,-0.058019945271819376,-0.09771717200696213,0.4665147728332673,14.953658389783412,4.925467790770526,-295.7190922229223,76.15432739519255,10.421186759925432,1.550216456977178,3.4653955029131787,166.2518,164.0472309822896,6.0,12.244501680419269,0.3521800237167706,-3.176603941699666,-9.174534822782242,15.686015999853351,1.5574729000000002e-19,2.4430544828738e-18,9.265482916032633,0.6770813738499694,5.893657530420921,32.45992826378433
5726,5726,1.10149999999976,0.0,2500.0,-2500.0,0.0,0.0,11.876131639245706,86.38853952090747,84.40700888403016,103.0,10.044820255121767,1.297,1.386044824737147,10.753635184016238,-0.11080812463067084,-0.3841643916666709,-0.11728746342729145,0.25143969986140874,-0.2968514716210672,-0.014323849962376694,-0.02541817433481195,-0.7526064023211563,14.751193749548916,4.540626535121254,-294.7289467131754,76.335350083561,10.210899485922484,1.512499016960486,3.5462610032350206,166.2518,164.37071275767426,6.0,12.000325588719607,0.5097969653318597,1.6125254270167697,-11.494735934422355,15.691520011885006,1.5574729000000002e-19,2.443911717831857e-18,9.056199079648687,0.5968560559363149,5.873023365089012,32.963757349416625
5727,5727,1.2196179999998549,0.0,2500.0,-2500.0,0.0,0.0,11.84800425817776,85.97982066021568,84.8159496869512,103.0,10.0,1.2986167033087928,1.386,10.558557856265793,-0.15290077481605402,-0.3848016430010003,-0.12263802311400135,0.2450714846422876,-0.019525778710470683,-0.11314677860510786,-0.04791938910788463,-1.2286034230252914,14.240418938775596,4.323425192319276,-293.5306540005384,76.56620003264253,9.975169686839187,1.4525303450738247,3.530041307109081,166.2518,164.7894469532226,6.0,11.755778211222566,1.0039715525606154,-1.0666519476283844,-8.188581981689353,15.698298637805642,1.5574729000000002e-19,2.444967470448921e-18,8.878917258139456,0.5486007709490748,5.722663488074657,32.80269809358568
5728,5728,1.3072720000000118,0.0,2500.0,-2500.0,0.0,0.0,11.88420341520683,86.50601581513192,85.12113198189614,103.0,10.0,1.2999186870267418,1.386,10.41968378815892,-0.1494638126222538,-0.3856455936612218,-0.12816588216170846,0.2389090006974241,-0.17514665670336366,-0.08313566444317293,0.006539890796082071,-1.8788617760567503,13.865085635122721,4.284769411584102,-292.6611025755242,76.73001116231453,9.819053453404894,1.4059051481182423,3.414337256579525,166.2518,165.09943551142015,6.0,11.62205964001983,0.9082422479594484,-1.147126688415157,-7.681845732257804,15.70325287931498,1.5574729000000002e-19,2.4457390801380053e-18,8.79008829704542,0.4624456875568167,5.523230696216523,32.143100861756245
5729,5729,1.4278610000000072,0.0,2500.0,-2500.0,0.0,0.0,11.72431024756356,84.19394320140013,85.5046674058578,103.0,10.0,1.3029361840309563,1.386,10.142641919570597,-0.13014945887676488,-0.38772390366545706,-0.13645357371027633,0.2311819055563361,-0.05755005235964832,-0.07006957802768796,0.03320759882088868,-2.7605459646532644,13.361803221405669,4.406969916590559,-291.4783292673974,76.94549449976462,9.626056525782786,1.3282424668267918,3.1779354261661377,166.2518,165.4986753953956,6.0,11.476770324324248,0.4949695179896045,-0.6550374343389784,-7.0179182510082905,15.710068621087961,1.5574729000000002e-19,2.4468006134484866e-18,8.702671809030424,0.31194826972924544,5.192193328776125,30.82117291451864
5730,5730,1.5215929999998252,0.0,2500.0,-2500.0,0.0,0.0,11.579963674091802,82.13355854530919,85.78195609019055,103.0,10.060929173460284,1.3053656750407616,1.3858781477459967,9.938097546656039,-0.103935519895056,-0.3888244611889629,-0.1384767669721622,0.2265872812910829,-0.01553947316599258,-0.09177835142072556,0.03483076873013677,-2.8401512942774154,12.914387612910636,4.674537821356823,-290.5733611189077,77.10343109213278,9.490565398628881,1.272854438487686,2.9136152245713425,166.2518,165.77466370468392,6.0,11.361144207655055,-0.37447456568786097,0.0702003668104002,-7.151262596973145,15.715441507891107,1.5574729000000002e-19,2.4476374260075543e-18,8.669662640926713,0.2360401086757583,4.860352520038715,29.275692252667397
5731,5731,1.6168739999998252,0.0,2500.0,-2500.0,0.0,0.0,11.295540109341488,78.14843516011553,86.02801459378945,103.0,10.51387390128288,1.3080833434076973,1.3849723035848245,9.819879425639071,0.01912244562927953,-0.3961590052631421,-0.1276259523513484,0.2236969463862388,-0.13503118377820691,-0.0767951760803531,0.011733773373133874,-3.634733106716564,12.573521982826176,4.872069521362881,-289.6658048071679,77.25564654043133,9.362490100165418,1.2319725911178003,2.670216373399617,166.2518,166.0228922921459,6.0,11.228507353476855,0.3391692324057365,-1.337035663322338,-7.5338895903561935,15.721055706623865,1.5574729000000002e-19,2.4485118222457022e-18,8.625775018943987,0.12657847783867654,4.556239515284746,27.843560268524328
5732,5732,1.7136050000000296,0.0,2500.0,-2500.0,0.0,0.0,10.932261765600838,73.2026243111547,86.25481629173092,103.0,10.973711607300329,1.310842369643802,1.38405267415656,9.699862244206221,0.030869841748728574,-0.3976507358434623,-0.12665560566413006,0.2227724465958632,0.1966372304248591,-0.10073946458187608,0.031914433840629496,-3.633135716431037,12.145292576687071,5.04900017014704,-288.7558779807938,77.40393353199967,9.240280547884305,1.1844112056906824,2.3952226780422694,166.2518,166.2459418659567,6.0,11.042480342689364,0.636349012266064,-1.7091528241752978,-6.9097647428884335,15.726755343042655,1.5574729000000002e-19,2.449399525171914e-18,8.596375600451665,0.08590857529073043,4.214302538801937,26.11602413179997
5733,5733,1.8350349999998343,0.0,2500.0,-2500.0,0.0,0.0,10.587523898906648,68.65872799635564,86.48963548892277,103.0,11.0,1.3133944456186926,1.3834014387701556,9.54035765072462,-0.0202093133185142,-0.3930965251638293,-0.12233390904779362,0.22437217692163008,0.2586896131556897,-0.1337079768682601,0.007984560409170003,-1.6059074690690225,11.283213515260018,5.193730639620427,-287.62771659474976,77.58265695046151,9.09273377623659,1.1661893489246054,2.009123960236832,166.2518,166.4781164217986,6.0,10.762588364357685,-0.1180863616857174,0.5534685903449394,-5.776849003192497,15.733397233696135,1.5574729000000002e-19,2.45043398164167e-18,8.590803648675061,0.22630670932149616,3.6950481495946574,23.273347784332234
5734,5734,1.9327409999998508,0.0,2500.0,-2500.0,0.0,0.0,10.171837732324398,63.373258497686756,86.65140457876177,103.0,11.0,1.315710240713104,1.3835073147950745,9.411519066234161,-0.05300292522265624,-0.3878179256600085,-0.11522339803045133,0.22847450852702886,0.19562332159762466,-0.1405806531910438,-0.0573484440311604,-0.2510176270886365,10.482820708753014,5.062145315418409,-286.73177563032414,77.72372208089355,8.985200294277849,1.1779107019247452,1.6848903180996389,166.2518,166.62504855571115,6.0,10.49829867773548,0.233383656034388,0.18874543939048327,-5.573042254700869,15.738032608906245,1.5574729000000002e-19,2.4511559287687773e-18,8.596421245575716,0.3596703249902595,3.2348164185160915,20.621220138753763
5735,5735,2.02484400000003,0.0,2500.0,-2500.0,0.0,0.0,9.811768534479032,58.966017504738325,86.766863288197,103.0,11.0,1.31898296937025,1.3858449781216071,9.289492573056481,-0.0835774818732065,-0.37832837522158186,-0.10665303415203642,0.2340964393323764,0.2058028126149437,-0.15587220223943685,-0.05198575318858725,0.7406091832579194,9.687552723406716,4.7808161086282,-285.8967155319418,77.85722088963671,8.894287025758308,1.1971984962936788,1.393080482766029,166.2518,166.7333059137317,6.0,10.212701471935665,0.32090772353623354,-0.19584261237572884,-5.295058136082244,15.742402166179874,1.5574729000000002e-19,2.451836475472645e-18,8.600887126322943,0.4825494531459755,2.8052282489806406,18.06403133845634
5736,5736,2.119311999999809,0.0,2500.0,-2500.0,0.0,0.0,9.522666906737212,55.542235479440954,86.86330088405182,103.0,11.0,1.3221915628889982,1.3881436685750346,9.160861230071141,-0.10874464328785187,-0.3644107014907947,-0.10234805022592644,0.2406123016833049,0.18968391247681146,-0.18249077190369928,-0.0911049068989962,1.6583845260343284,8.745228494355539,4.382718085310546,-285.04737304046023,77.99360422853134,8.811255812737327,1.2280153808051688,1.1339894465786202,166.2518,166.81761552912957,6.0,9.903061862396461,0.5931052859302242,-0.510065560556207,-6.83534798739511,15.746320872466885,1.5574729000000002e-19,2.452446803357153e-18,8.603690643739945,0.6161829639720332,2.386007025094885,15.4999532506337
5737,5737,2.2387719999998126,0.0,2500.0,-2500.0,0.0,0.0,9.625821266604882,56.752073881680616,86.94764116862612,103.0,11.0,1.3245850471186635,1.3899387368705758,8.959215224871986,-0.1249412901114389,-0.3429100225906102,-0.101616844534135,0.2469401913945429,0.13346313518020492,-0.1637363931466763,-0.09539286636426668,2.4157105164377755,7.647556932507013,3.8271569769585447,-283.98158512061053,78.16401137477243,8.710593203318382,1.2671020974539322,0.8321990299441651,166.2518,166.89679660799018,6.0,9.588187556559113,-0.2860040853927892,1.2968125602868743,-7.617899345765236,15.74952782293309,1.5574729000000002e-19,2.4529462772014286e-18,8.586938333038706,0.7607880988824193,1.9000179548952776,12.476718018476554
5738,5738,2.334581999999841,0.0,2500.0,-2500.0,0.0,0.0,9.68412046906268,57.441625329784756,86.99439390829842,103.0,11.0,1.3267505009296727,1.391500288131266,8.851381395523447,-0.12035099056628447,-0.3380465577382209,-0.1034446634913089,0.2501082252437912,0.048897133459151886,-0.08769442820493606,-0.07281894228214869,2.3317214211811805,7.0877592825067754,3.3866086956542905,-283.1375275007,78.30177898272207,8.643833512178544,1.2876017388713337,0.5568406954485703,166.2518,166.93291574455472,6.0,9.439842343013824,0.1561744797195883,1.5830134497220159,-7.680967927652677,15.75209987989079,1.5574729000000002e-19,2.453346868102316e-18,8.569573462921715,0.8349960589041081,1.5297252561676435,10.121070918717992
5739,5739,2.433289999999829,0.0,2500.0,-2500.0,0.0,0.0,9.886445890695592,59.866931931810065,87.01145908937572,103.0,11.0,1.3296916768733749,1.3934611537944281,8.895990464350072,-0.1882989710201346,-0.33010030190376616,-0.09448802238464264,0.2519205852091489,0.040679483983703815,-0.051291722782785126,-0.017711634369314302,2.3418095128125858,6.760738232885203,3.0978346558783896,-282.2773788956885,78.4440708345332,8.586049110471176,1.2897266172346211,0.3113054322054776,166.2518,166.94524827117604,6.0,9.378518169561668,0.7517549905322227,-1.7941879068426116,-7.184880312975086,15.75449110808558,1.5574729000000002e-19,2.4537192954134267e-18,8.546451411010569,0.8723220321951458,1.2285550859820884,8.180247588370946
5740,5740,2.52948600000002,0.0,2500.0,-2500.0,0.0,0.0,10.011121846752593,61.386328025694674,87.00945921175985,103.0,11.0,1.332749061273469,1.3958427845693868,8.908435529136748,-0.2923853622041437,-0.3153915362799317,-0.0898628421791672,0.2523736918266639,0.09841727641076116,-0.057879631478607675,0.02210937497440716,2.8043128769366867,6.451199377193264,3.0393483348863195,-281.44278302976664,78.58157994000466,8.538060418198581,1.319064680601505,0.10911216256972596,166.2518,166.93514197323913,6.0,9.403979137087182,0.44832056036442747,1.5076034775110307,-8.279172127336857,15.756471687537921,1.5574729000000002e-19,2.454027765295758e-18,8.529299497143295,0.9115892525927446,0.9758204306559736,6.5267199917633345
5741,5741,2.6247329999997646,0.0,2500.0,-2500.0,0.0,0.0,10.170117671572854,63.35167904502142,86.99264924507249,103.0,11.0,1.3365588460288504,1.4001287447968815,8.793665763380877,-0.27754161448705,-0.2934855622851135,-0.09518149103142534,0.2511251004528646,-0.2697008433837282,-0.08936856953732376,0.047519477640172836,2.560097152226792,6.010896123455282,3.1408030681316257,-280.61755040879746,78.71887163969014,8.504540244778793,1.3486746557330778,-0.06445361925165118,166.2518,166.91077700974972,6.0,9.486931138305364,0.8588239222276751,-1.3443707239647391,-7.675502572316518,15.758432728029176,1.5574729000000002e-19,2.4543331920378515e-18,8.525314796673229,0.91304614061892,0.7398213964849413,4.959666362497438
5742,5742,2.743333000000007,0.0,2500.0,-2500.0,0.0,0.0,10.209710006578954,63.845891712320636,86.95401405198221,103.0,11.0,1.3414580975013959,1.4049720704012318,8.700207407094414,-0.21793830454778795,-0.2721872566752658,-0.11569547828148265,0.24801403105101005,-0.11874889361813933,-0.08236097191860033,0.062375035953758165,0.6657176473575825,5.389225131240656,3.4464583652443705,-279.59474438321325,78.89093488430001,8.467239076025807,1.3827879669305188,-0.2696369560579753,166.2518,166.86605380438104,6.0,9.644104199796248,0.2525078087236663,2.2379998667987664,-9.104179826723744,15.760529862230468,1.5574729000000002e-19,2.4546598150064686e-18,8.522649327586452,0.8736158904520794,0.4513095391965386,3.0312173474869573
5743,5743,2.8392370000000255,0.0,2500.0,-2500.0,0.0,0.0,10.020721329113794,61.50409883151304,86.92099606496893,103.0,11.0,1.3457516706161237,1.4078344683796629,8.730261607898266,-0.2126710363029401,-0.2656699708686221,-0.12575466613934808,0.24526558305847665,-0.08331831860082536,-0.0284450805866893,0.12515374563782813,-0.09459063766568304,5.195233794907653,4.13432878112026,-278.76901327294155,79.03227132633369,8.465885824849419,1.4021832644598058,-0.253835912311531,166.2518,166.82496707289758,6.0,9.749430427051527,0.6490981331140895,0.15601703390830224,-9.97688306325766,15.761861423902168,1.5574729000000002e-19,2.4548672021283043e-18,8.532827657770282,0.7840880435138748,0.4495787312498766,3.0160186695276026
5744,5744,2.935649000000012,0.0,2500.0,-2500.0,0.0,0.0,9.941387973862383,60.534113471579296,86.8868430993731,103.0,11.0,1.3498516452876392,1.4102433986536111,8.748134026927776,-0.1849867556338591,-0.24531739412206024,-0.13424566267508278,0.24224457022497425,-0.151298724646942,-0.0983581639702358,0.08100960549121193,-1.1832632959661955,4.891980084673329,4.734508105344542,-277.9389729836841,79.17479281002741,8.457653097752251,1.426218291184105,-0.1908846521895821,166.2518,166.7931095828097,6.0,9.81564228801208,0.7380860203200208,1.401360381176086,-10.798456642952656,15.763200038807616,1.5574729000000002e-19,2.4550756877721812e-18,8.531657927381628,0.7095100124777219,0.4768422895247142,3.1989861354466025
5745,5745,3.033430999999837,0.0,2500.0,-2500.0,0.0,0.0,9.852001546837954,59.450450992559325,86.86586978262682,103.0,11.0,1.353342434761322,1.4112407670746634,8.728186658506731,-0.2011123413753811,-0.24116662591640498,-0.13733311894760514,0.2391261803457627,0.07740946330190945,-0.017197390008846344,0.08974323319216013,-1.5473949565718248,4.6191392778037335,5.347747361244023,-277.09340948512585,79.32127390478479,8.462043607947432,1.4511356622133371,-0.12702100235033928,166.2518,166.77188828636022,6.0,9.867136207184126,0.5057170031363051,1.4260545645557956,-10.656327221257435,15.76467530703333,1.5574729000000002e-19,2.4553054568003598e-18,8.542883004441741,0.638825629747472,0.5097348293008431,3.4146632323237527
5746,5746,3.1542200000000093,0.0,2500.0,-2500.0,0.0,0.0,9.498700554919804,55.263086872996475,86.85227975438889,103.0,11.0,1.3573940023289874,1.411303125603801,8.734837803154138,-0.19798204197535893,-0.22174983563433787,-0.1341788801786503,0.2364177791575029,-0.20663344719366866,-0.09374029205453464,-0.053975516088748,-1.9414870763146768,4.374143290044617,5.675054905193603,-276.04845534290337,79.50775616667345,8.478411215079786,1.5117584253169525,-0.03300942450451959,166.2518,166.76340876504054,6.0,9.847880643659062,0.8035854227091158,2.133712651830084,-10.446526091494288,15.766701743823335,1.5574729000000002e-19,2.455621068838759e-18,8.563856556541477,0.6429372942568762,0.5708112195127586,3.8133251528348255
5747,5747,3.2498299999998608,0.0,2500.0,-2500.0,0.0,0.0,9.337098599084127,53.39862078216749,86.8486511530201,103.0,11.0,1.3602696928536335,1.4098652324133023,8.779890288040258,-0.12530132590132892,-0.1871685659729649,-0.14762376209248892,0.23661863249028434,-0.4350267935586869,-0.14548186832775334,-0.16183354081330178,-4.121345963621192,3.6474891822850415,5.1571575880121685,-275.21685881008784,79.66005863565941,8.510037106366392,1.5148217513009667,-0.0189328497999809,166.2518,166.76229351639668,6.0,9.77268195732912,1.2439864638478624,-0.761521142844904,-9.946482692526017,15.768305760923335,1.5574729000000002e-19,2.4558708901551974e-18,8.595511674255105,0.7042174976602482,0.4802824638631007,3.1981311138209327
5748,5748,3.3431509999999207,0.0,2500.0,-2500.0,0.0,0.0,9.350620317830039,53.5533925476262,86.84780000970902,103.0,11.0,1.3627362043491875,1.4080798465596789,8.805527938526176,-0.08789172186877954,-0.1661009847227728,-0.16591571711684944,0.23775128247437946,-0.17520048003547345,-0.07638865566294821,-0.1023888087273728,-6.1358611935951695,2.9539860620868366,4.524519141713748,-274.4014255209178,79.80273687815105,8.560666907093081,1.467990535596371,0.002880024232327825,166.2518,166.762609413412,6.0,9.700939819822992,0.7259039335837261,1.0517036398065274,-10.150774329773213,15.769675815380205,1.5574729000000002e-19,2.456084272424008e-18,8.638150602427622,0.739101425210293,0.4054500330948209,2.68732736496148
5749,5749,3.440306999999848,0.0,2500.0,-2500.0,0.0,0.0,9.291861092216397,52.88245304458656,86.85959819186056,103.0,11.0,1.3647344986337422,1.4055819162557286,8.801531749625914,-0.0934510617951046,-0.152030187277959,-0.17031474498672414,0.2366577306372501,0.057480448690176995,-0.06595869229353153,-0.0931701304853794,-6.393900252965803,2.4394507052839707,4.0165174106617325,-273.5435920213248,79.94231605577922,8.635676687048418,1.3966818106412668,0.10722815822328036,166.2518,166.77557541318527,6.0,9.640850322549436,0.8748428648375206,2.188744531541566,-11.646124773934211,15.770928712047784,1.5574729000000002e-19,2.456279407684633e-18,8.69983640188166,0.7344323304330285,0.44142851563078217,2.904689027843898
5750,5750,3.5596389999998337,0.0,2500.0,-2500.0,0.0,0.0,9.268802405666301,52.620304643227136,86.88578708719689,103.0,11.0,1.366,1.4010476983344695,8.847713977481256,-0.09999400595883047,-0.14172172607011813,-0.16371560160532808,0.2328831305209852,0.037730577277875786,-0.02984959181824445,-0.14340444502701238,-6.066687443762183,1.9451887974311324,3.1998695183825148,-272.47842039244165,80.10891708623699,8.751051032645046,1.290328028393794,0.33145316523409885,166.2518,166.81374365095752,6.0,9.57349609059002,1.0730178625145466,1.1706684962612657,-12.028290699135125,15.772467584223824,1.5574729000000002e-19,2.456519082855708e-18,8.793105270874571,0.7327662189417631,0.5996053367250416,3.9009829811446144
5751,5751,3.658052999999768,0.0,2500.0,-2500.0,0.0,0.0,9.284024297176114,52.79328883214323,86.92873600647582,103.0,11.0,1.366,1.3960212673588954,8.930650088578227,-0.07351653093842203,-0.14646767355117002,-0.15924432728695265,0.22926291515251876,-0.04788235944421927,0.029096646724779112,-0.1660491133936552,-5.873004562705747,1.741366586899176,2.2903345707138056,-271.58962525971464,80.23805497268191,8.837211243401368,1.1971759833781568,0.4839551654144973,166.2518,166.858394025968,6.0,9.534740198296703,1.586135833143882,-1.1196762931066655,-11.632755263793484,15.773725835007793,1.5574729000000002e-19,2.4567150520054512e-18,8.859188261326437,0.765564142687998,0.7239414920151068,4.671628264372594
5752,5752,3.7510659999998097,0.0,2500.0,-2500.0,0.0,0.0,9.336501126585594,53.39178136584721,86.9778496967383,103.0,11.0,1.3652045036149012,1.3918786763064035,8.991312777389592,-0.007935184665163464,-0.15625324876927926,-0.1376231305483488,0.22510995062931544,0.10032572711659632,0.017831450045652984,-0.20148223709925936,-5.761365170741318,1.8557546105616085,1.3079260221157063,-270.7383457532314,80.35140562710205,8.917801074614909,1.1156215428837648,0.634685224053687,166.2518,166.9137878988949,6.0,9.515539300165011,0.93651734161861,0.06806751811436862,-10.88887341547242,15.774909816263802,1.5574729000000002e-19,2.4568994538774844e-18,8.915699832613859,0.8185531171515463,0.8896968459465828,5.6986745589406445
5753,5753,3.8470659999998134,0.0,2500.0,-2500.0,0.0,0.0,9.45037382266245,54.702113162932704,87.0473824515176,103.0,11.0,1.3637754147086998,1.3880677725565325,9.040377686806217,0.03880134600876259,-0.16169385959737154,-0.1116594591702263,0.21899158688432616,0.20639067433203365,0.0344281136808793,-0.16076509572212552,-5.065277455624748,1.8634003196902689,0.3314178452333452,-269.8506552604544,80.45889172359408,9.012887036679862,1.0093648217667237,0.851509006791894,166.2518,166.9909424281788,6.0,9.521907781014226,0.5773151674958472,-0.1404525066521462,-10.329217464972462,15.776131819645874,1.5574729000000002e-19,2.4570897775926144e-18,8.98611732934208,0.8556763288804495,1.1087190283346509,7.033681587879141
5754,5754,3.965011000000004,0.0,2500.0,-2500.0,0.0,0.0,9.870461531266136,59.67348050645978,87.1489714841761,103.0,10.673328472149606,1.3633267041950032,1.3837133319722,9.135601020848584,0.0290099073718587,-0.16945219215071772,-0.09925455498665672,0.21077030773226849,0.15416348340704011,0.07742700054281093,-0.18916705813070364,-3.5640816206938912,1.7337915333162226,-0.9587542964327108,-268.75359171761096,80.57731244294929,9.056975069618874,0.90619548615426,0.8235572476340878,166.2518,167.09607959918037,6.0,9.597916717627053,0.7294547725618241,-1.0309896282269913,-8.9680795789122,15.779391495286918,1.5574729000000002e-19,2.457597463239985e-18,9.011487851513957,0.9889547881634,1.0625885721523265,6.724972270064876
5755,5755,4.060804999999846,0.0,2500.0,-2500.0,0.0,0.0,10.434504547956488,66.68843981436977,87.23069366419563,103.0,10.19815275028887,1.3638019274344362,1.3803871494367472,9.235387922439338,-0.005515999826853257,-0.2035425094578704,-0.10323016963240828,0.20217881387959302,0.3846006064226613,0.15957872918281962,-0.1951082202826257,-2.4671217769335017,2.456184163256833,-2.1862020725885047,-267.85941648581303,80.66241670250045,9.083189879557846,0.8115537137622738,0.9215388949045692,166.2518,167.18326353305685,6.0,9.774735572635123,0.10483078042500238,-0.6778954581791031,-8.22679596340275,15.782995392672387,1.5574729000000002e-19,2.458158760491211e-18,8.997816816472637,1.100078419079764,1.2575295336171832,7.9560899200047634
5756,5756,4.16017399999987,0.0,2500.0,-2500.0,0.0,0.0,10.957174337953171,73.53688961135208,87.31510461005861,103.0,10.29324647765709,1.3654663323882854,1.3787068241976952,9.309550505643175,-0.13444161996920295,-0.20862930081432626,-0.10581505388843084,0.19176821634809715,0.7280027493436775,0.06798001573200813,-0.11136817866343338,1.3883138444575227,3.0642268822082417,-3.061114801450592,-266.929610646498,80.73993773770654,9.068091966771508,0.7408892307583346,0.8443813145225045,166.2518,167.26872139647116,6.0,10.067013209018429,0.5146393446267513,-1.7656419733511224,-7.150425079194412,15.786733786301394,1.5574729000000002e-19,2.4587410051678816e-18,8.957561945123144,1.2544332315946474,1.2592830453839166,8.002382348695374
5757,5757,4.255039000000011,0.0,2500.0,-2500.0,0.0,0.0,11.371975910191484,79.20976447473288,87.37643150962536,103.0,10.761403508772316,1.3678071175438615,1.378238620350877,9.361516170175484,-0.2114731281566183,-0.22921439218638906,-0.10693617106885678,0.18346609389387725,0.4977236876239812,0.16527044935159235,-0.10497456630714934,5.043350455163168,3.753290607343674,-3.6796003179655385,-266.0440111797676,80.80931601305932,9.033421087813236,0.7246927028516659,0.6546413976392871,166.2518,167.32911965147989,6.0,10.40498738614848,-0.014348061109148881,-1.63596131131996,-8.172358736891718,15.789475238705153,1.5574729000000002e-19,2.4591679789504306e-18,8.906201752703799,1.4091766669436792,1.1502128307522912,7.358868565821093
5758,5758,4.375620000000026,0.0,2500.0,-2500.0,0.0,0.0,11.701375347450442,83.86493104581014,87.44037884456294,103.0,11.0,1.3708730127341386,1.3776254549114268,9.239665998747485,-0.2430405968958533,-0.2647328208833053,-0.10611812576387387,0.17244529355248905,0.05109653077178772,0.26608170501927525,-0.09658277834127882,7.480960102966253,5.271207600381309,-4.267990196798681,-264.9190663178671,80.89069421642762,8.98697151505075,0.7150263431519628,0.4594716310743416,166.2518,167.3805474866961,6.0,10.859030651969313,-0.3277164857197121,0.07425712008385578,-10.347271739262137,15.79236647625348,1.5574729000000002e-19,2.4596182813633284e-18,8.828948731179143,1.5421535184636523,1.138171607155362,7.3456922595232355
5759,5759,4.465192000000002,0.0,2500.0,-2500.0,0.0,0.0,11.89114646662158,86.60713517914455,87.48907394413489,103.0,11.0,1.373195504385074,1.3771610030310728,9.05572489224258,-0.20216153365555065,-0.28622988188231346,-0.10777985609772203,0.16180857158149253,-0.2837540178456605,0.2029362404909903,-0.045203030699286766,6.619318133383205,6.611193767848543,-4.5166037405182315,-264.0859152398104,80.94921828574833,8.954165201822011,0.7140260276816811,0.5237823220477204,166.2518,167.41859844342042,6.0,11.18102769738871,1.0931047778891363,-0.9544612357381504,-11.156441863884297,15.794514193801673,1.5574729000000002e-19,2.4599527825511454e-18,8.750842942915874,1.5852041454977637,1.3681193635862847,8.885773196183258
5760,5760,4.556604999999877,0.0,2500.0,-2500.0,0.0,0.0,11.909103218589273,86.86888367560616,87.53919337071646,103.0,11.0,1.375461603086046,1.3775847012344185,8.921848851869791,-0.17465281661405094,-0.2800562752097683,-0.11329767294769034,0.14894644296427184,-0.15853276380301354,0.019206428150651617,0.060151233223724676,5.289864785279495,7.1780235004359865,-4.388113331402362,-263.24307131713545,81.00618859974425,8.922945056345903,0.6873225049896056,0.7288088885845914,166.2518,167.4735948017885,6.0,11.47016162278611,1.416729435022394,-1.019549945790423,-12.118369387548096,15.797646816392374,1.5574729000000002e-19,2.46044068003024e-18,8.68381894767445,1.5258502939740812,1.6494793123692209,10.755125054855792
5761,5761,4.6759859999998525,0.0,2500.0,-2500.0,0.0,0.0,11.868126956082671,86.2721366242012,87.64065043552569,103.0,11.0,1.3783511347331463,1.3787405138932587,8.783151332808975,-0.13812707651477402,-0.25931837795525725,-0.11985671265585825,0.13228379702490456,-0.2722921873741759,-0.06673890795592721,0.15463829791642988,3.9028087519334624,6.75702287634756,-3.636244709858659,-262.1503416630408,81.07738436178711,8.880515924246227,0.6357972568623284,1.0011184834905464,166.2518,167.57632793360338,6.0,11.769682152442467,0.8538871675749587,-0.4995369440047132,-11.974724783877035,15.80233862871198,1.5574729000000002e-19,2.4611714170842074e-18,8.643244166747396,1.3277360023134266,1.8865531596921896,12.312789586726367
5762,5762,4.770113999999808,0.0,2500.0,-2500.0,0.0,0.0,11.77496886751916,84.9230724488888,87.73638578462092,103.0,11.0,1.380350979331726,1.3786623379510343,8.8431872968291,-0.12396843878869802,-0.2509550800292191,-0.1234486046466401,0.1211482319327752,-0.22420217093348194,-0.04691331163337046,0.2014787156990596,2.59123699633894,6.370466989818696,-2.7229737403635585,-261.30357116411426,81.14248191374375,8.835468301151844,0.5782098906165366,1.1309831940238824,166.2518,167.6731023186104,6.0,11.92426767736969,1.149645497502179,-1.2869584031108676,-11.386617775566272,15.806037968724375,1.5574729000000002e-19,2.4617475792659267e-18,8.618207439795198,1.0860956782737214,1.987394176771612,12.985634854536768
5763,5763,4.86533699999984,0.0,2500.0,-2500.0,0.0,0.0,11.734252544190323,84.33676671436443,87.85083347817131,103.0,11.0,1.3822618888124618,1.3781845508634358,8.972176433779811,-0.12736207860679752,-0.24759724731361055,-0.12127034592110815,0.1115417967785714,-0.2694008758629193,-0.015333899357068796,0.21532250712397386,1.3103678675318895,6.200364119856284,-1.6277955485016569,-260.4544602822755,81.20418597579395,8.785621520516441,0.520786765534289,1.2496225210177023,166.2518,167.79130344088702,6.0,12.017719976824308,0.13667501573305876,-0.5345992229945031,-11.313399464917598,15.809477495664616,1.5574729000000002e-19,2.4622832762657502e-18,8.581029844457639,0.8157046465809804,2.105476165063222,13.785975976624412
5764,5764,4.986161999999808,0.0,2500.0,-2500.0,0.0,0.0,11.69404718965112,83.75983608545674,88.00591630555246,103.0,11.0,1.3847342681090329,1.378,8.971707482150995,-0.15464003106202315,-0.2396737033291413,-0.1235168514974271,0.10191346362507124,-0.07667580102791774,-0.03136632397111112,0.2039114943925299,0.5240608571222941,5.867516342417412,-0.18593158615665475,-259.37657927796744,81.25236255445681,8.715640150553334,0.4359222209685415,1.2830890420657133,166.2518,167.953582853863,6.0,12.074162812637244,0.02924777701916237,0.3171676041235788,-11.045107261552594,15.81370394093204,1.5574729000000002e-19,2.462941533662485e-18,8.53735712369544,0.4815934234366431,2.119659555703711,13.943482870968394
5765,5765,5.084109000000012,0.0,2500.0,-2500.0,0.0,0.0,11.596652175688062,82.3704728813952,88.13188056768841,103.0,11.0,1.3867554279595362,1.378,8.913095311790661,-0.14540009426722592,-0.24411355776189814,-0.12471390210356816,0.09537926314979654,-0.14846924510830056,-0.0008432542196875156,0.1420743766535704,-0.1176568038674503,5.764664900471676,0.7527052343623889,-258.50906388930576,81.28063229745284,8.663269386278325,0.37319338909171496,1.2809090260771652,166.2518,168.08595040836755,6.0,12.080860805124606,0.00849029541684948,0.4623542122319261,-10.5077721028373,15.817130116265036,1.5574729000000002e-19,2.463475151185664e-18,8.494933869553941,0.25363712442650543,2.1189562667908333,14.005914013496325
5766,5766,5.178785999999832,0.0,2500.0,-2500.0,0.0,0.0,11.38521341268684,79.39417619394828,88.25368954086979,102.605276954313,11.0,1.3889737152284352,1.3776053164266178,8.74850550477089,-0.13551147863929375,-0.253353729727857,-0.12825575048850796,0.09207365472737812,-0.14966392338804174,0.02883619242081253,0.13783848864654535,-0.8732711711794523,5.853100038527512,1.4864730820153949,-257.6669633927768,81.28629915204623,8.616168907874389,0.29490871765069737,1.2242627908835944,166.2518,168.2085075676366,6.0,12.028196490308448,0.3573425358746587,0.33305923733713005,-9.88837342599115,15.818773045976865,1.5574729000000002e-19,2.4637310330359425e-18,8.451127284940739,0.03896575042834943,2.089512388800985,13.887668610609401
5767,5767,5.276211999999759,0.0,2500.0,-2500.0,0.0,0.0,11.087388935700288,75.29491995722292,88.3608606247089,102.14094119665629,11.0,1.3912953940167188,1.3771410271025366,8.56323553746585,-0.0937938880723117,-0.2623296269616931,-0.13344944001232845,0.09182936027427883,-0.13423108749892484,0.02359656632879153,0.12253092976374208,-1.654085911981186,5.9820277417192615,2.124491663547416,-256.8105800149219,81.29009516675012,8.56376160161239,0.2209332639762261,1.149156044469664,166.2518,168.32452412837975,6.0,11.894912722707868,0.125667838184909,-0.5318036441506353,-8.491774481751836,15.820237854487774,1.5574729000000002e-19,2.4639591729918853e-18,8.399659013730705,-0.1549170394294927,2.0448517639653776,13.682199916887358
5768,5768,5.369281000000001,0.0,2500.0,-2500.0,0.0,0.0,10.724968646931194,70.45278186122826,88.45607848360642,102.0,10.668791370433905,1.3933249013974014,1.3773312755087033,8.471891885265991,-0.02628909151511754,-0.2730630313205281,-0.12653477384325826,0.09522341584060098,-0.008919960665656302,0.014678176681123997,0.10924983679292938,-1.964537656092908,6.0553064905599685,2.6904868361517007,-256.0028125687661,81.28893991991042,8.506634870456843,0.16522108815564412,1.0544607378970814,166.2518,168.42043383625253,6.0,11.686425108398721,0.3705380737472839,-0.06997739847025898,-8.476896858378389,15.821637155119046,1.5574729000000002e-19,2.464177110273101e-18,8.346326608221402,-0.2996628696330169,1.9693265929401471,13.276193045668116
5769,5769,5.486875999999825,0.0,2500.0,-2500.0,0.0,0.0,10.19564886625061,63.67022290921252,88.56373586172863,102.0,10.055400520569904,1.3957784034577725,1.3779446050194823,8.406872455180409,-0.043063678380591365,-0.2851761632719125,-0.1249394894976064,0.10376059358730344,0.2728231923520583,-0.0185681482147597,0.06499340429880122,-0.8673412461789114,5.962832805520273,3.277852885834219,-254.9968490098257,81.28746256021401,8.436155377757501,0.11484653693792585,0.9278897194682204,166.2518,168.5180880537516,6.0,11.305778312419033,0.5719978266216175,0.36254806975704745,-9.205047279172106,15.824069522979704,1.5574729000000002e-19,2.4645559449756814e-18,8.286923489887887,-0.39293990085294345,1.8364858154370003,12.495512772366768
5770,5770,5.575581999999827,0.0,2500.0,-2500.0,0.0,0.0,9.842966199165241,59.34159831842656,88.63966159464925,102.0,10.387996144137505,1.3975520233761645,1.3772240077117253,8.402163988432411,-0.07312957718523871,-0.29594450325233923,-0.1137953601582224,0.11163927708715063,0.20247449343293067,-0.031058782338056413,0.011707670664784104,0.2599705696080027,5.871551529804788,3.458469018942482,-254.2427596982394,81.28275034740909,8.399523266049053,0.09884116085354072,0.9180778206763668,166.2518,168.5868958562431,6.0,10.9566925172451,0.8879228085550017,-0.1257715012031867,-9.55406061384254,15.826142664790096,1.5574729000000002e-19,2.4648788311944357e-18,8.25225326659382,-0.3978614227546956,1.8132899013647497,12.392809646150956
5771,5771,5.69529,0.0,2500.0,-2500.0,0.0,0.0,9.707868920053988,57.72367920146754,88.7431142599526,102.0,10.982812593166681,1.399931348653926,1.3760343748136663,8.403948437779501,-0.08857185396748395,-0.290310585685958,-0.10648789573174383,0.12094147906239686,0.05877643037393605,-0.12531972767287936,-0.0542509368085904,1.0494498992895889,5.368521531083513,3.2155796469745064,-253.23253060634883,81.28028025508877,8.355296309308894,0.1014629789029872,0.9266913289809444,166.2518,168.68676507643886,6.0,10.483971264538216,0.5785714244611653,-0.054273755439748606,-9.683266833696928,15.828940352205136,1.5574729000000002e-19,2.465314563427596e-18,8.224512565545245,-0.3345557881643557,1.7377466678041291,11.930479814767425
5772,5772,5.791360999999824,0.0,2500.0,-2500.0,0.0,0.0,9.732822995036418,58.02080846790227,88.826498698081,102.0,10.074055929374012,1.403240904247191,1.3769259440706259,8.385944553594829,-0.06926355125529599,-0.2740312433586462,-0.10307477555606967,0.12611851068824628,-0.10665706150024196,-0.16451164692207906,-0.10104723557127417,0.8672858756788255,4.572038434085101,2.7293469708767275,-252.42010843616123,81.27940869880291,8.324274064399248,0.10597526722744934,0.8584528845637974,166.2518,168.76627686039825,6.0,10.181046025336892,0.5133188193117657,-0.017026992418564445,-8.383765214907692,15.830342522804315,1.5574729000000002e-19,2.4655329476985356e-18,8.224973389057824,-0.26661538334909785,1.541904067626583,10.617781486178526
5773,5773,5.888009000000011,0.0,2500.0,-2500.0,0.0,0.0,9.7883941514019,58.6852746734073,88.8940984986472,102.0,9.10775952568974,1.406622941660086,1.3778922404743104,8.367102256871188,-0.07865783671503501,-0.2606416828790455,-0.10311601583045456,0.13060457763943406,0.06275658256636488,-0.1547109842775248,-0.10022316884805707,0.7985497424999348,3.752563579717871,2.1181305935672587,-251.61067527052697,81.27919351598963,8.294086892480545,0.08123587629904068,0.7076708656870714,166.2518,168.83510563519386,6.0,9.93972212444496,0.01170296765981127,-0.08530685495698181,-7.559569149247798,15.831614372328833,1.5574729000000002e-19,2.465731034815266e-18,8.227330087713081,-0.20748084536026326,1.2634373564674477,8.730475555447596
5774,5774,5.9831749999998465,0.0,2500.0,-2500.0,0.0,0.0,9.853771177391318,59.471801238261,88.95491133401299,102.0,9.0,1.410778230450053,1.3784198389163322,8.189945425543593,-0.07790741119132955,-0.2627518008382533,-0.10238091197489052,0.13331938064920612,0.0113666577072752,-0.06813289179308019,-0.11581949268031907,0.9177789555192426,3.2404154432851797,1.5000753413607106,-250.81093047035156,81.27401883057135,8.274383442228643,0.05691651065746579,0.5447968511087773,166.2518,168.88843928624985,6.0,9.777613580446811,0.33516962973426456,-0.00833572020277501,-8.531828136771383,15.832866719318421,1.5574729000000002e-19,2.4659260844650344e-18,8.229015217894803,-0.14325378909434827,1.0204637248410122,7.0690465807737315
5775,5775,6.10394099999985,0.0,2500.0,-2500.0,0.0,0.0,9.853072197877491,59.46338152935566,89.0082487384313,102.0,9.040333362610133,1.4161210000878304,1.3789799313020268,7.953284062435253,-0.06447404457674094,-0.2555452886520161,-0.1012141978537603,0.1350904218700042,-0.07902942210153435,-0.08637402670952027,-0.14145051446569862,0.5902749853323892,2.8283665245097063,0.5691799813184137,-249.8007174063784,81.26492185493643,8.268042664778521,0.0026839527668569567,0.3909032711809327,166.2518,168.93884834296819,6.0,9.637054614821118,0.3321188363785472,-0.5640112142196267,-8.732933665211304,15.835395812136602,1.5574729000000002e-19,2.4663199838176248e-18,8.238301110720778,-0.07112826744667132,0.8022667705637194,5.562070986998813
5776,5776,6.196190999999999,0.0,2500.0,-2500.0,0.0,0.0,10.002807421272434,61.28442301154534,89.04072488190775,102.0,9.940588068819718,1.4188217642064591,1.378529758936187,8.071217248897769,-0.040913986047921375,-0.2457777216956798,-0.10595605364053606,0.13470787247268975,-0.13144659446634802,-0.07572740238205419,-0.13188915665703585,0.010120181829560926,2.4177438737991053,-0.17337469212122888,-249.04067129209827,81.26055130440777,8.265338757996219,-0.05681746388826407,0.2992400879326952,166.2518,168.9668996738369,6.0,9.596464757478737,0.4741595260054463,-0.6106215492392791,-8.87895004298461,15.837521134513006,1.5574729000000002e-19,2.466650997018126e-18,8.24549157059852,-0.031663954768525966,0.6489950077147002,4.500419519873068
5777,5777,6.284912999999733,0.0,2500.0,-2500.0,0.0,0.0,10.044201931432983,61.792676658962634,89.0596016822407,102.0,10.806413521874044,1.4214192405656219,1.378096802918387,8.184640210082796,-0.008691146965911355,-0.2301269228437309,-0.1110923093779753,0.13323115586520615,-0.17987282570358898,-0.09889434089377988,-0.1306593126231953,-0.8425550678380067,1.9977117759198681,-0.8770841506152274,-248.3101732540097,81.2504631200256,8.269448432328119,-0.12923587713392398,0.20502827308455532,166.2518,168.98708404667101,6.0,9.606971118693613,0.2573571271985068,-0.6918498250429717,-8.445112674559187,15.839565176267794,1.5574729000000002e-19,2.466969350982081e-18,8.258283987665308,-0.009887853651753334,0.4932469743068345,3.4180752095229257
5778,5778,6.405331999999817,0.0,2500.0,-2500.0,0.0,0.0,10.079926127215801,62.23302404483777,89.0781490375984,102.0,11.0,1.4246423054694453,1.3785285139399983,8.24699280503333,0.004768350030386032,-0.2083692261429434,-0.11401464840766352,0.13103298625593354,0.020581769312780447,-0.08438123158526767,-0.09498361292026752,-1.6517358595339875,1.2936410598019463,-1.6940119588063474,-247.31549027361226,81.22133081285897,8.286379982530308,-0.25175500871805984,0.05410702335756954,166.2518,169.0001174087173,6.0,9.649194291457011,0.39653970739703415,-0.6651001141472705,-8.905187244575444,15.840490518867734,1.5574729000000002e-19,2.4671134705843438e-18,8.286866250616256,-0.01363716191169757,0.2413066123241625,1.6679338436415916
5779,5779,6.503182999999808,0.0,2500.0,-2500.0,0.0,0.0,10.191868878099724,63.622948788466466,89.07325064710913,102.0,11.039207052720714,1.4271176250788673,1.3790785101847365,8.273688625304912,-0.032051577215686765,-0.19943998825299056,-0.11617950578787185,0.12843879518549026,0.18142114346603275,-0.048051091119591854,-0.07234746821152513,-0.8158142511118353,0.9487961763333548,-2.117291653411367,-246.4991921714429,81.18280978731201,8.307333244856425,-0.3434336322025026,-0.06773935278249954,166.2518,168.99889279834144,6.0,9.720607529126184,0.15839195017005248,-0.5639790506438507,-8.734797838704386,15.840837644743777,1.5574729000000002e-19,2.467167534498826e-18,8.314331726804534,-0.037273171627718885,0.07053979790495314,0.4860926737090102
5780,5780,6.597210000000018,0.0,2500.0,-2500.0,0.0,0.0,10.232111580821913,64.12636269863006,89.06328672446628,102.0,11.494164666718431,1.4284825434166217,1.3799883799169703,8.200439994493664,-0.04312127085352764,-0.1774256095460736,-0.1120927714522717,0.12606330294464724,0.06952761785589281,-0.10617184801810818,-0.08154826056003821,-0.19380729384720216,0.5446380461070917,-2.547740814263612,-245.711150400643,81.13200265836943,8.323745307020003,-0.4232209278331989,-0.25512472437777944,166.2518,168.9846617777333,6.0,9.811857626556082,0.09074476118862546,-0.6325565438610282,-7.477346307313176,15.841171205001169,1.5574729000000002e-19,2.4672194856049667e-18,8.3363790410076,-0.052199665593528295,-0.17538764717576927,-1.2052582589644796
5781,5781,6.692759000000024,0.0,2500.0,-2500.0,0.0,0.0,10.228717798640334,64.08383596552281,89.02698700422602,102.0,11.956486606797618,1.4298695554690537,1.3809129775649345,8.126005699818975,-0.0721490944811133,-0.16756800751404038,-0.10760318353925463,0.12480414495198668,0.1930151000094084,-0.03105372219153793,-0.05879163967732366,0.4757583338691325,0.11215296700451644,-2.951201867679732,-244.9096511168037,81.07547662797211,8.349019885597643,-0.4976874980322202,-0.4483512257410307,166.2518,168.9492430476095,6.0,9.901136398929816,0.3711362169659842,-0.6462820965014823,-7.965012282091505,15.842376332256567,1.5574729000000002e-19,2.467407180909101e-18,8.364432213251071,-0.07076146281069047,-0.4318328194194901,-2.9554009228301568
5782,5782,6.812741999999844,0.0,2500.0,-2500.0,0.0,0.0,10.173148495657813,63.38943994708212,88.96692315231351,102.0,11.4422585038117,1.4316733244885649,1.3804423142779614,8.190391469253598,-0.11275258852617605,-0.1719002861838649,-0.10812370258977567,0.12429124384515597,0.17844017392590178,0.03864417511572795,-0.04701905872132002,1.8925781591711737,0.2433208473112089,-3.3224194111837946,-243.90926371284775,80.98264683740325,8.391018736507894,-0.5707297842995818,-0.6491923426511946,166.2518,168.88072036713288,6.0,9.999859879370613,0.711912807239524,-0.5056543867110326,-8.517889015350779,15.844063845056054,1.5574729000000002e-19,2.4676700064544607e-18,8.412672811806738,-0.1037314006202284,-0.6127823342119338,-4.166089050525922
5783,5783,6.909987999999771,0.0,2500.0,-2500.0,0.0,0.0,10.133581742679349,62.89731340080517,88.90244683031742,102.0,11.0,1.4332772303232288,1.3801386628521564,8.25346743579421,-0.10136491846267384,-0.16662004160482116,-0.10635515967911474,0.12456365302677053,-0.09189276452858504,0.0029642256997445904,-0.07950953184638751,2.163498128469924,0.34778581516757456,-3.6841124683526303,-243.09355510793372,80.90540747196523,8.432622877207741,-0.6163163023759509,-0.7499126627999825,166.2518,168.8142254842334,6.0,10.055335726087943,0.6098387914591978,-0.5144933944028608,-8.7367864390945,15.84543157106473,1.5574729000000002e-19,2.4678830260737742e-18,8.459194602924143,-0.09957029893738008,-0.697636185801359,-4.714557078771999
5784,5784,7.003660999999852,0.0,2500.0,-2500.0,0.0,0.0,10.171694782350476,63.371338238393896,88.83696228119551,102.0,11.0,1.436087626422377,1.3815438374813729,8.319043969317214,-0.06330888200628931,-0.1676485606104368,-0.10629596447284488,0.1245596633551874,-0.2135337454134954,0.034334608292261495,-0.0672761016001454,1.23020400245328,0.4781563815207661,-4.096848193602389,-242.3070780473263,80.81843573827915,8.469247352841045,-0.6712815505091682,-0.8101619798486669,166.2518,168.74430023428368,6.0,10.104433402906931,0.4086575392550062,-0.819484059171703,-9.129365012662912,15.846073725947655,1.5574729000000002e-19,2.4679830399565507e-18,8.502029302041645,-0.08037013540899758,-0.7385270087776064,-4.964524415084599
5785,5785,7.098887999999761,0.0,2500.0,-2500.0,0.0,0.0,10.336225133554796,65.4380243524754,88.76468144972826,102.0,11.0,1.4389446459406343,1.3829723234316087,8.385708392980366,-0.04276997286740966,-0.17216345257643206,-0.11148146749812632,0.12420113660895762,-0.13816138569878714,0.03782672495418998,-0.05047671498976388,0.12558507480649805,0.6782624195027909,-4.446965545503351,-241.50343906822468,80.7288994703592,8.495697927477275,-0.7513786252199355,-0.8654077182728801,166.2518,168.66914945999503,6.0,10.175300085459526,0.24294195367522797,-0.7804470202547539,-9.248199235338214,15.846723693272338,1.5574729000000002e-19,2.468084270605958e-18,8.538027819277769,-0.0920608398529254,-0.7633193516764811,-5.108792403798424
5786,5786,7.21884099999977,0.0,2500.0,-2500.0,0.0,0.0,10.46345794724377,67.05895423547106,88.66990800602987,102.0,11.587534759704251,1.4413501977922931,1.383,8.462792571536609,-0.058475713591737824,-0.1875080309960825,-0.1133315027288771,0.12335159903652848,0.02896034406632518,0.11073083706318827,-0.014941885696442203,0.17651465966792895,1.2463352334956341,-4.626052828560338,-240.48846015722438,80.61054392497931,8.520956754536654,-0.8515446281167842,-0.9294294887259344,166.2518,168.57302242828683,6.0,10.288536779780904,0.4320192418501323,-0.7612486034332941,-8.992653609842531,15.84753693969556,1.5574729000000002e-19,2.468210931532477e-18,8.58006741498771,-0.16378772622689064,-0.7394636416238073,-4.92580185751557
5787,5787,7.31530999999984,0.0,2500.0,-2500.0,0.0,0.0,10.571893870371918,68.45603438484399,88.57700505740982,102.0,12.0,1.4430001,1.3828637446594625,8.519884209077658,-0.07162005039102284,-0.1974853900486055,-0.11140031753352124,0.12274064171799225,0.07875873116188929,0.10838656043328056,-0.022578715973494642,0.5360928053948746,1.799219601751893,-4.753550923572414,-239.66930366902352,80.50730196326485,8.521059129243199,-0.9288428534146128,-1.0043562284592582,166.2518,168.49040390128025,6.0,10.389989172784583,0.3489413007983453,-0.6871470440263187,-8.919253116934838,15.84811756473099,1.5574729000000002e-19,2.4683013623082516e-18,8.596032441273605,-0.2262752199565337,-0.7279035360393777,-4.840203102900902
5788,5788,7.410221999999862,0.0,2500.0,-2500.0,0.0,0.0,10.638130637321767,69.31651754804722,88.48201159187778,102.0,12.0,1.4430001,1.3819096154812762,8.547076413591366,-0.06375980959652998,-0.20884173207837145,-0.10929570449369364,0.12269373227987965,-0.08621379994998493,0.12512972275978604,-0.05549413787186015,0.7319972053052463,2.445870426744961,-4.966661562228176,-238.86145567387246,80.37949454442024,8.527489346862525,-0.9994013072616976,-1.023804118501841,166.2518,168.39643314568218,6.0,10.488137731094108,0.641755973806031,-0.5591266050827327,-10.538007361484398,15.84868881853649,1.5574729000000002e-19,2.4683903335403603e-18,8.617867987828017,-0.26552647903427584,-0.6455931700575029,-4.284215126502698
5789,5789,7.508983999999828,0.0,2500.0,-2500.0,0.0,0.0,10.68571882946908,69.9380626765722,88.38541110978231,102.0,12.0,1.443122378353866,1.3809592446246566,8.573978226830928,-0.039964143732682415,-0.20814879665599176,-0.11498762888800075,0.122122952269634,-0.1530013956781024,0.039369791497172235,-0.024187696082751863,-0.10511366285562353,2.9816066224819817,-5.244958340986526,-238.02030565992317,80.2483701144127,8.537243810739172,-1.044548989042763,-0.9535232436903721,166.2518,168.29909475676757,6.0,10.584147400759145,0.5293535690127351,-0.2375870292665945,-11.075418948844108,15.84928324461895,1.5574729000000002e-19,2.468482913791809e-18,8.63494454590033,-0.2584736858716342,-0.4915451849394864,-3.2580524934564634
5790,5790,7.6265889999998535,0.0,2500.0,-2500.0,0.0,0.0,10.672629960560018,69.76683809561214,88.2715367837292,102.0,12.0,1.444859578862005,1.380380235695294,8.587875830896039,-0.059197509640494174,-0.19985072348949665,-0.11706127547591605,0.1214584857237742,0.17504019564015733,0.006179435630025411,0.009837841717993134,-0.07531205699210766,3.0196488629312017,-5.277104091408988,-237.01592758624432,80.08585932381018,8.540097436102126,-1.0821778866934728,-0.8727263579547261,166.2518,168.1885421030578,6.0,10.68279167965281,0.619848124558336,0.028385180853452357,-10.074489964047249,15.849528300782714,1.5574729000000002e-19,2.4685210806252127e-18,8.637459519424192,-0.29118001167195234,-0.402909833914808,-2.670728704898833
5791,5791,7.713163000000009,0.0,2500.0,-2500.0,0.0,0.0,10.511897987450817,67.68128632747016,88.19942051400663,102.0,12.0,1.4461456750653017,1.379951574978233,8.599911549831049,-0.08825009390197178,-0.19420065295814826,-0.11160861142052428,0.12218864802555793,0.1981893705921554,-0.004554630962828239,-0.02953546531898345,0.8772476617095202,3.0309412457216496,-5.3132414901679095,-236.27676706931962,79.97130284892394,8.54492927933384,-1.0841817781334493,-0.787995607842518,166.2518,168.11107688891013,6.0,10.711605698729585,0.5932030242132503,0.06633921751693585,-10.66504470390415,15.84969993165762,1.5574729000000002e-19,2.4685478116688598e-18,8.638233578190162,-0.2929322762007042,-0.31643046585688506,-2.0978857778846858
5792,5792,7.808416999999736,0.0,2500.0,-2500.0,0.0,0.0,10.334553900595024,65.41684534301712,88.12333160558283,102.0,12.0,1.4476266755213727,1.3794579081595424,8.629532052619295,-0.07541079496749674,-0.1964642294721255,-0.10499336540227984,0.1244785984349961,-0.09043085071048376,0.03364884026116993,-0.12412398643970675,1.082657615853479,3.0563173954473752,-5.793370949758367,-235.46118389729526,79.84106935724323,8.538188993733758,-1.096954933063817,-0.7551004787405918,166.2518,168.03418300588413,6.0,10.676230705794367,0.4185531482941641,-0.33293579189872285,-10.27282961892388,15.849888770423975,1.5574729000000002e-19,2.468577222794967e-18,8.63332720039341,-0.2347487206577392,-0.2829239779812676,-1.8769763034939582
5793,5793,7.928417999999851,0.0,2500.0,-2500.0,0.0,0.0,10.439838173570868,66.75650911320588,88.04531940141347,102.0,11.68811035216383,1.449156029229436,1.3783763207043278,8.646552540852664,-0.007326272128345455,-0.21486161979388332,-0.10733321181105754,0.12772380515215068,-0.4126653650224678,0.10016637095847304,-0.1761418454714227,-0.6562615599011626,3.5688617406227827,-6.8913437093720935,-234.4361191648617,79.67931263367505,8.521167398644534,-1.1520129611067291,-0.6890159718376649,166.2518,167.94794944335987,6.0,10.617266265555395,0.5836229271901497,-0.4270601112050467,-10.550536302993393,15.847411220528667,1.5574729000000002e-19,2.4681913511129327e-18,8.624048687977698,-0.1192805497745946,-0.14492253634463426,-0.9627343858675532
5794,5794,8.024620000000027,0.0,2500.0,-2500.0,0.0,0.0,10.550338648244473,68.17717925512851,87.98923927409426,102.0,10.740582786283069,1.449629745635998,1.3764812655725662,8.614809893631875,0.06219008052780215,-0.22066729119636805,-0.10912573535532152,0.12918364687374714,-0.3686606111801168,0.060841200021840514,-0.14702785999927526,-3.185535001208233,3.9706998245117617,-7.826978171161401,-233.6103719190944,79.5416557389838,8.505044321589207,-1.2590519489545282,-0.5731578467534388,166.2518,167.89440622628828,6.0,10.603079817491091,0.8115765450237248,-0.7542121687108304,-11.532581021787006,15.845327214287856,1.5574729000000002e-19,2.467866772788583e-18,8.616322272196397,-0.09018262285030136,0.02967996489762758,0.1973614664354296
5795,5795,8.120209999999815,0.0,2500.0,-2500.0,0.0,0.0,10.793648359781864,71.35800014294253,87.95219783772663,102.0,10.203034721634626,1.4503045622341884,1.3747970551266293,8.583299854186057,0.033915802494327574,-0.2165130679870291,-0.1135176525083701,0.12781770771903453,0.1799605200090561,-0.0031262563101360093,-0.0713790454884324,-3.533135662945642,4.124823562440363,-8.411896325872455,-232.7958055965468,79.39278157888008,8.474700195251614,-1.4109551648986456,-0.457406283958215,166.2518,167.85961012419904,6.0,10.636419688735472,0.6510215135105724,-0.7620361560821828,-10.341718608337947,15.843501472105201,1.5574729000000002e-19,2.467582418391396e-18,8.600586260486851,-0.16558310626954714,0.17256461327052086,1.1494446157345646
5796,5796,8.216138,0.0,2500.0,-2500.0,0.0,0.0,11.031012502542543,74.53099945596855,87.92167488628513,102.0,11.157822445394778,1.4517367915592143,1.3738422196634832,8.551791859301971,-0.018341712985784936,-0.21601692767071806,-0.11433774854150015,0.12460993539341003,0.3381229450409132,0.027177397961658908,-0.06389086280039978,-1.8591647402676517,4.1361747204411845,-8.767264253848715,-231.98326706324275,79.22674196307317,8.427223771465659,-1.5359433353222611,-0.4667352782330032,166.2518,167.8315135347057,6.0,10.725242327816288,0.19597354684362744,-0.8072519012013433,-9.272773297032238,15.844946029675315,1.5574729000000002e-19,2.46780740431819e-18,8.574229090298296,-0.2378355573259564,0.16885815299722784,1.128219099655928
