,Unnamed: 0,timestamp,thrustinput,Position state,Position state2,PA-ON,PA-ON2,Airspeed[m/s],Differential Pressure[Pa],GPS Altitude[m],GPS Noise Magitude/ms,GPS Satellite Num.,Horizontal accuracy[m],Vertical accuracy[m],Groundspeed[m/s],Roll control,Pitch control,Yaw control,Thrust control,Roll Angular Rate[deg/s],Pitch Angular Rate[deg/s],Yaw Angular Rate[deg/s],Roll angle[deg],Pitch angle[deg],Yaw angle[deg],Local X[m],Local Y[m],X-velocity[m/s],Y-Velocity[m/s],Z-Velocity[m/s],altitude set position,altitude(Tecs),airspeed set position,airspeed(Tecs),X-acceleration[m/s^2],Y-acceleration[m/s^2],Z-acceleration[m/s^2],Battery Voltage[V],Battery Current[A],Inst. power[Ws],Body_Uvelocity[m/s],Body_Vvelocity[m/s],Body_Wvelocity[m/s],A.O.A.[deg]
2292,2292,0.0,0.0,2500.0,-2500.0,2500.0,-2500.0,14.187732666195917,123.29120211237793,133.93027880191792,105.0,12.0,2.394471093505059,3.226392593624,13.848392806550164,-0.16755513544770162,-0.3168892548847125,-0.1284440295036414,0.2811520951551074,-0.4631397188848635,0.1448680916742043,0.1950286754205961,-1.0439996029710177,4.9648070556041946,11.787318393985126,-283.53860964072487,76.8334728516096,13.775776433815782,3.0264797343799548,-1.2463585250540627,215.04031,212.9004484926581,6.0,13.709118848516637,-0.3801406380552717,-2.5451840036558084,-9.042889422685931,15.965651978712769,1.5574729000000002e-19,2.4866070287676518e-18,14.158477750753024,0.14837928881365536,-0.033961578400059755,-0.13743365708361893
2293,2293,0.09235500000002617,0.0,2500.0,-2500.0,2500.0,-2500.0,14.227441109510588,123.98230917563349,133.8872148582559,105.0,12.0,2.3972287686435325,3.228690748161899,13.739464638580468,-0.15074211199975351,-0.3357225297791503,-0.13643512284684406,0.28156612058495434,-0.5628286101987884,0.23136662379996306,0.2817676603542367,-3.3290527277993083,6.072835701743684,12.873834949580285,-282.32999031947406,77.10199112864879,13.682536579169245,2.8902381625062383,-1.1384682731873446,215.04031,212.86571458854115,6.0029110218478134,13.756036888511149,-1.607797399160891,-3.359067403928023,-10.851046480250197,15.974801594301994,1.5574729000000002e-19,2.4880320566002152e-18,14.024533044383945,-0.2498148735423603,0.3710193358110019,1.5154076677355666
2294,2294,0.20539500000001,0.0,2500.0,-2500.0,2500.0,-2500.0,14.036793186539693,120.68192358686828,133.84389638315028,105.0,12.0,2.400510906854074,3.23120453413199,13.614367773413024,0.04059704354776447,-0.35919869674069377,-0.13117443875119944,0.28681942107924696,-0.4023132657776353,0.16495231470260174,0.2477512137958643,-4.554943667315189,7.404902818319602,14.276326684518304,-280.85303905586545,77.41895780808916,13.546477986478484,2.755953841726973,-0.8718166848891284,215.04031,212.8209982453688,6.0000263230039454,13.753509990762474,1.8404264010907985,-0.4576510337804445,-7.920860382280042,15.98390727049297,1.5574729000000002e-19,2.489450240990577e-18,13.804951464033456,-0.7367788608654342,0.99842392975079,4.13663515614404
2295,2295,0.30041700000003857,0.0,2500.0,-2500.0,2500.0,-2500.0,13.715824723055704,115.22603624666391,133.81851147458522,105.0,12.0,2.402910560409901,3.2321642611790966,13.540940831751671,0.015846775536804254,-0.3713358364019443,-0.128567816059019,0.2875022537298889,0.5318938052342809,-0.02417621050176121,0.05269744090551914,-4.240976093632371,8.189481801648238,15.286080406747706,-279.62787484049596,77.67465656601458,13.398254816948652,2.6474399269212485,-0.5986024290786469,215.04031,212.79423760241505,6.000000262636595,13.714622898757545,2.0402819216139925,-0.07650072076978115,-7.334643174908582,15.991561548297463,1.5574729000000002e-19,2.490642374015534e-18,13.568567607564823,-1.0682252810880557,1.4836450321650694,6.240174089893807
2296,2296,0.39527000000001067,0.0,2500.0,-2500.0,2500.0,-2500.0,13.314394999999886,108.57992334931095,133.79740340115512,105.0,12.0,2.405061033417756,3.232756641993176,13.463311172955628,-0.012891088256419478,-0.3756553488555462,-0.12480449525097967,0.2910216341115732,-0.09671164860312664,0.045012971071667886,0.13775724465333716,-2.7884513682784715,8.429167887979734,15.950423748724873,-278.40928878886206,77.92444106239921,13.235248153454915,2.58292913963735,-0.4134560790595369,215.04031,212.79884064212882,6.0,13.573534188908178,-1.2052458648036315,-1.8711203384866217,-11.832708011473635,15.998849607595865,1.5574729000000002e-19,2.4917774695006197e-18,13.350966838207135,-1.2170859651637775,1.7277330880208281,7.373601365015763
2297,2297,0.48974300000000426,0.0,2500.0,-2500.0,2500.0,-2500.0,12.957914634154577,102.84346727920328,133.78480083360643,105.0,12.0,2.4055357270227486,3.230857677676772,13.35649490489902,-0.02425432398823739,-0.3806338779391002,-0.1202492023985729,0.2975190210891208,-0.34022930902154835,0.05542560651627198,0.06446680868740702,-1.6740483148589043,8.441367374468559,16.047371472967047,-277.2182467797764,78.17149437180251,13.065276132174294,2.58092308432354,-0.32136690865189216,215.04031,212.794682859,6.0,13.364096573350064,0.26708700223974513,2.9071823123909595,-12.36700226739616,16.00505345395511,1.5574729000000002e-19,2.492743701758648e-18,13.173038241316053,-1.1666710052036997,1.7954348975509602,7.761372030166262
2298,2298,0.6104070000000092,0.0,2500.0,-2500.0,2500.0,-2500.0,12.590914209131155,97.10041123711464,133.76848029616656,105.0,12.0,2.4058595902660724,3.2278758378143078,13.219961436198401,-0.004993565083808257,-0.3912410847275764,-0.11704685396881792,0.3104835566218841,-0.545646805054288,0.0907887120455162,-0.0038318758923553617,-2.262045589417036,8.518146561334902,15.478849849806727,-275.70365128150246,78.4894523404847,12.867500394140215,2.566006455177225,-0.32598199248824394,215.04031,212.7739267075573,6.0,13.01968489021873,-1.444122257790452,-0.09898183788629833,-13.41381768716619,16.0129772090713,1.5574729000000002e-19,2.4939778051446183e-18,12.989544325082047,-1.014353782206562,1.757001498953888,7.703232317073718
2299,2299,0.7073350000000005,0.0,2500.0,-2500.0,2500.0,-2500.0,12.420025001179445,94.48243119941908,133.75508429142292,105.0,12.0,2.405377404835371,3.2240180650285066,13.110011680837582,0.019710295124001263,-0.3999345671168244,-0.1161034465939644,0.3222442775620004,-0.5131896114285447,0.054350457901037805,-0.07563541205577137,-3.1305094615036664,8.644935195295607,14.742532415766776,-274.5082876300712,78.75146709096019,12.727161542596171,2.5449746749349047,-0.2927370040212931,215.04031,212.75785106197793,6.0,12.729352849982432,1.9807059702022145,0.8662665782606298,-8.494229593300986,16.018618888453993,1.5574729000000002e-19,2.4948564814195213e-18,12.852614869124254,-0.859273527869706,1.772387923117241,7.85162229924985
2300,2300,0.8032950000000199,0.0,2500.0,-2500.0,2500.0,-2500.0,12.373565236539685,93.77690018333188,133.73939697086678,105.0,12.0,2.4051004553892352,3.220799649115364,13.014575050916989,-0.002304875439623447,-0.39296462848197694,-0.11727130760491157,0.3308046839490835,0.12740764451601228,-0.08487446750369801,-0.1452739397874231,-2.975512332663937,8.450128574609609,13.926124582007557,-273.32826905775084,79.0072468213086,12.611252362342027,2.4493642640057596,-0.25565994856822905,215.04031,212.73262687556584,6.0,12.487969765189586,-0.8193725365541527,-1.370888856237403,-10.86232027963526,16.022980041662798,1.5574729000000002e-19,2.4955357192130683e-18,12.728345509510422,-0.7353877039001272,1.7269332808102182,7.726493104831671
2301,2301,0.9018530000000169,0.0,2500.0,-2500.0,2500.0,-2500.0,12.328989374746921,93.10243449475432,133.71974990223424,105.0,12.0,2.4055911914534125,3.219817980672951,12.968441247503954,-0.061701228001677974,-0.3870828588477199,-0.11505237878408645,0.3374462203192614,0.2862072099926202,-0.06191816392801789,-0.10012795402302307,-0.5709842508506341,8.011431962861204,13.353406060357775,-272.12240764490537,79.26703466873059,12.51533499196217,2.3832907123158233,-0.3813388691726355,215.04031,212.72024746389718,6.0,12.284206163402636,-1.3485829989867908,-2.6564646622325028,-6.927832643646606,16.027459267777363,1.5574729000000002e-19,2.4962333465417087e-18,12.6563392227492,-0.5799796543723528,1.475811598326599,6.651024816191626
2302,2302,1.0196180000000084,0.0,2500.0,-2500.0,2500.0,-2500.0,12.291057642760878,92.53044050148328,133.69207949867777,105.0,12.0,2.406360100828725,3.2186400531686994,12.935759905264751,-0.08463454518130739,-0.3871004368476213,-0.10888012654453832,0.3485468158541215,0.16198842894741552,-0.035958002029109766,-0.1539097619280414,1.1264064904326856,7.840541680348648,12.639047543291571,-270.6923085502567,79.57358170578429,12.399753744692404,2.3588950748235566,-0.5517141534592426,215.04031,212.6873619656228,6.0,12.056891734824545,-0.06484130234844733,0.032051143370452895,-10.747366524559057,16.030552603672035,1.5574729000000002e-19,2.496715125224364e-18,12.57275549382267,-0.3845019990154241,1.2302964880181466,5.5888374518756585
2303,2303,1.1162689999999884,0.0,2500.0,-2500.0,2500.0,-2500.0,12.184156885493794,90.92788474861625,133.66477125118604,105.0,12.0,2.4073363484114836,3.2176639520157564,12.951379573729264,-0.0619715254060681,-0.3832820841481984,-0.11032307764937102,0.3601665022419207,-0.2918102650944999,-0.04399185230822481,-0.06653018033536941,0.4441819350049664,7.6667860105319106,11.991989939103618,-269.5192345821024,79.8237730037558,12.322057090209832,2.3344020736892213,-0.6874259047884066,215.04031,212.64911430255202,6.0,11.867914061679018,-0.0622942670310959,-0.2642142847012469,-9.906826637327963,16.03023256938257,1.5574729000000002e-19,2.4966652807510723e-18,12.517807040170894,-0.26659691806902713,1.0283517506531583,4.696365913895098
2304,2304,1.2116480000000251,0.0,2500.0,-2500.0,2500.0,-2500.0,12.105841394877295,89.7627387193174,133.63036688602088,105.0,12.0,2.408146869568142,3.2167068608637166,12.889692902906125,-0.03810660355729453,-0.3802039993372485,-0.11676540801565766,0.3705392910992351,-0.1336880625835392,-0.02659960187318474,-0.06525321204023196,-0.40047258522590207,7.427887044887284,11.50963368637336,-268.3652054977507,80.07049904487252,12.26306911039336,2.3086187378359693,-0.8087799746175942,215.04031,212.60907408379046,6.0,11.692713185885337,0.3017918635424801,-1.1508635783423036,-7.399771206829118,16.029916746985542,1.5574729000000002e-19,2.496616092268614e-18,12.476972191274307,-0.1888069660475568,0.8348833282366777,3.828179447409997
2305,2305,1.3076070000000186,0.0,2500.0,-2500.0,2500.0,-2500.0,11.969148810118694,87.74706921923824,133.58638334547646,105.0,12.0,2.4086214536350865,3.2157576927298264,12.6557229579023,-0.02865696175318985,-0.3763544444904899,-0.1200844676119816,0.3754526763573233,-0.007759949997778209,-0.06681477431432348,-0.05306904616960438,-1.1123555126526101,7.256022817638018,11.20642980786532,-267.2012562350004,80.31462898333994,12.211419812430014,2.2629870714010143,-0.8843596983633799,215.04031,212.5674914683253,6.0,11.56367258807955,-0.9135954453015628,-0.5877818452592388,-11.648685554093412,16.029740765745288,1.5574729000000002e-19,2.496588683667354e-18,12.43063496684415,-0.16557204672301584,0.7104476253993063,3.271065084585774
2306,2306,1.4066350000000227,0.0,2500.0,-2500.0,2500.0,-2500.0,11.897140364505635,86.69445996754068,133.5254312882302,105.0,12.0,2.4094490479815627,3.2152246352125418,12.468552017357311,-0.028642117742709482,-0.3648580415803386,-0.1213904036446818,0.37746511366064944,0.1243769550150418,-0.08025400309326143,-0.0370638948294432,-1.0981766671954118,6.936508592306232,11.087283483702643,-266.0044657182857,80.55820436399823,12.175371516055794,2.2240713767218296,-1.0233026938907221,215.04031,212.4939001418877,6.0,11.509791111813671,1.9106606519132685,-1.04911322595043,-5.940216739705532,16.029820632890974,1.5574729000000002e-19,2.4966011227588538e-18,12.408820835105045,-0.16682901045406734,0.4978996955060022,2.297740990113481
2307,2307,1.5248670000000288,0.0,2500.0,-2500.0,2500.0,-2500.0,11.78451377925681,85.06080403216885,133.416122075542,105.0,12.0,2.4118132033054884,3.216406771981343,12.466187152751322,-0.030453549935977226,-0.3569284115384397,-0.12233556800586992,0.3799027632528809,0.10786187748218276,0.0019681522670306297,-0.013968260548967059,-0.956338427206187,6.647005622095704,11.062633060180831,-264.57461536744177,80.83337679076556,12.136519452785027,2.1797666877734425,-1.0951624355489604,215.04031,212.39418891046486,6.0,11.455900299734747,2.3050640702980782,-1.418016598691307,-5.6541754162760345,16.029915988268932,1.5574729000000002e-19,2.4966159741005584e-18,12.373148442193244,-0.1939065036870447,0.3612258610871364,1.6722372960742762
2308,2308,1.6208470000000261,0.0,2500.0,-2500.0,2500.0,-2500.0,11.676512770237794,83.50883736574966,133.33018022141596,105.0,12.0,2.41354405758449,3.2160934494489504,12.449041690817806,-0.029351163997921613,-0.3476343951830916,-0.1220408876216379,0.38155522200969977,-0.06293880511147082,-0.03243567848995502,0.005290865422293567,-1.0419747672783268,6.455230676667871,11.069381783678102,-263.41508589075767,81.05476011579101,12.115584698139608,2.131956439288592,-1.050510372153601,215.04031,212.29232781074813,6.0,11.42818727426059,4.049409944152144,-0.19567581414038135,-6.894074895850397,16.03076253171123,1.5574729000000002e-19,2.4967478209475634e-18,12.33963630082422,-0.2385512285257326,0.3651819757229944,1.695129443090165
2309,2309,1.7128370000000075,0.0,2500.0,-2500.0,2500.0,-2500.0,11.677890887525734,83.52855447675013,133.25104673106765,105.0,12.0,2.4149104400568384,3.213816175691412,12.40896292971511,-0.02664685732806054,-0.3399701598204753,-0.12368847784256375,0.3823628425240129,-0.031803323372761205,0.004054646522871228,0.044829085782726735,-1.1958435710966582,6.3014621935536095,11.104617073030836,-262.3068794980907,81.26338042007636,12.096155661756685,2.0835103033606166,-0.9177300409536444,215.04031,212.1993760791744,6.0,11.413890792341828,1.8659912904967584,1.8564728357793476,-14.071138426589377,16.032322842621273,1.5574729000000002e-19,2.49699083514336e-18,12.2975578356869,-0.2925793719590353,0.4658843627778243,2.1695729233884213
2310,2310,1.8277470000000164,0.0,2500.0,-2500.0,2500.0,-2500.0,11.740133772963922,84.42134929341755,133.1686132250041,105.0,12.0,2.4166361375346344,3.2120001,12.368732300037243,-0.05559439445897588,-0.32579309864554445,-0.12211087643156808,0.3800540386551332,0.15579476945158505,-0.08212427164307759,0.04570142439749661,-0.2543089201325857,6.052940439661838,11.44105411385945,-260.92844599989974,81.52237309731248,12.061629588680177,2.0478895651083944,-0.7694003745884342,215.04031,212.11403713314877,6.0,11.447920297659204,-2.727110819356805,-0.4221549859974134,-15.400602794984453,16.034271916723608,1.5574729000000002e-19,2.4972943981528072e-18,12.241133017206685,-0.3855233142203415,0.5649460771093319,2.6424084772350027
2311,2311,1.9235730000000046,0.0,2500.0,-2500.0,2500.0,-2500.0,11.830993579397633,85.73311411523338,133.1183492038032,105.0,12.0,2.418103019190321,3.2120001,12.349662349552755,-0.07889969334979098,-0.3205132521261471,-0.11802005197927758,0.3774537235971477,0.15929643552873868,-0.022572608662042783,0.0543961454857844,0.5492950611474329,5.913805283913459,11.690778416209328,-259.7832585468132,81.74157385367162,12.037404093962447,2.0437682219223268,-0.7294931558632376,215.04031,212.05789671974918,6.0,11.511005850257531,0.3865886162878769,1.2144766889004608,-13.457563246820124,16.03471199413541,1.5574729000000002e-19,2.4973629390170856e-18,12.212044960424066,-0.4303384580228221,0.5766491632280432,2.7034816943589
2312,2312,2.017885000000007,0.0,2500.0,-2500.0,2500.0,-2500.0,11.851275616054016,86.02731443510108,133.07220493389198,105.0,12.0,2.4200616428907624,3.2125308802914248,12.300492776313448,-0.0927670707988598,-0.3147577569982561,-0.11699148245413173,0.3750037045050232,0.0960763146709102,-0.0008880835333885949,0.04503498001134011,1.3496610266254072,5.9277662718026525,11.942439122890324,-258.6559023962141,81.9591790521308,12.00574307566728,2.0499998082377693,-0.6716490164464856,215.04031,212.01254553759702,6.0,11.585396995350099,-2.413711660353933,-0.4665574861647828,-14.74781894596643,16.034022502662392,1.5574729000000002e-19,2.4972555525886854e-18,12.174384149146324,-0.4622775001768709,0.638078460584834,3.000216003640103
2313,2313,2.13723600000003,0.0,2500.0,-2500.0,2500.0,-2500.0,11.791836953840914,85.16654593936299,133.02097512849159,105.0,12.0,2.423609661753106,3.2143049192889275,12.175131532531381,-0.09980942330063018,-0.31050590954239743,-0.11759175865231515,0.3732945988656565,-0.021249374927584712,-0.04695550857835284,0.05568879344822748,1.7533799073337737,5.919891229682991,12.2788586636074,-257.23607875628977,82.24230509160743,11.975828634991359,2.0857624681467226,-0.6334488498682613,215.04031,211.9595747157391,6.0,11.663874732595248,1.4572660877167902,-1.6405215693413002,-6.775094857983139,16.033149957315082,1.5574729000000002e-19,2.49711965601544e-18,12.146011473651075,-0.487085761824325,0.6747750595698333,3.1798143392080296
2314,2314,2.233651000000009,0.0,2500.0,-2500.0,2500.0,-2500.0,11.718249123863275,84.10691197372883,132.98577941199434,105.0,12.0,2.426246190311616,3.2147509919693555,12.131482825882205,-0.10266080358112332,-0.3057884533431254,-0.11839921657725885,0.3711484204916137,-0.07283340431531977,-0.00834083439773216,0.08457817924017151,1.8778423115216396,5.948520062956816,12.625891729196086,-256.0953561732284,82.46731662992124,11.937659812204727,2.1158176733464553,-0.5698758966653584,215.04031,211.9192996289753,6.0,11.71390847720848,-0.8639136496848911,-1.3788185408267883,-9.920268441102165,16.03276559589307,1.5574729000000002e-19,2.4970597927655806e-18,12.105312444696768,-0.5192411682318385,0.7444463231236804,3.5191146939949296
2315,2315,2.3308000000000106,0.0,2500.0,-2500.0,2500.0,-2500.0,11.5956562719333,82.35630651641661,132.95698140735593,105.0,12.0,2.4286847308298225,3.2142632643566094,12.142213321090225,-0.10426056333190213,-0.30349658818371605,-0.11866918257119785,0.3699600701313665,0.05283510891897244,-0.057543042441889826,0.05991709662577738,1.9323055089232832,5.9461856716142725,13.015712691613938,-254.95022960988322,82.69935551365406,11.913973814162436,2.1583324623004976,-0.5291490923631734,215.04031,211.8950165636468,6.0,11.717593344284394,3.10881383735556,-1.1879872751625962,-5.400385639911417,16.032584854466588,1.5574729000000002e-19,2.497031642778216e-18,12.083726698684433,-0.5527416686116982,0.7862747813924359,3.7229249184443898
2316,2316,2.425059000000033,0.0,2500.0,-2500.0,2500.0,-2500.0,11.564891388154061,81.91985655436315,132.9365652193102,105.0,12.0,2.4310467564450717,3.214418843962012,12.151350381973305,-0.11491879630515354,-0.3005661936830428,-0.11942529342315818,0.368040700973222,0.02876713570559689,-0.033451443763009236,0.08701035880383931,2.3790601881333164,5.960063081905683,13.48842129226464,-253.84646633641827,82.92700351258398,11.867980138039476,2.206493385090896,-0.4496583010025293,215.04031,211.86967140048037,6.0,11.725913352296612,0.9899116604601468,0.9468352566433094,-12.43167982708842,16.032409489757548,1.5574729000000002e-19,2.497004330200021e-18,12.036814279694347,-0.5857990090290929,0.8684862344275293,4.126882115844366
2317,2317,2.5428870000000074,0.0,2500.0,-2500.0,2500.0,-2500.0,11.614923451532936,82.63020508635654,132.9258309059287,105.0,12.0,2.433993178289549,3.21559724770678,12.160778260118322,-0.12851370104675616,-0.30219738843366617,-0.12024123583155187,0.3662972966729257,0.18743226653513415,0.07933835474662815,0.07187780553817745,2.7421608416585626,6.067139293118595,14.099759836552833,-252.46818100373662,83.218950767053,11.812688996148387,2.2803086309440057,-0.3159441278974469,215.04031,211.870715178536,6.0,11.717693415492949,-0.08801863876951088,1.2143847200170028,-15.230784789738603,16.030914398963873,1.5574729000000002e-19,2.4967714738606018e-18,11.978425738331325,-0.6166492793027447,1.0247602118706345,4.8897760650692375
2318,2318,2.63876300000004,0.0,2500.0,-2500.0,2500.0,-2500.0,11.617873405724927,82.67218465355967,132.92267570604307,105.0,12.0,2.436376519958614,3.2168258250081685,12.094355786673615,-0.0985001247302181,-0.2975011366003668,-0.1177728250674798,0.3648086344037026,-0.15670081901942806,-0.07764964743697139,0.02258057047648321,2.2507597002203217,6.079136344416599,14.474694108593278,-251.35395196107172,83.46912635424472,11.763402466147614,2.370111446683663,-0.30386465647521765,215.04031,211.86638386890488,6.0,11.722500683103512,1.6857290530352924,-0.8414244932810724,-5.209044480517903,16.028896592748413,1.5574729000000002e-19,2.4964572060108e-18,11.94722266192499,-0.6038118414399245,1.0344111261776467,4.948426826847485
2319,2319,2.7357840000000238,0.0,2500.0,-2500.0,2500.0,-2500.0,11.556272665218827,81.79788048311768,132.92552945011914,105.0,12.0,2.4387779575758173,3.2182667452152987,11.972837942385574,-0.08052991986277336,-0.294153034677736,-0.11701063633625768,0.3649630037921966,-0.04364163453471784,-0.04194373183751851,0.0009946281603393668,1.2711246682969823,6.005422177262976,14.695139832019553,-250.23219149843948,83.7346246996317,11.701261491555293,2.4472283565276323,-0.4420769756551212,215.04031,211.8736110693079,6.0,11.704830411456516,-0.020154501806813663,1.424905063758917,-10.752864332784329,16.026854688863924,1.5574729000000002e-19,2.49613918501435e-18,11.920035881375526,-0.5798942414151875,0.8721649867121912,4.184759493508604
2320,2320,2.832125000000019,0.0,2500.0,-2500.0,2500.0,-2500.0,11.406726786729864,79.69448407582945,132.91440713920613,105.0,12.0,2.441395084280092,3.2196975653914506,11.895189044825626,-0.07718392874566139,-0.29599410770812434,-0.11664554358269115,0.3670257466611749,-0.11845963890396302,0.00820006675173046,0.0668621907262084,0.8244482977336318,6.046774505192918,14.909085642801811,-249.12322027779962,84.00248757937109,11.648803611928814,2.5029264187726166,-0.5771387938620731,215.04031,211.8531576595425,6.0,11.66349776820662,-1.6683823184651627,0.2746410628425475,-12.734911800743074,16.02511314568904,1.5574729000000002e-19,2.495867944384444e-18,11.895201741825604,-0.5654102882193353,0.7405466079694869,3.5624032490787343
2321,2321,2.929048000000023,0.0,2500.0,-2500.0,2500.0,-2500.0,11.363048553348285,79.08533402435124,132.88293517425492,105.0,12.0,2.444273914012029,3.2211370282379153,11.862562307863664,-0.09002296075136397,-0.2992775077015201,-0.11667747161806817,0.37008150363489617,0.04064713603907581,-0.012144272536354968,0.04990512181799468,1.0483751048069234,6.236371722248387,15.118534217399745,-248.01589906352143,84.27760275617766,11.610086560448465,2.5698972643574236,-0.6200076485713928,215.04031,211.84478749950028,6.0,11.574995685538678,2.7800353092561663,0.7380193710055154,-6.939490633104699,16.023570359942312,1.5574729000000002e-19,2.49562765968534e-18,11.875571349154464,-0.5315865541584001,0.7333545719138924,3.5337105939294955
2322,2322,3.0491630000000214,0.0,2500.0,-2500.0,2500.0,-2500.0,11.235231854768452,77.31615165402637,132.8441530470784,105.0,12.0,2.4478620647896765,3.222620808952489,11.87465488418724,-0.13711484601693924,-0.3012237011790608,-0.11643616247288185,0.3726319104158155,0.3757522622553228,0.04091755360982695,-0.0007401604352722652,2.546737139589978,6.327483637197681,15.355981020931619,-246.6517914816893,84.63177619116472,11.542251682710187,2.6397350961017416,-0.5353250346918029,215.04031,211.80838201405032,6.0,11.479452081338625,-1.9443812378379008,-0.7374393223403268,-16.517852216839266,16.021658412210932,1.5574729000000002e-19,2.495329879007556e-18,11.816163258051946,-0.4736701273827039,0.8272113690896856,4.004558679058007
2323,2323,3.144391000000013,0.0,2500.0,-2500.0,2500.0,-2500.0,11.17575962902701,76.49978645281485,132.8136046883647,105.0,12.0,2.450721983917953,3.223574147104931,11.923273175716266,-0.13640105706512354,-0.2943926154378257,-0.11460301224493046,0.3698704705777399,0.15326880737636786,-0.059141127639404226,-0.03353910821358569,3.0865465751660874,6.348037791079137,15.3724240856539,-245.57509619008246,84.91853461022424,11.521485513461402,2.697986313150585,-0.3065200490551303,215.04031,211.77332567986406,6.0,11.442958192361527,0.687526837106399,-1.4168336953902578,-9.95003435606394,16.020899795957412,1.5574729000000002e-19,2.4952117265819195e-18,11.785887805066226,-0.3960242519820207,1.0513756147166633,5.097651930193276
2324,2324,3.2407770000000085,0.0,2500.0,-2500.0,2500.0,-2500.0,11.260264948914205,77.66108661993493,132.7991892914651,105.0,12.0,2.4533713538261264,3.2242744288247254,11.968586763273876,-0.13600270416386184,-0.2799254462721393,-0.11692405252178133,0.3692352310626021,-0.08874795227843704,-0.11032745825448644,0.05643533811141097,3.2022591252536077,6.071015007126586,15.488038858183598,-244.4852251871509,85.2168103400252,11.501458632495888,2.75522488030325,-0.09312717895795088,215.04031,211.7640931187822,6.0,11.394886630192973,1.6820188010374464,-1.0878405528175916,-8.506744232849691,16.020464211094634,1.5574729000000002e-19,2.495143885419977e-18,11.763104936648586,-0.34915540901451425,1.1996471067066306,5.823113534685196
2325,2325,3.3366180000000156,0.0,2500.0,-2500.0,2500.0,-2500.0,11.336833756230801,78.72082334926604,132.80551226733522,105.0,12.0,2.4558128775303283,3.2247626945004044,12.01058132257259,-0.15042929992994525,-0.2705073530578247,-0.1204870651225428,0.3665299397552143,0.099999698684015,-0.08232729830509866,0.10199839724450646,3.3692843445258536,5.622186112101631,15.843479048041775,-243.39889980175698,85.51318717611689,11.47988469249859,2.8193537324613893,0.028651649845716567,215.04031,211.7634295379094,6.0,11.39825708972633,0.7032678397908199,0.8079070952431258,-14.241696084802824,16.020031089180318,1.5574729000000002e-19,2.495076427855583e-18,11.753853925442767,-0.35015385009752864,1.2251417103323523,5.9506337215442935
2326,2326,3.4347150000000397,0.0,2500.0,-2500.0,2500.0,-2500.0,11.323963211732796,78.54219404157406,132.81875331014842,104.74880124875007,12.0,2.4582560188761247,3.225753721373625,11.988045264735012,-0.14645025247988494,-0.268224528368791,-0.12083337609162577,0.3659560743201853,0.02381178349779264,0.03244360944563585,0.05741994330033955,3.420906631927149,5.543651394320045,16.332034983986254,-242.28647460769488,85.83381445650197,11.4618875740059,2.892917566534684,0.14753527901059313,215.04031,211.7805518814059,6.0,11.388797950202493,-1.2349238929622854,-0.4783209316144159,-15.068685509587624,16.020283021269506,1.5574729000000002e-19,2.495115665595738e-18,11.743375300539892,-0.3679903410580881,1.3288983157614664,6.456213135588911
2327,2327,3.5546810000000164,0.0,2500.0,-2500.0,2500.0,-2500.0,11.361807200939273,79.06803671418973,132.85158589564296,104.16361552157272,12.0,2.461182006030584,3.2275093370737302,11.887979090573412,-0.16193471092335682,-0.2732921177711817,-0.12184056478846896,0.3624095312366116,-0.0841233178158726,0.03968175236719425,0.13639093994016946,4.057647613510225,5.6364596019149635,17.04632036801913,-240.92348648676202,86.23084951425743,11.460482340169712,2.9716697883091947,0.2618049871979836,215.04031,211.81887879173127,6.0,11.38915904637369,3.5463550130909693,0.7767360386488855,-7.287476222901995,16.021211936321485,1.5574729000000002e-19,2.4952603415977238e-18,11.745229363415348,-0.4153158300086516,1.4696092506334697,7.132007638022496
2328,2328,3.6506760000000327,0.0,2500.0,-2500.0,2500.0,-2500.0,11.501518541512626,81.02455157035915,132.87728205045087,104.0,12.0,2.4636101791724245,3.2292882246952663,11.885440437697227,-0.16727094142606466,-0.27834099495613324,-0.12282823537757215,0.3616427952400702,-0.04581427780869807,0.051888207869505786,0.15113264044764824,4.378716995620291,5.842307923006875,17.702833471722972,-239.8375819263641,86.55950268561381,11.420504534793508,3.0112110899723166,0.2575476023314292,215.04031,211.8442971645747,6.0,11.410408531329699,-1.0128243115361129,-0.8351642254714189,-9.971879886298094,16.02195524026106,1.5574729000000002e-19,2.4953761091719594e-18,11.707869399389038,-0.4897614675591347,1.5141119805284873,7.3688373289671425
2329,2329,3.7450360000000273,0.0,2500.0,-2500.0,2500.0,-2500.0,11.715293755933812,84.06448518340905,132.90198359699878,104.0,12.0,2.4660428416659794,3.2312342963050424,11.923876787289885,-0.1464839619174274,-0.2934501759812161,-0.12280471141468788,0.3617535446443959,-0.10492090401731892,0.12057315153192374,0.10498105095850407,4.042907063247242,6.222548010515117,18.422517959569827,-238.76984856873244,86.87729500072219,11.385573291029909,3.056810325985837,0.2202289972601544,215.04031,211.87653634754787,6.0,11.437535358746187,1.7539270908578883,-0.9620271157200652,-7.698000947739898,16.025341016898935,1.5574729000000002e-19,2.495903434707853e-18,11.674899341459104,-0.5884580625536717,1.5664138075380247,7.641702476246402
2330,2330,3.861153999999999,0.0,2500.0,-2500.0,2500.0,-2500.0,11.871250940219195,86.31755284290934,132.9422356220908,104.0,12.0,2.4696881516684503,3.2331520704866312,12.114493271711266,-0.11566098401715523,-0.3057313471497087,-0.12309520400608305,0.357917709037716,-0.14099063609886608,0.06941717196214464,0.12884969014628286,2.87855419045116,6.9328294915662685,19.441900612344657,-237.46127290269106,87.2825043890356,11.321474954519287,3.1191782067933667,0.33692900811666016,215.04031,211.90450110270325,6.0,11.557192648728053,-0.7932718005567123,-0.6822605125618153,-14.380269961365288,16.030840934738585,1.5574729000000002e-19,2.4967600320066014e-18,11.587820764476895,-0.7331896210610642,1.8460507979365572,9.051701735680512
2331,2331,3.957930000000033,0.0,2500.0,-2500.0,2500.0,-2500.0,11.778417960738876,84.9728979267793,132.9851797881935,104.0,12.0,2.4729815466864355,3.2345635322153616,12.32949924534268,-0.11341829472262994,-0.30348740216858994,-0.12394626275494945,0.35647042114025856,-0.02439443248934514,-0.01808085789285697,0.17451291519721585,2.280283374115644,7.114874265859821,20.4139408411413,-236.37439222686345,87.61743317624838,11.282446817695787,3.1838042754219598,0.4785031155029056,215.04031,211.95782520007992,6.0,11.611249313283706,3.3924172566549857,1.514973192773826,-10.461424945782335,16.035424720618895,1.5574729000000002e-19,2.4974739442354e-18,11.535149327770245,-0.8676658398135176,2.038361968521261,10.021213529712792
2332,2332,4.055455999999992,0.0,2500.0,-2500.0,2500.0,-2500.0,11.552937752187526,81.75061207424952,133.0392029887584,104.0,12.0,2.527852374570754,3.3031674436668887,12.309087680281374,-0.1539741089655619,-0.2952532286270702,-0.12430234410320308,0.35283093281292416,0.14748214075354102,-0.05632435820567805,0.20589077409792145,3.2528034209266985,7.01011950868873,21.349025865629013,-235.26181539768623,87.96343661396881,11.243551343738275,3.211093897643021,0.5700084633303574,215.04031,212.02644808131384,6.0,11.617835835469654,-1.2321619402709016,-1.787048886242023,-11.439465126027825,16.03801634562963,1.5574729000000002e-19,2.4978775828075183e-18,11.484425331206095,-0.9814902084094776,2.1178180443054733,10.448409052907797
2333,2333,4.151617000000044,0.0,2500.0,-2500.0,2500.0,-2500.0,11.359699771826778,79.0387287864993,133.10507722236716,104.0,12.0,2.6044650261604017,3.400145532142804,12.185440679298086,-0.1703414304063324,-0.28919938033469444,-0.12338510455355607,0.3485131811920145,0.0950136295557441,-0.03595693051743565,0.10623290749698228,4.577935242416442,6.752287391296848,22.24556869402591,-234.17046590549447,88.30209569582418,11.197794456483516,3.280418278945056,0.5429481012967027,215.04031,212.07708644864488,6.0,11.618168054005402,0.7738823611428971,0.23288078548355395,-11.8951747745055,16.04002893498195,1.5574729000000002e-19,2.4981910381450248e-18,11.461889450486472,-1.0426750948191028,2.039176560055775,10.08790180471241
2334,2334,4.2456470000000195,0.0,2500.0,-2500.0,2500.0,-2500.0,11.159947288902176,76.28346191732199,133.18266554214264,104.0,12.0,2.6376502887903217,3.4412450412393287,12.080633626425794,-0.16417538493536385,-0.2850482010698316,-0.12295236866534745,0.3456493424991556,-0.18201602986071527,-0.03624677573368067,0.1391164333134179,4.1041870869223205,6.641047484090987,22.89365441660977,-233.09460314569918,88.64477329664612,11.172618629229774,3.3488861858669354,0.6666444975538292,215.04031,212.1322532961648,6.0,11.579656452972666,2.3918931713068057,1.524678264117883,-12.610093306802485,16.041996923842284,1.5574729000000002e-19,2.4984975470767724e-18,11.440425499300618,-1.1094744907642315,2.143887991048574,10.613889171739727
2335,2335,4.365237000000008,0.0,2500.0,-2500.0,2500.0,-2500.0,11.096592510205626,75.419803211569,133.31003666153472,104.0,12.0,2.6490124122232843,3.4538031902549777,11.959237029783118,-0.18034237334744996,-0.2701003808529331,-0.12562191288042054,0.3444496868587272,0.293412028296606,-0.06539029202635202,0.14345402579776587,4.517376043674457,6.1757237300875625,23.91453464282773,-231.73175707120527,89.0808721117816,11.140640965197186,3.4186203291472435,0.8663790038880099,215.04031,212.24157733802107,6.0,11.467761382219992,0.9420493546111386,-0.7268017694992657,-9.19533109247566,16.042980303554106,1.5574729000000002e-19,2.49865070580193e-18,11.409699193997824,-1.2170381803270467,2.249132258691502,11.151432788839363
2336,2336,4.461839000000026,0.0,2500.0,-2500.0,2500.0,-2500.0,11.215959043033813,77.05112279838397,133.41893280571114,104.0,12.0,2.6476612115331633,3.4496932965113234,11.948759557472195,-0.19165142454976605,-0.2648148771627165,-0.12639815283747968,0.3442150414105912,-0.13729728051869067,-0.04335377058029799,0.20077845257006585,5.1411708629217685,5.720505310247012,24.862404966347828,-230.63099813355944,89.44341852614231,11.112758613365976,3.492091431956445,0.939292784556662,215.04031,212.3487233298341,6.0,11.390283996925607,1.1240337108496732,-0.5727486606554695,-8.261549428196208,16.043304604264527,1.5574729000000002e-19,2.4987012147587228e-18,11.399896488375228,-1.3093964665488165,2.227477005931466,11.055982240776595
2337,2337,4.559443999999985,0.0,2500.0,-2500.0,2500.0,-2500.0,11.320842551095856,78.49892351697497,133.5353913049315,104.0,12.0,2.6433552676058683,3.441559713968421,11.96263457401607,-0.17489306877364502,-0.2640432401077893,-0.12594643594264804,0.3425470195241003,0.020908220124373725,-0.006746662943198152,0.15457818361727482,4.885381855347331,5.491562878002722,25.80844082737207,-229.5299363697021,89.80946856342337,11.078829183192987,3.573098212356045,0.9590147714482647,215.04031,212.46123177017705,6.0,11.354179713721368,1.527469277167839,-0.017066997353136326,-7.79090768894645,16.043632272126892,1.5574729000000002e-19,2.4987522481403066e-18,11.384671548295474,-1.4239864306424956,2.2042398122588005,10.95772507816193
2338,2338,4.6537090000000205,0.0,2500.0,-2500.0,2500.0,-2500.0,11.339314782811641,78.7552931471548,133.64486681040694,104.0,12.0,2.65896853692946,3.4592956746793275,11.948036313766346,-0.15107447852726566,-0.2702751316586848,-0.12517383041102156,0.3384120489650036,-0.2742061859809484,0.06401171792094032,0.2114323610193384,4.150781101337476,5.458812009874319,26.72740541912569,-228.462466742508,90.17321738659871,11.04150489090384,3.6409195800952463,0.960118904602434,215.04031,212.57332203959209,6.0,11.354943329934015,-0.7970180588437838,-1.936093346164936,-9.84086186322108,16.0449095150629,1.5574729000000002e-19,2.498951175266261e-18,11.355793058058078,-1.557832158439472,2.207366614433813,11.00011692319257
2339,2339,4.775568000000021,0.0,2500.0,-2500.0,2500.0,-2500.0,11.12158015293061,75.75987833146195,133.77977396993418,104.0,12.0,2.6915063356341737,3.4982136503334953,11.911670396131987,-0.14593481530241226,-0.2795643457899957,-0.12563149950148542,0.3302421773137394,0.02354152726651509,-0.009240855719892376,0.1183503364789218,3.405299169236042,5.714406607391227,27.934741923545452,-227.09292937715657,90.64443699656923,10.992124335427174,3.728822240705018,1.02553582563321,215.04031,212.72169927388276,6.0,11.3463586390432,-1.325458534820653,-2.7119439194186223,-10.91556226486573,16.046880013743273,1.5574729000000002e-19,2.499258075095678e-18,11.299112887596399,-1.717487060491499,2.3422230948217355,11.711130828571527
2340,2340,4.871066000000013,0.0,2500.0,-2500.0,2500.0,-2500.0,10.93092574702175,73.18466851429494,133.88287245151935,104.0,12.0,2.696391312867421,3.5025436634553904,12.029117886546011,-0.13543668447556872,-0.27958118470097715,-0.12304740444117232,0.3244632070358299,0.17038409876904778,0.014604249578772446,0.09118140422948126,3.2107117324812458,5.751771152192338,28.756660243719608,-226.00841669273441,91.02161536918732,10.953183280079703,3.8083839485560937,1.0202185080235908,215.04031,212.83725949501,6.0,11.302791810379224,-0.03026973845551595,-1.7672588122581845,-7.071201163175407,16.048424246692658,1.5574729000000002e-19,2.4994985851926737e-18,11.2747013239224,-1.8000189471450834,2.351143516710497,11.77923429441845
2341,2341,4.967514000000023,0.0,2500.0,-2500.0,2500.0,-2500.0,10.798310490904678,71.41966386417653,133.9846464043103,104.0,12.0,2.7000294751676215,3.5052722624425936,12.15690514265911,-0.14132002644724734,-0.28263031247260473,-0.12199383041071972,0.32031315563720764,-0.2496143913328865,0.05638031231416633,0.21139253720459128,3.059191075402896,5.762168150807309,29.443535968914574,-224.9250129352345,91.40474078623409,10.917631628641159,3.8860598449838375,1.0698965320673333,215.04031,212.96807552910587,6.0,11.214482962592497,0.3795407470776909,-1.9231409899148448,-6.8930769396057965,16.04890612822239,1.5574729000000002e-19,2.49957363693503e-18,11.252661226218413,-1.8545895110751465,2.406727973649312,12.072572859503126
2342,2342,5.063236000000018,0.0,2500.0,-2500.0,2500.0,-2500.0,10.700837918540289,70.1361341257745,134.08895794410802,104.0,12.0,2.712186855556605,3.5192844665829126,12.083328417731046,-0.14350749253924525,-0.28027566073742,-0.11963833172685108,0.3207718041965117,0.1901013532370096,-0.028598830941453414,0.061672594084149185,3.2190000814790714,5.618789507340187,29.96843939481915,-223.83574187133976,91.79321147260514,10.875817891451684,3.974505124831064,1.1201064645123178,215.04031,213.0880512329588,6.0,11.077680410936338,1.2392552611756678,2.5593002618893825,-12.34351093227609,16.049270769484316,1.5574729000000002e-19,2.499630428823397e-18,11.242608911543774,-1.8547348016546037,2.4228636817557456,12.161656232300194
2343,2343,5.158809000000019,0.0,2500.0,-2500.0,2500.0,-2500.0,10.529530362983133,67.90852041873117,134.19796266055448,104.0,12.0,2.727462934763212,3.5374248285425254,11.936294759029618,-0.1502497592855935,-0.27991138436324664,-0.11798072099606036,0.3218802081659041,0.1308433217574696,0.016732579739796943,0.07628733097857612,3.2501470915359505,5.392419569853972,30.312345178535434,-222.75560283808758,92.18659151878505,10.835407275551882,4.056074266717904,1.0698526846104823,215.04031,213.20460545545296,6.0,10.927549435238323,1.3925234903453545,-0.06784912522211739,-6.512954503924284,16.049634843148954,1.5574729000000002e-19,2.499687132310025e-18,11.250222063980317,-1.8373829340212768,2.3180020852750887,11.642329873933775
2344,2344,5.2794830000000275,0.0,2500.0,-2500.0,2500.0,-2500.0,10.280958839549248,64.74011119667307,134.328678751109,104.0,12.0,2.717377790377963,3.5216825747889735,11.845506929009836,-0.12595497478233209,-0.2840465869346768,-0.11351584332652125,0.3264275190238734,0.0019483312681509988,-0.03233901728971044,-0.056415844925956124,2.9387856831583523,5.229107951086017,30.469961616783056,-221.39785762647384,92.69419075007704,10.774985907422753,4.171241785399158,0.9821490063111716,215.04031,213.3330949854491,6.0,10.675610875765189,2.4845106406381543,2.4429457754081247,-7.404408542931493,16.052092931737324,1.5574729000000002e-19,2.500069972946244e-18,11.265124035415509,-1.7574792285787388,2.1848864443045057,10.97631747774621
2345,2345,5.375595000000004,0.0,2500.0,-2500.0,2500.0,-2500.0,10.12290297115057,62.764850666638424,134.4252632668057,104.0,12.0,2.6999251935396518,3.4967502009852414,11.803620955895095,-0.07336677125985744,-0.28902586700511856,-0.1096727809038037,0.32996496697513816,0.0032737120660300024,-0.05976094555037415,-0.1344492043480309,1.4104099256846443,5.181408864524808,30.280312199780827,-220.32623347981686,93.1054988670852,10.747879920836914,4.2248768363256515,0.9188925051992304,215.04031,213.4361737248339,6.0,10.458047420792289,-0.8347636435103123,-1.9787631991574317,-9.51554256529786,16.054397063142144,1.5574729000000002e-19,2.500428835168348e-18,11.2822316956968,-1.715812795588756,2.1050784315395115,10.568919452548599
2346,2346,5.47237800000002,0.0,2500.0,-2500.0,2500.0,-2500.0,9.9928595609628,61.162557575842406,134.52070570463334,104.0,12.0,2.6533473404339176,3.4347494041349984,11.798142292813552,-0.017301191023251124,-0.2929715247137079,-0.118941400949364,0.3336835693365417,-0.06820998264581668,-0.01675944585011848,-0.0864120438807576,-0.4548365755161722,5.126546492760438,29.964194036940942,-219.2476127118457,93.52586635998699,10.748809839414397,4.2721815024770375,0.8809155096553498,215.04031,213.51920489001103,6.0,10.244338212628664,2.5455797456657754,0.9970030071860264,-7.6845573481236915,16.056717280698255,1.5574729000000002e-19,2.5007902027649226e-18,11.321376388089393,-1.6758484811472978,2.049081958079087,10.259034533847489
2347,2347,5.581247000000019,0.0,2500.0,-2500.0,2500.0,-2500.0,9.913513333904971,60.19514236975913,134.6256107767968,104.0,12.0,2.596939828794619,3.359901119168016,11.797057535060404,0.0008148457135461508,-0.2965442630416631,-0.12168026996740801,0.33477217340454485,0.20684363028959493,-0.06548412056731841,-0.09472037703865524,-1.599142662431441,4.945777014393492,29.73631713277703,-218.04133336908583,93.99978311266042,10.756026485361302,4.289562898220316,0.79051659384002,215.04031,213.63589661865123,6.0,10.041962036235914,0.2510768347442367,1.6209629590056904,-12.298876764150481,16.055075058562856,1.5574729000000002e-19,2.5005344311177566e-18,11.356457658842185,-1.6539580058183188,1.9143477512681213,9.568344327357597
2348,2348,5.6768240000000105,0.0,2500.0,-2500.0,2500.0,-2500.0,9.691301382760992,57.52685133057057,134.70366589577662,104.0,12.0,2.5616494822893854,3.312258654926493,11.576014613518796,0.001906336852506636,-0.294056418599888,-0.1219045815627608,0.33979233892086164,0.10734874385377588,-0.0032523448332565964,-0.0166550245003492,-1.8723384736698556,4.743819654813228,29.59086372838536,-216.9713711297911,94.41598629512636,10.757129124798373,4.327004085567248,0.6481387085036278,215.04031,213.7109420306205,6.0,9.838873935510712,0.0976851918291246,1.9112817052269797,-11.881450302697013,16.053307167643492,1.5574729000000002e-19,2.5002590868980497e-18,11.397840792760697,-1.596101579989732,1.7234885531912976,8.598659321343076
2349,2349,5.772601000000009,0.0,2500.0,-2500.0,2500.0,-2500.0,9.439813814157104,54.57993145223522,134.7645498018972,104.0,12.0,2.5271852760363163,3.2656591647814976,11.340589620604074,-0.0036934378649396,-0.2907254241033556,-0.11926162723332835,0.34379766707893444,0.3240774784947847,-0.048487234067669256,-0.1061566624293707,-1.795700202528969,4.503313117360265,29.316268210989467,-215.90919389732122,94.8361032100435,10.756851568058947,4.369048687901953,0.4733950667911273,215.04031,213.7624913219424,6.0,9.639430633693141,-0.5737351059672671,-0.7292857363052527,-6.948638846042964,16.051535577317537,1.5574729000000002e-19,2.4999831665057915e-18,11.44571291797778,-1.496000762042625,1.4900763459828554,7.417415234531418
2350,2350,5.892399000000012,0.0,2500.0,-2500.0,2500.0,-2500.0,9.40642872391348,54.19455893100341,134.8313307808277,104.0,12.0,2.525177602583794,3.2610888379798686,11.456259502601865,0.0005622360275086545,-0.2864022794344356,-0.11172674834601187,0.34768446794767777,-0.3352138299538573,-0.016588815385137658,-0.09766795975479092,-1.6229568520473256,4.162938441509203,28.52527357965439,-214.60230607489498,95.36710515300493,10.768326523005,4.4163819289153485,0.3408192894053473,215.04031,213.8352492183839,6.0,9.40114197662134,-1.142872906232288,-2.9737583548111837,-8.521594790847107,16.050338402783517,1.5574729000000002e-19,2.4997967098164613e-18,11.514882037079804,-1.2921986158573844,1.2709801558760998,6.298649817985457
2351,2351,5.989218000000022,0.0,2500.0,-2500.0,2500.0,-2500.0,9.434382147958774,54.51713622773401,134.87619990223178,104.0,12.0,2.5271202929062024,3.2620900719314503,11.577481353610423,0.028231841930918763,-0.2792780104008876,-0.10970304479501893,0.35405204502360205,-0.3748488674689172,-0.044769497077700206,-0.13061415870516316,-2.207953684640509,3.8312268579481183,27.53642882286313,-213.54702812248937,95.80020132631806,10.80056356833185,4.439239095608493,0.23976855413416176,215.04031,213.86803463802624,6.0,9.227098206798686,0.40535261906472103,-0.9737557170888652,-5.957795639737751,16.049440400847185,1.5574729000000002e-19,2.499656848448463e-18,11.587349688318966,-1.093678075245818,1.0861440408483791,5.354991806266803
2352,2352,6.085134000000039,0.0,2500.0,-2500.0,2500.0,-2500.0,9.447176465753424,54.665100224657536,134.90361229457667,104.0,12.0,2.528952750938548,3.2634644498151566,11.584810910864224,0.03565845425552752,-0.2762796592388765,-0.11306713979226846,0.3594515766549342,0.18486753969153846,-0.0273105730562546,-0.17266777314928805,-2.831233058788396,3.449067822412535,26.659376978029623,-212.50226890230985,96.23556867829979,10.820623702018489,4.476747201685074,0.061509468097785715,215.04031,213.8763028479254,6.0,9.114557045066505,1.2988668636853011,0.6718608075257203,-6.54501961782209,16.048531878780647,1.5574729000000002e-19,2.499515348598694e-18,11.654076920917985,-0.8904244705235113,0.8144762350670738,3.9977680088670136
2353,2353,6.1805630000000065,0.0,2500.0,-2500.0,2500.0,-2500.0,9.486097181652765,55.1164555727235,134.91310748634797,104.0,12.0,2.530775904922958,3.264831849488456,11.592103253321936,0.00025369630411765237,-0.27653308222900264,-0.11321835573463393,0.3624164706739619,0.08838343360365662,-0.0158564889112635,-0.12463525055188912,-2.1923914912680758,3.4583040854610227,25.96088935541019,-211.4611600683527,96.67017802809634,10.848658368708653,4.507276125376047,-0.040414560691598066,215.04031,213.8729678443113,6.0,9.05662017365268,-0.3854566098073007,-0.25616587788351153,-8.270586566400155,16.047074512915348,1.5574729000000002e-19,2.4992883678146357e-18,11.708130090845838,-0.7208709047271041,0.7085931524295358,3.4633998400090933
2354,2354,6.28995900000001,0.0,2500.0,-2500.0,2500.0,-2500.0,9.620172299311246,56.68548615965464,134.9221450029413,104.0,12.0,2.5315226763727816,3.2639548472544355,11.655193330270484,-0.06734557443884126,-0.26362205749139217,-0.10827274185301244,0.36465699946074304,0.3057762724424949,-0.04822693224289834,-0.1311072411465602,-0.3171000253129266,3.2672055190040865,25.058432357094674,-210.2746261319894,97.18676188710644,10.899289253360813,4.554639487534357,-0.05797514924606492,215.04031,213.8686716875677,6.0,9.039663437838676,3.2715277498132433,1.7772312523689109,-8.971608554384193,16.045403846805467,1.5574729000000002e-19,2.499028166095526e-18,11.786610985496594,-0.492975676359877,0.6427117107892507,3.1211885449776866
2355,2355,6.388458000000014,0.0,2500.0,-2500.0,2500.0,-2500.0,9.747856676371782,58.20021793729007,134.92800827328023,104.0,12.0,2.5321810382186376,3.2631359831899336,11.724130538018937,-0.09862212866971104,-0.2517787076865633,-0.10176975447463384,0.3628202895889365,0.19416748633344003,-0.07937302579291138,-0.1704906514458197,1.0218863581632809,2.9381278526903998,24.138619668334517,-209.2001260936377,97.64835358236748,10.95531478990488,4.6010627168092055,0.003608103066930865,215.04031,213.88104350332162,6.0,9.079256432786222,2.348246876269994,0.30323732010994675,-8.738348070497985,16.04407784679767,1.5574729000000002e-19,2.498821645187773e-18,11.863152652942713,-0.2700951576766243,0.6268150417371389,3.024532546510538
2356,2356,6.48300500000002,0.0,2500.0,-2500.0,2500.0,-2500.0,9.916027975638642,60.22567711926917,134.949887131054,104.0,12.0,2.5340225250887416,3.2645171443796834,11.847509928130073,-0.12090460615591375,-0.23665274218702845,-0.10472944305982156,0.3549039375887531,0.02392677180577191,-0.09132754765428522,-0.08945013930251731,2.044685855843852,2.619685208531393,23.426776276984164,-208.15376849946452,98.08554619967781,11.031245811730098,4.646860443704161,0.16154334159862216,215.04031,213.90695037390103,6.0,9.212013172947731,-0.2442027918143799,-1.3116537136168274,-12.160745338944194,16.046188687797432,1.5574729000000002e-19,2.4991504029531062e-18,11.949519547358868,-0.09654785041572926,0.7135737958019817,3.417398713050372
2357,2357,6.602404000000007,0.0,2500.0,-2500.0,2500.0,-2500.0,10.079978660029171,62.23365910531276,135.00630536924854,104.0,12.0,2.5365424246716723,3.266542697550438,12.002059148516723,-0.1049375793026863,-0.2164088175088993,-0.11000962613325896,0.3393833087417544,0.01089853654981898,-0.056248104505055734,-0.040763456866997116,1.8384147399309292,2.1650387937341797,22.703991537340457,-206.82037801669964,98.64231048514796,11.171605801026905,4.740672308882373,0.4952014599849879,215.04031,213.95587066885147,6.0,9.498377508565438,4.186838186390155,2.3936409712159423,-12.482619931388312,16.048854370521685,1.5574729000000002e-19,2.4995655758134084e-18,12.108319504325486,0.09195436943403797,0.9505000033652284,4.488499537408383
2358,2358,6.700321000000002,0.0,2500.0,-2500.0,2500.0,-2500.0,10.166067223226706,63.30121259648825,135.06719032379476,104.0,12.0,2.5395145901208087,3.2695147143913017,12.122927457795393,-0.13735681879131445,-0.18971098031385947,-0.11552291236436404,0.3245067677560853,0.11135049349729707,-0.1490672823309752,0.011205222425403116,2.3948316778928227,1.6129166951094256,22.597890047581764,-205.70252307964898,99.10675362358731,11.292545083923075,4.7950896662876215,0.7728434386736667,215.04031,214.0233607010104,6.0,9.762911914978227,2.7189340694048245,2.7765645710783438,-11.240588337344064,16.05100664075436,1.5574729000000002e-19,2.4999007860694948e-18,12.241506403382578,0.13433043134817718,1.1144043241444224,5.2015781315738705
2359,2359,6.795117000000005,0.0,2500.0,-2500.0,2500.0,-2500.0,10.24139466447497,64.2427906994248,135.13642434980193,104.0,12.0,2.5424420739161477,3.2721894602497774,12.232400341253399,-0.1458807483372609,-0.18141903012313085,-0.12076540651606632,0.3128625052971953,0.27676400814019897,-0.03938115972935534,-0.019025167158238016,3.1602579606906507,0.9736134494998304,22.800315650251683,-204.61252665989159,99.55663618613801,11.316478857593395,4.853136800855028,0.5789200407988346,215.04031,214.09408152384742,6.0,9.998607863629653,-1.132928646494264,-1.1201532499493614,-8.821979621626133,16.052450863269087,1.5574729000000002e-19,2.500125719812321e-18,12.301296872136145,0.1319801636825335,0.7853536965533753,3.6529860227598387
2360,2360,6.890075000000024,0.0,2500.0,-2500.0,2500.0,-2500.0,10.521431843837034,67.80414527352261,135.20256144398883,104.0,12.0,2.545692438215762,3.2735824735210413,12.29415679860832,-0.1355173108106063,-0.2269445741451081,-0.11978045455102967,0.3055095360264996,0.12910610690375998,0.1795289454075258,-0.030924389608685605,2.9178577024418177,1.7131016709013194,23.084273656073663,-203.5150667974896,100.00326982021768,11.333542445526426,4.910085543293696,0.4663873958214102,215.04031,214.16307340750615,6.0,10.201937357054915,-1.2188369193067867,-2.5058634598089684,-11.96845409565217,16.053897553863138,1.5574729000000002e-19,2.500351037951813e-18,12.331762214696116,0.11571648801707787,0.8321444012958696,3.8604532171540895
2361,2361,7.000603000000012,0.0,2500.0,-2500.0,2500.0,-2500.0,11.090975036595946,75.34364918564233,135.27492432111092,104.0,12.0,2.5492111037419183,3.27492964615961,12.367484854365895,-0.109821797818518,-0.2675780433692047,-0.1171661512128562,0.2952608484358841,0.09759631525821436,0.18364989252163946,-0.02494807437914293,2.298102053408454,3.2018301454720404,23.375452068283053,-202.2363243405045,100.52689501960766,11.359941778610878,4.964454505744476,0.6736987358393132,215.04031,214.25251910663403,6.0,10.4757909245113,2.3413875047542048,2.568805331662915,-15.528859166015847,16.05565405312168,1.5574729000000002e-19,2.5006246079512172e-18,12.340260817251801,0.10454553505769533,1.3611909520351864,6.294557246725082
2362,2362,7.096818999999982,0.0,2500.0,-2500.0,2500.0,-2500.0,11.658584039443983,83.2528839443917,135.3722253770669,104.0,12.0,2.5506724720153504,3.274442620826351,12.44006638884108,-0.07088637089189355,-0.2813805168789993,-0.1166042131144756,0.2797907449329604,-0.6984212580230658,0.19878353382764374,0.12384285887371145,0.9512051550961648,4.21140573538092,23.53319632000854,-201.119827792408,100.98332887715364,11.40336254517439,4.949596902563386,1.125644034514613,215.04031,214.35947284928767,6.0,10.815455491777096,2.8842706136433547,-1.293445092253565,-10.107034132231734,16.059148712185088,1.5574729000000002e-19,2.5011688916298182e-18,12.314979542375982,0.01862743136323642,2.036348076150679,9.38920587394816
2363,2363,7.192928000000023,0.0,2500.0,-2500.0,2500.0,-2500.0,12.104855710079901,89.74822524189949,135.5048238251804,104.0,12.0,2.5522144618147604,3.2741288719419788,12.515264901267773,-0.025995279295871816,-0.2813647020392371,-0.12171862101694793,0.2601995057631414,-0.2515021563886839,0.0457522268163062,0.028626507194029368,-0.6845682492316205,4.553637142434863,23.662686945624852,-199.99962412939846,101.43189139411535,11.445300191859019,4.861473066277154,1.54915242459889,215.04031,214.5049808356144,6.0,11.214057737122364,-0.14641075197536502,-3.1308047558129193,-14.384041288529525,16.062639484904032,1.5574729000000002e-19,2.5017125700207996e-18,12.271945944803463,-0.17064665129661494,2.542442748161501,11.704677855375097
2364,2364,7.311886000000015,0.0,2500.0,-2500.0,2500.0,-2500.0,12.416651276770224,94.43110782368713,135.69324158716918,104.0,12.0,2.555145185371357,3.2758872357413846,12.641867387885638,0.05922702612755935,-0.2836035207405909,-0.12910911047511214,0.2355156384622523,-0.07525087520959575,0.05158523880979268,0.050083092459627235,-1.9624267004433176,4.857040886618916,23.917445128482512,-198.60490878381114,101.96882835101269,11.493448483309347,4.699459123817414,1.851218106578304,215.04031,214.71542274220852,6.0,11.717711619187458,1.2360753745828357,-4.360727223538412,-9.220003157359416,16.066854717545496,1.5574729000000002e-19,2.502369081081426e-18,12.210454590395873,-0.4616006358918087,2.92457387275223,13.469396983853828
2365,2365,7.4075240000000235,0.0,2500.0,-2500.0,2500.0,-2500.0,12.270241705858412,92.2173130890153,135.8648541544125,104.0,12.0,2.582914434469458,3.3097285413929862,12.656027952450886,0.1281156079225068,-0.2993998331303803,-0.13284300607704658,0.2189773214223295,-0.2507994594962229,0.13463065232068194,0.059735696069067125,-2.8506258684936947,5.415634523771571,24.144465820666703,-197.47792633533834,102.38626076157786,11.484600802924602,4.578776786035557,1.8396227512005665,215.04031,214.88690261344053,6.0,12.027826693104863,-0.4710994217891231,-0.007268753338391498,-9.26722011308066,16.069641423085127,1.5574729000000002e-19,2.502803102917252e-18,12.124027415621285,-0.6661775523691272,3.0425826041823587,14.087718693855463
2366,2366,7.50365800000003,0.0,2500.0,-2500.0,2500.0,-2500.0,11.85055157575268,86.01687205855276,136.02586717310695,104.0,12.0,2.7053761665881657,3.464391392077665,12.344262089348259,0.09512812109297199,-0.33152026923950034,-0.13433565284368426,0.21003845597239976,0.17058554582322047,0.19583949734837808,0.025345828949791614,-2.915967625122008,6.431711957406199,24.29027240165821,-196.33673856137472,102.78363398431351,11.443853910387947,4.488157031092884,1.6445830161831243,215.04031,215.04264834686447,6.0,12.178194896847133,-0.2371678482047372,1.8152366267204043,-7.5938607536965135,16.07244258110126,1.5574729000000002e-19,2.503239375687126e-18,12.015516803898208,-0.7659198929801369,3.0746760245554525,14.353535299313634
2367,2367,7.602526000000012,0.0,2500.0,-2500.0,2500.0,-2500.0,11.55648893402467,81.80090182907202,136.17863195624494,104.0,12.0,2.803062183382131,3.5869973051845667,12.083628449387732,-0.056232631385106036,-0.3645474141272911,-0.12229989681789855,0.20822779415673892,0.5192300567559457,0.18297907807223132,0.021775361534322468,-0.5768777981238543,7.515328151489997,24.398756709626753,-195.1750924516901,103.18952010741137,11.381833372526787,4.394924007392319,1.558082622077562,215.04031,215.18381290815566,6.0,12.15528025451876,-0.10865780352059028,0.608385093544398,-9.898404453506712,16.075456782260762,1.5574729000000002e-19,2.5037088293492343e-18,11.872409142569413,-0.7248220929320943,3.2291413571773417,15.215635025143705
2368,2368,7.717017000000027,0.0,2500.0,-2500.0,2500.0,-2500.0,11.447751458070565,80.26874255837737,136.35928840591592,104.0,12.0,2.7721813420429204,3.543202825908093,12.087558738285447,-0.1095168389248226,-0.3756259733659068,-0.1093288275942367,0.20830669418697068,0.15306382435974875,0.033744989309713085,-0.05778868859814151,1.8013974244375899,8.145197632351246,24.192472781803044,-193.8578669278304,103.63816491645515,11.250879714136676,4.33477217786502,1.7116263192222507,215.04031,215.3634651814093,6.0,12.030512858170907,0.7174664480128095,-0.6887599373730375,-12.147997043278416,16.081674649559755,1.5574729000000002e-19,2.5046772453306316e-18,11.675207444649148,-0.5430743229995295,3.4914398261239223,16.649155033739035
2369,2369,7.8130350000000135,0.0,2500.0,-2500.0,2500.0,-2500.0,11.481717751265215,80.74580316966691,136.51383982793467,104.0,12.0,2.7506316702652387,3.512136117458944,12.071925839050374,-0.09433525926170726,-0.3830553746458256,-0.10581272276933676,0.20743072821540912,-0.18709803243133405,0.008147677946611585,-0.09712766148578128,2.069278386664659,8.26143453346763,23.67876037663313,-192.77505139737946,104.01767471473076,11.112434394881987,4.29978675480444,1.754724972114333,215.04031,215.5232802531961,6.0,11.91357492254298,-0.055331091379115405,-1.3554411107962423,-8.49271175612423,16.08688927064188,1.5574729000000002e-19,2.5054894084325494e-18,11.528060856413418,-0.395140600884749,3.5201605131025087,16.98035609564095
2370,2370,7.909253000000035,0.0,2500.0,-2500.0,2500.0,-2500.0,11.561254781818167,81.86836072727253,136.65486316426097,104.0,12.0,2.741481128145037,3.4972060320983265,12.002092500968551,0.017340628020800344,-0.395999380112504,-0.10688683669651336,0.20775911130745525,-0.17883209493502294,0.052092472993816974,-0.09608118675681383,1.015714593875232,8.370148027622491,23.03141424668805,-191.70365329314444,104.38856747050836,10.985012375894378,4.2507270051028945,1.6276962493177185,215.04031,215.665776636816,6.0,11.808978328756215,-0.04856583212522676,0.7994730046695784,-10.627943904413424,16.091970498428267,1.5574729000000002e-19,2.5062807958901517e-18,11.410102619584796,-0.3227923015109012,3.3796854642312586,16.499349492796014
2371,2371,8.005228000000017,0.0,2500.0,-2500.0,2500.0,-2500.0,11.559745881571338,81.84699627630587,136.7806797315107,104.0,12.0,2.7363578605520793,3.4875324108065318,11.909810733241196,0.12833945369912925,-0.4084365276822167,-0.10278337972816916,0.20823474031394346,0.2542372581705581,0.040209013208847656,-0.10118539565888897,1.5365503906244729,8.707486238660383,22.55118320726211,-190.64922991820168,104.759862099358,10.875813378132438,4.155844221941563,1.535764799350014,215.04031,215.79523135517053,6.0,11.719491419983024,0.07951976689866011,-0.7798276096517767,-9.364010457830867,16.095863093190705,1.5574729000000002e-19,2.50688705697547e-18,11.271383483767757,-0.2411033380101859,3.3291604432000788,16.455241142214362
2372,2372,8.12542000000002,0.0,2500.0,-2500.0,2500.0,-2500.0,11.581883238712015,82.16077463293786,136.9177029466474,104.0,12.0,2.7527254419692424,3.5051124662826747,11.665509425422051,0.21370314118740014,-0.42324694619855896,-0.08971356738064706,0.21043190709570764,0.35681080967632706,0.056443278198193066,-0.1178771634883684,3.490363224809045,9.032951413768703,21.873025477332643,-189.34607540114902,105.21680476096252,10.746617855963008,4.0217401597392035,1.3109675024816858,215.04031,215.92282346678658,6.0,11.610779125056247,-0.10339549917576807,-2.1006654374350795,-6.999218312401103,16.100737891311955,1.5574729000000002e-19,2.507646293572152e-18,11.123200990340418,-0.07960381864473122,3.1326044906069046,15.728704361981105
