,Unnamed: 0,timestamp,thrustinput,Position state,Position state2,PA-ON,PA-ON2,Airspeed[m/s],Differential Pressure[Pa],GPS Altitude[m],GPS Noise Magitude/ms,GPS Satellite Num.,Horizontal accuracy[m],Vertical accuracy[m],Groundspeed[m/s],Roll control,Pitch control,Yaw control,Thrust control,Roll Angular Rate[deg/s],Pitch Angular Rate[deg/s],Yaw Angular Rate[deg/s],Roll angle[deg],Pitch angle[deg],Yaw angle[deg],Local X[m],Local Y[m],X-velocity[m/s],Y-Velocity[m/s],Z-Velocity[m/s],altitude set position,altitude(Tecs),airspeed set position,airspeed(Tecs),X-acceleration[m/s^2],Y-acceleration[m/s^2],Z-acceleration[m/s^2],Battery Voltage[V],Battery Current[A],Inst. power[Ws],Body_Uvelocity[m/s],Body_Vvelocity[m/s],Body_Wvelocity[m/s],A.O.A.[deg]
9186,9186,0.0,0.0,2500.0,-2500.0,2500.0,-2500.0,12.982771958097414,103.23860878101264,88.85556871708769,104.0,11.029858366104802,1.4578806665355808,1.6338806665355807,11.179359321451305,-0.2998794700917187,-0.12498861639074052,-0.11659347828600633,0.3903052035339586,-0.5863760850841325,0.1564238545151026,0.4429766860481733,8.636015385611724,9.923801651432877,-11.243235546998806,-146.6604325517489,81.19668493766915,10.043990902044891,-4.447642344915579,0.8300255536160468,166.2518,168.77174646128515,9.954741,12.835382043853654,6.006631364680848,-0.11849581791274,-4.3101306505811525,15.003266402152974,1.5574729000000002e-19,2.336718083283376e-18,10.414990719711245,-1.9678559224793173,3.0488805377328787,16.316844925569814
9187,9187,0.09604300000000876,0.0,2500.0,-2500.0,2500.0,-2500.0,12.535465698171615,96.24709389651352,88.89363902478728,104.0,11.44186263119447,1.4584419626311944,1.6322326494752222,10.996487938860064,-0.3207457475659615,-0.09135132104018497,-0.11263955502652973,0.2989659680770688,-0.5571136671494078,0.2950107400070023,0.3996652628146121,6.655508698461615,10.835492067570042,-8.768674457702078,-145.66147275325048,80.79709916632078,10.00535739440418,-4.214724573837267,1.038449873452843,166.2518,168.78924291260685,6.0,13.022476717133925,3.9200636599483185,1.0780689752389705,-7.208042488255358,15.014465070368269,1.5574729000000002e-19,2.3384622455095174e-18,10.147955393756776,-2.24546150777461,3.4757562548557805,18.906744039162735
9188,9188,0.21374200000002475,0.0,2500.0,-2500.0,2500.0,-2500.0,12.081099780434206,89.39620799330307,88.9473597824087,104.0,12.0,1.459038096767703,1.630019096484013,10.766916347471907,-0.22004921148285725,-0.11600638774383805,-0.12273163702667395,0.2776190264944033,-0.2320850667732555,0.23874494771436064,0.2417957533010392,4.0705211562157455,12.566127840104913,-6.021712402354032,-144.45274533683806,80.34048604218124,9.8889308297985,-3.947887779704175,1.290076552164146,166.2518,168.858457222251,6.0,12.9738888242523,2.413177615088455,3.5415338118056816,-13.278801144621866,15.028214442520655,1.5574729000000002e-19,2.340603672961453e-18,9.72234553076122,-2.5718479723958243,4.10858894877141,22.9085479787683
9189,9189,0.30981100000008155,0.0,2500.0,-2500.0,2500.0,-2500.0,11.712530915392813,84.02496410339572,89.04872843892169,104.0,12.0,1.4599877095347769,1.630493855386912,10.664832975011448,-0.1504207475055205,-0.17138344339332426,-0.12432752699371825,0.2810397080232467,-0.0838456293073466,0.2550299740970809,0.2365062468167159,2.5370807379388003,14.252986354449446,-4.089705200472594,-143.48989532435132,80.00806041562804,9.729360744661436,-3.730347683880024,1.5334032945032652,166.2518,168.93333156808148,6.00002752574899,12.791661710965789,-0.5350639860055924,0.3806095411114776,-14.667364517467332,15.039797588537803,1.5574729000000002e-19,2.342407716563298e-18,9.286182988142539,-2.7593396766602463,4.682396776220077,26.758733497180764
9190,9190,0.40656300000011925,0.0,2500.0,-2500.0,2500.0,-2500.0,11.1503068899909,76.15188674607481,89.15081777320137,104.0,12.0,1.460944073548556,1.6309719895756003,10.562023843530236,-0.1534812334403295,-0.22411115784090455,-0.1176295253063557,0.2865962481491494,-0.14042250179525714,0.2254517861602077,0.24124757143393735,2.368396393938053,15.587102628748177,-2.6627587270338218,-142.53943253811434,79.68712832700159,9.539219207283953,-3.5381657917021694,1.7107812786518095,166.2518,169.0479873094261,6.000003301232095,12.47599456856625,0.4821188034933935,-2.04754787764886,-10.778072550072975,15.051463084623409,1.5574729000000002e-19,2.3442245859651366e-18,8.877111193718699,-2.801764414785132,5.07945776743875,29.77806711282577
9191,9191,0.5040410000000293,0.0,2500.0,-2500.0,2500.0,-2500.0,10.76574004953667,70.98960386721988,89.2799179563439,104.0,11.544396639423232,1.464644926884614,1.6323668556420663,10.4657915346058,-0.1671562540626033,-0.2618035326566587,-0.10870163830386127,0.2952958316350544,0.02586664995040516,0.07191000756988522,0.09614694928485668,2.712421116492198,16.2951388664337,-1.8709913993405343,-141.60377718574318,79.39467305100186,9.32730001529072,-3.3519068928449935,1.8311054050952549,166.2518,169.18340628598094,6.0,12.051404771900113,0.9002464319852633,-2.198103731734085,-9.143514299324233,15.063216115335255,1.5574729000000002e-19,2.3460550886477937e-18,8.539100659054474,-2.714838570214782,5.25357652669311,31.60139575553655
9192,9192,0.623585999999932,0.0,2500.0,-2500.0,2500.0,-2500.0,10.313933354421863,65.15607740018247,89.44079900365601,104.0,11.049652903902485,1.4693476703273174,1.6340497529039024,10.304077896708998,-0.16601868523188126,-0.3050091512838359,-0.09821037129759437,0.3086730784275117,-0.2621563699810108,0.06108233271021948,0.04538638608035557,2.7064470662495697,16.517724472481653,-1.7630565580600652,-140.4888031376524,79.04991770010818,9.078713609463094,-3.1421311903257996,1.8795591224813148,166.2518,169.36436251258087,6.0,11.455794263120039,1.9022729632945818,1.2533242654624352,-8.169283566361296,15.073916698208446,1.5574729000000002e-19,2.347721675431713e-18,8.258232390997515,-2.5350349437991544,5.218033412988189,32.28708822563067
9193,9193,0.7153060000000551,0.0,2500.0,-2500.0,2500.0,-2500.0,10.27733642611169,64.6944851864051,89.57579029581574,104.0,11.512380433466811,1.4725867630342675,1.6345124804334668,9.801555336874614,-0.15107988562853406,-0.3171653637895786,-0.09666146854894682,0.31642487556450705,0.0022815959634195078,-0.0637496757498921,-0.11594855383016214,2.242293581852006,16.43167339206774,-2.148626800045573,-139.65018007957045,78.79663668452669,8.89157035822743,-2.9951918553195096,1.8886597224986683,166.2518,169.50739635662046,6.0,11.012715406204169,2.1674357282667467,0.8137551697161525,-6.666361145948143,15.08204576595054,1.5574729000000002e-19,2.3489877557027712e-18,8.095882942103621,-2.3806382631165977,5.1057183549356795,32.237832595166104
9194,9194,0.811390000000074,0.0,2500.0,-2500.0,2500.0,-2500.0,10.312217482136512,65.13437977095826,89.71720441831751,104.0,11.997124349195195,1.4759799704443664,1.6349972243491953,9.275122959649668,-0.1302035375714526,-0.32173619639901097,-0.09803559908292923,0.3223232222192386,-0.0868499259221924,-0.08002849869659859,-0.10350173249897958,1.5953362981246473,16.086764605288188,-2.71079059187762,-138.79257328037906,78.5406023163207,8.71711753270665,-2.8538313196509653,1.8387448123097987,166.2518,169.65307514077318,6.0,10.633395125694584,1.050972703008885,3.7294469389208453,-9.56442284300023,15.090474435199113,1.5574729000000002e-19,2.3503004980965425e-18,7.986593317870033,-2.2254874644968976,4.890910343365042,31.4828884055895
9195,9195,0.9314170000000104,0.0,2500.0,-2500.0,2500.0,-2500.0,10.11191230096107,62.62864748259673,89.86590354843456,104.0,12.0,1.4795832725241225,1.636194490841374,9.156741283807401,-0.11690203257075127,-0.32916169983248617,-0.10070252630669016,0.3276845333593406,0.0008827177006338617,-0.11672424944885045,-0.10959924077800164,0.95004724011144,15.443462866317885,-3.4397837403139144,-137.7575878458619,78.26806235313342,8.515739311016349,-2.7161815759165466,1.6842672151405331,166.2518,169.81619405377796,6.0,10.234813267821323,2.4395642280144365,1.0529275799341486,-5.9013047940363395,15.096965084284664,1.5574729000000002e-19,2.3513113991019582e-18,7.902065579280523,-2.0557328580961194,4.5157843748764215,29.746621236559378
9196,9196,1.030247000000145,0.0,2500.0,-2500.0,2500.0,-2500.0,9.883415441397762,59.830203272329406,89.98472815874598,104.0,12.0,1.482550804967094,1.6372754570728316,9.030628940872583,-0.10571429832161036,-0.3357383591724432,-0.10394858859632099,0.33183390286044784,0.14774252612026328,-0.16939478823773074,-0.152047409732586,0.6013473827982175,14.832435631397233,-3.977633999132842,-136.92130964181203,78.04422465300783,8.370190120902684,-2.6306220124772253,1.5307640979828103,166.2518,169.92991479016638,6.0,9.931065344176892,2.6696880575008217,1.1761964887367944,-5.3917001300828025,15.102309472206755,1.5574729000000002e-19,2.352143773037533e-18,7.8563267330538515,-1.9371170378171831,4.186982734753775,28.05512003367221
9197,9197,1.1267380000001594,0.0,2500.0,-2500.0,2500.0,-2500.0,9.601582677161831,56.46664683104177,90.07315837862213,104.0,12.0,1.4854613638201386,1.6387307607544153,8.774980594141072,-0.09317670004722273,-0.34092983820908085,-0.1079788523372897,0.3362556305980981,0.263187047165552,-0.21478428093136304,-0.1627565906832826,0.3395850142481571,14.109012502398302,-4.480395714187528,-136.12073301285486,77.83241431145912,8.238909269564399,-2.5588308239604083,1.375815155531517,166.2518,170.02587017074498,6.0,9.635373024796076,2.5880474016133834,0.0610436578793605,-4.140363431426539,15.107119902747149,1.5574729000000002e-19,2.3528929845579326e-18,7.824435743712143,-1.8298009580460053,3.8501841193675084,26.200497701928963
9198,9198,1.222584999999981,0.0,2500.0,-2500.0,2500.0,-2500.0,9.508226961761665,55.37391519143355,90.1609983977376,104.0,12.0,1.4883522661525497,1.6401175200938485,8.520296574660977,-0.09001128150162101,-0.33207518737591696,-0.11159372906353247,0.34014992209793343,0.20901799055523534,-0.2287785821206081,-0.13965221962351934,0.037147222853812015,13.320135303541695,-4.894486402024579,-135.33648135451452,77.62073718656458,8.12554298306847,-2.5090577395707454,1.1907035066840732,166.2518,170.10317557705568,6.0,9.368509565932694,-0.7963247529490234,-0.23888038214719334,-10.630220055237107,15.110115270471013,1.5574729000000002e-19,2.3533595049634772e-18,7.812104882484468,-1.7560341960875645,3.4894554428615487,24.06902043017374
9199,9199,1.3365590000000793,0.0,2500.0,-2500.0,2500.0,-2500.0,9.512325982210212,55.42167435982049,90.21410529518499,104.0,12.0,1.4917879312621258,1.6412627227103302,8.211091868210874,-0.09045456810279624,-0.3136746639231237,-0.11353961759667235,0.3433491125568095,-0.247793760854325,-0.062274015658631575,0.04345005169528898,0.0043388030533569365,12.298944092167346,-5.255539550822932,-134.4221569963263,77.39556508171586,8.016692360773474,-2.4438727565184664,0.931795770515721,166.2518,170.164458220005,6.0,9.145443715041079,1.543236320093588,3.6870354494935333,-8.402441485235324,15.113677135119454,1.5574729000000002e-19,2.3539142557298194e-18,7.820009184391768,-1.660085944207959,3.0205391587113914,21.11944016351609
9200,9200,1.4279820000000427,0.0,2500.0,-2500.0,2500.0,-2500.0,9.556135709091016,55.93333730909221,90.25426015164507,104.0,11.910418777439833,1.4947167497804814,1.64208968122256,8.004833502195186,-0.09235102668793116,-0.2929022695852185,-0.1152561756193171,0.3446298849132438,0.15614822260371908,-0.1578100942733336,-0.023670301660070163,0.1349829774517204,11.454756956685015,-5.451063938312546,-133.69220046341482,77.20520295138877,7.9554764276679215,-2.4192693230947446,0.6922274160597375,166.2518,170.19360711735587,6.0,9.040643731836578,2.608367717763084,-0.1507116838013327,-2.8879961949135216,15.116595356474258,1.5574729000000002e-19,2.35436876079745e-18,7.849527369894187,-1.61426598464738,2.6250350644616143,18.490940352823312
9201,9201,1.5233500000000504,0.0,2500.0,-2500.0,2500.0,-2500.0,9.426898176061476,54.430692069911956,90.25369628215313,104.0,11.43677116236552,1.4985059307010757,1.6425633288376345,7.966941692989242,-0.08706196478137156,-0.27469216526321816,-0.11626576746954792,0.3460248682563675,0.3022939486998412,-0.23280774104755564,-0.06662509590116635,0.13929249950712844,10.620485020694831,-5.534805080433429,-132.95400652341243,77.03298116132734,7.884012363462971,-2.378107398433639,0.4869173570956433,166.2518,170.1965317229077,6.0,8.971855773896303,-0.3675088870676455,-2.8032965397100367,-6.243139098410432,15.119908573322933,1.5574729000000002e-19,2.354884785342813e-18,7.8485281766763135,-1.5742998216021409,2.2632163081778134,16.085544615145473
9202,9202,1.640826000000061,0.0,2500.0,-2500.0,2500.0,-2500.0,9.316951339700273,53.16843417784896,90.249231048512,104.0,11.149416157364922,1.502747180786825,1.642850683842635,7.951424100457441,-0.07884926224954368,-0.24934507652144755,-0.1216084713729953,0.3486237410924975,0.3901118177490806,-0.2618479802200213,-0.08989916077458207,-0.08834025462399381,9.584222026038717,-5.519648337621937,-132.04800212481257,76.80799145085939,7.827862194370747,-2.3366672380436038,0.22534066914592996,166.2518,170.17195202380952,6.0,8.905002983018223,3.0682053174381805,0.2984144002392366,-3.5681914915494195,15.123989852814114,1.5574729000000002e-19,2.3555204335632974e-18,7.866912709689012,-1.5533393040536962,1.8187714897365492,13.017641882684677
9203,9203,1.737459000000058,0.0,2500.0,-2500.0,2500.0,-2500.0,9.167905764062006,51.480953341136896,90.2123991598172,104.0,11.63831100497824,1.5051916550248912,1.6423617889950215,8.014980430647173,-0.07522957313136039,-0.2330496264418925,-0.12354125959285765,0.35128941760773585,-0.4520870294432423,-0.037307553042134116,0.10508480115118787,-0.31172199038712084,8.843712711886432,-5.389639477863064,-131.30919781204227,76.63381462740655,7.794253496841428,-2.323767719541361,0.02414124513486128,166.2518,170.13532331968224,6.0,8.851809179158241,-0.4673400346520436,-3.1213338751405235,-6.02528269765991,15.126521111224784,1.5574729000000002e-19,2.3559146702010488e-18,7.879502708785552,-1.5693956347211953,1.49350398540757,10.732688927570235
9204,9204,1.8326390000000856,0.0,2500.0,-2500.0,2500.0,-2500.0,9.129128631067962,51.04636311175161,90.1761210853915,104.0,11.881521565175667,1.507474001891454,1.642474001891454,8.050270670495923,-0.057609832974099974,-0.21192020255436456,-0.12929104033963826,0.35210723206834565,-0.5163451914087775,-0.01740443511495414,0.11795995049375067,-0.6485079775383188,8.160401266145271,-5.250131772375567,-130.58087561214182,76.45227252418576,7.777651174860389,-2.2950381191083884,-0.11418581770276127,166.2518,170.09144210001512,6.0,8.818281375283282,0.5983249683315095,2.5746214903161,-13.306018789510025,15.126916324053493,1.5574729000000002e-19,2.355976223528093e-18,7.8906867037485275,-1.569290760845047,1.2394622830841724,8.927027331931706
9205,9205,1.9314670000001115,0.0,2500.0,-2500.0,2500.0,-2500.0,9.104783468763351,50.7744601692163,90.10067128412676,104.0,11.387262943106661,1.5094509869538677,1.6444509869538677,8.001339215188677,-0.03709621345004945,-0.19362559273671176,-0.13367466060509978,0.35389753009979885,0.05157571139815066,-0.11346526237491608,0.027978171284496985,-1.1604369542063893,7.540957285526576,-5.085332986405033,-129.8254383403125,76.27207758267754,7.763681227209514,-2.2863837822930733,-0.251619345176316,166.2518,170.02040717537486,6.0,8.811403094735256,-0.7065479930687669,-0.8384788578401129,-10.829862932601273,15.127326684354347,1.5574729000000002e-19,2.3560401360328752e-18,7.900172271513443,-1.5915118242566757,1.0004069068902035,7.217010906650169
9206,9206,2.0286000000000968,0.0,2500.0,-2500.0,2500.0,-2500.0,9.140593115416614,51.174650153667784,90.02415537972361,104.0,11.098524064599884,1.5112955721937995,1.6463941061108058,7.966054555855003,-0.02655504441083166,-0.17706484371682998,-0.1349361892395367,0.3542058952161525,-0.05745321808062541,-0.028463660992434005,0.07077354428608879,-1.6682961217236945,7.113635690962921,-4.889965439757579,-129.08146708891798,76.08316537007852,7.76910739333974,-2.2834998257345847,-0.3989400820623924,166.2518,169.94097356875008,6.0,8.844267639348285,2.218460156904188,1.5978236441163445,-8.260065205547669,15.12800045541111,1.5574729000000002e-19,2.3561450740490463e-18,7.923801162320572,-1.617600145478673,0.7863347391721152,5.667309494339317
9207,9207,2.1250350000000253,0.0,2500.0,-2500.0,2500.0,-2500.0,9.1327521647186,51.08689200359675,89.92935720551209,104.0,11.580841348197993,1.512742524044594,1.6483234234769268,7.981006439878273,-0.03147642449230245,-0.15909177069542588,-0.13379474322059706,0.35431328056241684,0.3566534157955218,-0.1428942882681663,-0.03229302997746386,-1.6484379091941213,6.7591808510643006,-4.759964265303181,-128.34840735660603,75.90907865367755,7.784989687510959,-2.2647861403256475,-0.5118908725120873,166.2518,169.84694808820578,6.0,8.899118423219011,0.4642438755799682,0.4506926242662523,-11.819030786148144,15.129844675548966,1.5574729000000002e-19,2.356432306337681e-18,7.951094778690312,-1.6120482772799205,0.6163206799312098,4.432358623830853
9208,9208,2.2429960000001756,0.0,2500.0,-2500.0,2500.0,-2500.0,9.008373571148102,49.70486679139046,89.81074162450552,104.0,12.0,1.5148665932537952,1.6503467373015182,8.028144104872075,-0.03360154509111128,-0.14166290384242972,-0.13197750908568173,0.3554532182653383,0.09663547183866612,-0.03701369895461317,0.02022066338534553,-1.492488106959317,6.34702266969106,-4.683135662037771,-127.44797858391566,75.68307749475346,7.797075553437691,-2.266402191807697,-0.6350970024151519,166.2518,169.73316173102856,6.0,8.941474003247244,-0.8150484378323983,-3.01059810884556,-8.623392090829661,15.13210055828534,1.5574729000000002e-19,2.356783653960429e-18,7.977529127075137,-1.618767097868903,0.42759584161709896,3.068119844410103
9209,9209,2.33858900000007,0.0,2500.0,-2500.0,2500.0,-2500.0,8.927161278116458,48.81269915803141,89.70052081847435,104.0,12.0,1.5172920851115632,1.6513169340446252,8.123708290028773,-0.0314745932459951,-0.13212609267014122,-0.13065781780468144,0.35804435049269456,0.33973862118542203,-0.15163589883009235,-0.10083647077231923,-1.5011824715240418,6.078772878166523,-4.744011956443255,-126.71925115608101,75.50187743292895,7.822517817280786,-2.262669908267142,-0.7425466502071464,166.2518,169.6101989675811,6.0,8.961038581546129,0.2467379327159785,-2.9899873998791024,-5.2186551163989465,15.133638550439596,1.5574729000000002e-19,2.357023192070496e-18,8.016597897559985,-1.6017257735250183,0.27721769964438125,1.980525625269971
9210,9210,2.434370000000172,0.0,2500.0,-2500.0,2500.0,-2500.0,8.804763475002087,47.483377739954,89.58987725777322,104.1342877358484,11.731424528303206,1.5202086030514093,1.6524029632075452,8.25357821919309,-0.037399998955930165,-0.12508350662214776,-0.12977027941502853,0.3610384751014643,0.393245208333396,-0.10884206013413138,-0.08131498209651261,-1.4413258352199751,5.927401075416663,-4.865267890360735,-125.98285441671976,75.31519472692429,7.860874383304063,-2.2463522834358005,-0.8025289661114752,166.2518,169.50453448596213,6.0,8.943868604475695,1.6892028531214611,2.5843564744599665,-11.150552332729738,15.134419339965925,1.5574729000000002e-19,2.3571447979232816e-18,8.063051282657852,-1.5639142631864857,0.19257209937288175,1.368150962635737
9211,9211,2.5568920000000617,0.0,2500.0,-2500.0,2500.0,-2500.0,8.654871728633593,45.880478880222256,89.44576823239369,104.71222169811311,10.575556603773734,1.5254100665051882,1.6541367650943395,8.522896023542419,-0.0532395173027514,-0.11647390613402628,-0.12844484126748754,0.36630150497356667,0.023796615286390262,0.04208634757309243,0.022176889507324028,-1.0473683854516074,5.769936787454664,-5.040241400157711,-125.02887549356285,75.0847532889173,7.906263936729728,-2.256064173379406,-0.8673262856682669,166.2518,169.33940833025034,6.0,8.903316085462139,1.5478202731806168,3.595115671678885,-14.050542147843613,15.135418117326205,1.5574729000000002e-19,2.3573003547904584e-18,8.120190086839811,-1.5439294075374759,0.10488292305338852,0.7400091156640772
9212,9212,2.6518040000000838,0.0,2500.0,-2500.0,2500.0,-2500.0,8.548772501063759,44.76242960793203,89.33445170793648,105.0,10.354955058709356,1.529597397764192,1.6553550550587095,8.592753956896077,-0.0765628476742203,-0.11161378899575687,-0.12330452227818565,0.3691321013708776,0.3845599018279983,-0.07182055988035699,-0.054535405724405066,-0.4425985965372901,5.630007990117966,-5.19555669723371,-124.28135964120632,74.90161792164135,7.953363373360597,-2.2457313627347206,-0.9089769885942851,166.2518,169.23585722491129,6.0,8.833078916512703,-0.20429503770760585,-2.5086929844691457,-7.711012611925732,15.135727100099725,1.5574729000000002e-19,2.3573484780200907e-18,8.17403460602862,-1.5081395884300124,0.04116755343535916,0.28856094151425266
9213,9213,2.749287000000095,0.0,2500.0,-2500.0,2500.0,-2500.0,8.743378310356366,46.82358224134604,89.22588968761895,105.0,11.375575180473172,1.5341901883121294,1.6563756751804732,8.408021204546765,-0.09897032722782488,-0.1028043839529034,-0.11522279096670662,0.3749034636448893,-0.2113503667831604,0.0737126722839511,0.06112173208977927,0.08899568668363401,5.536195576596749,-5.3062037222882985,-123.5053923499195,74.71249173581495,8.009425217351223,-2.2234955473880915,-0.9583066556983002,166.2518,169.11290054824644,6.0,8.777777963833715,2.2100063327566137,0.07780913148625368,-6.8216586287118695,15.135381330666178,1.5574729000000002e-19,2.3572946253678514e-18,8.235020468070045,-1.4666518998565494,-0.022471399545834103,-0.15634607868451214
9214,9214,2.8432090000001153,0.0,2500.0,-2500.0,2500.0,-2500.0,8.909087492498198,48.61527508153759,89.12129337777782,105.0,12.0,1.538033599314134,1.656827850114311,8.325832729538332,-0.0948524662897786,-0.09595571683515512,-0.11300204193531925,0.3776237418943091,-0.30316239285055224,0.05993889389151815,0.03290513776319013,0.2754849620707928,5.541807778659503,-5.437467000282947,-122.75395620682708,74.52897218589803,8.063936102009203,-2.2029981330101664,-0.9927180053966964,166.2518,168.98907515251548,6.0,8.808329801079994,0.15202603806268564,-2.3786315885674503,-8.420036599636887,15.13504819199854,1.5574729000000002e-19,2.3572427399231717e-18,8.293776519627178,-1.4231995165620617,-0.05467248548796511,-0.3776876907796325
9215,9215,2.9638280000001487,0.0,2500.0,-2500.0,2500.0,-2500.0,9.143341973041004,51.20544668566785,88.98834512717745,105.0,12.0,1.5416700058883792,1.6562217823519367,8.434318859003316,-0.07652181761391781,-0.08857709594440154,-0.12071607165835202,0.3743176233701091,0.08058133919693801,0.05241875195955633,-0.01613902902801905,-0.16009165421338284,5.736999321059296,-5.552425998037193,-121.78255638426808,74.28821828733747,8.12524195219363,-2.2022824973151347,-0.988199249492376,166.2518,168.8488796724424,6.0,8.962204326958334,-0.06110590187487393,-2.5820431283327565,-8.8630471523384,15.13503933032905,1.5574729000000002e-19,2.357241359742164e-18,8.357412962142202,-1.3983092989725938,-0.013016567966643631,-0.08923740020646087
9216,9216,3.0593370000001414,0.0,2500.0,-2500.0,2500.0,-2500.0,9.239215181049714,52.2849586894536,88.88417129962313,105.0,12.0,1.5447633354166512,1.6567557471323446,8.414049995833857,-0.07373627897221867,-0.08078816732322364,-0.12497396555809075,0.3684070738529324,-0.14933329579294974,0.06940134222375997,0.08085455434244017,-0.3672379973650553,5.940492687557248,-5.457385077309444,-121.00899209188823,74.09621435432635,8.177255839891782,-2.199469462044189,-0.9550297605130501,166.2518,168.7596787197405,6.0,9.124949847716447,0.5109592643025834,-1.7306559039308618,-7.692931275844092,15.135486288611276,1.5574729000000002e-19,2.3573109722833638e-18,8.403375942285576,-1.4036674435547565,0.060337751977251115,0.41138694126779857
9217,9217,3.155358000000092,0.0,2500.0,-2500.0,2500.0,-2500.0,9.332180514271457,53.34237800765591,88.79419970781278,105.0,12.0,1.5480578991049734,1.6581676559335727,8.302034830430909,-0.07253134325716618,-0.08309971143340973,-0.12615942936739735,0.362816339204481,0.03360412899014758,0.012038794540578372,-0.008588228278782653,-0.4316352765478326,6.1785474647397525,-5.298190918021664,-120.22612096455185,73.89965689684308,8.21801804950457,-2.190651358821722,-0.944298340949382,166.2518,168.68552417549472,6.0,9.289188644962984,-0.32069716054611763,-2.3943146754938724,-10.523847445889224,15.135935642925705,1.5574729000000002e-19,2.3573809580000874e-18,8.438115703268961,-1.413910983264128,0.11675560855438305,0.7927334693766472
9218,9218,3.2544020000000273,0.0,2500.0,-2500.0,2500.0,-2500.0,9.344700692740664,53.485604796166896,88.70139556768444,105.0,12.0,1.5512624970015163,1.6594208200404557,8.299330459975579,-0.06626996427696441,-0.09601512485574652,-0.12778000221074465,0.3597247013321443,-0.02854140214114577,0.12730811092005065,0.05640443629998496,-0.5384350549540542,6.655046120211856,-5.097674957903882,-119.42310877550044,73.6963577395849,8.239337899161166,-2.193075389229453,-0.9318463949955256,166.2518,168.62292693367954,6.0,9.405438440671228,-0.09315416355544354,-2.879660979142089,-7.800227633843112,15.136711211881273,1.5574729000000002e-19,2.3575017507631246e-18,8.452993867571351,-1.4429702225821814,0.21641512199170487,1.4665768317798082
9219,9219,3.349582000000055,0.0,2500.0,-2500.0,2500.0,-2500.0,9.352927284212262,53.57982215228026,88.61558496629391,105.0,12.0,1.5540938025909536,1.6603646357586943,8.441368095596598,-0.0570750087862925,-0.11040629530924193,-0.129201974310657,0.3621176836838844,0.03752611021418231,0.12305200584050185,0.03312427617004197,-0.8065165019628354,7.234529075326023,-4.9545989780878585,-118.65348454991027,73.50029675451233,8.262604634354041,-2.179613078303829,-0.8780849769370909,166.2518,168.54924057295563,6.0,9.448404643188976,2.855258373579629,0.8163005882235357,-8.709743266248,15.137872597574269,1.5574729000000002e-19,2.3576826334374536e-18,8.463522859960499,-1.4489157068826477,0.37281328428629146,2.522215446516181
9220,9220,3.4679960000000847,0.0,2500.0,-2500.0,2500.0,-2500.0,9.372162677747824,53.80046054589754,88.51029135966084,105.0,12.0,1.5571690087065768,1.660415616423994,8.511869170581424,-0.05939131115407534,-0.12128678948414245,-0.1303907382538823,0.3660164370538696,-0.2406098347113909,0.11665213822099545,0.07469652498783041,-0.9418152712906912,7.847202833080693,-4.718930870352889,-117.69325589462316,73.25854130259012,8.269043169719957,-2.1816985666162947,-0.7775529855996155,166.2518,168.43129103979203,6.0,9.474838682063597,2.992564700440402,0.0443036566801156,-7.321042288567704,15.139317484372446,1.5574729000000002e-19,2.357907670640626e-18,8.447805372602412,-1.486272770244067,0.5833243010183853,3.9500263387136947
9221,9221,3.559300000000121,0.0,2500.0,-2500.0,2500.0,-2500.0,9.48277560221443,55.077875408287724,88.43921475553059,105.0,12.0,1.5591334121769385,1.6594333655787266,8.469634004867784,-0.06464833979532866,-0.12370906113997035,-0.12908630151441047,0.3642743563561088,-0.17457804999825866,0.07909470616465705,0.049913606253692885,-0.8306865277104977,8.194481782792312,-4.558895878285176,-116.94926301093264,73.07174527632381,8.271920580678861,-2.1736337271577257,-0.6641226834853705,166.2518,168.36546264001214,6.0,9.530231795519533,3.039316251649809,3.16334009026217,-12.096762771803999,15.140825518379508,1.5574729000000002e-19,2.358142542850454e-18,8.427224635921537,-1.5017293387062418,0.7576448849908335,5.137333139752797
9222,9222,3.672725000000014,0.0,2500.0,-2500.0,2500.0,-2500.0,9.532917936625704,55.66187137386947,88.3531348078841,105.0,12.0,1.5617220180896585,1.6596888154505345,8.40244093869041,-0.08922312813017211,-0.1277129432517496,-0.12393409992658448,0.3634162441116012,0.4130528767476462,-0.0355523624324982,-0.03862813017241983,-0.25446003009004026,8.526579056586426,-4.374148799417495,-116.02683759476349,72.83957173230941,8.261954247108822,-2.170192287562395,-0.5416851661482311,166.2518,168.30439230769238,6.0,9.571690671574514,3.391124288648796,2.273599730323243,-10.030989103462485,15.14317184097757,1.5574729000000002e-19,2.358507976236568e-18,8.390841515286095,-1.5199410184955835,0.93765777314525,6.376221870425057
9223,9223,3.767084000000068,0.0,2500.0,-2500.0,2500.0,-2500.0,9.588928396467505,56.317874616452436,88.29763033964373,105.0,12.0,1.5639434294404888,1.6605774421916282,8.339795885695931,-0.09941994738631768,-0.12629075245217486,-0.11784717074479842,0.3677664728763434,-0.09701606489160686,0.08620173955651776,0.0797206878955376,0.1776772409960382,8.704558227956216,-4.2177672518499785,-115.26547806043524,72.65118808476448,8.251919130308847,-2.1434087615041753,-0.4783977322751861,166.2518,168.2332534464686,6.0,9.571094517045184,2.080549520112883,2.627076160141825,-12.534007079707381,15.145123762106342,1.5574729000000002e-19,2.358811982662668e-18,8.36300815294059,-1.5105955806786002,1.0280796932508998,7.00831105671129
9224,9224,3.856572000000142,0.0,2500.0,-2500.0,2500.0,-2500.0,9.70889762396907,57.73592382233675,88.24499112288777,105.0,12.0,1.5665774488507171,1.6610001,8.299183207880796,-0.10036375624855384,-0.12548532282848912,-0.1158792638029038,0.3700350316663649,-0.2950267183074601,0.0973722670186098,0.09113115649528336,0.3123289307234801,8.841789520196906,-4.133247597605236,-114.54316090654892,72.47421377147217,8.23304545463323,-2.1204781225632647,-0.4511010541285534,166.2518,168.15902518739736,6.0,9.601446779602787,1.4696000819045028,2.0625344263138,-12.946687205338822,15.1470030662785,1.5574729000000002e-19,2.359104679194567e-18,8.334406747241617,-1.4988962187876094,1.0737940825823538,7.341470325415345
9225,9225,3.976321000000098,0.0,2500.0,-2500.0,2500.0,-2500.0,9.737870517943241,58.08101783666154,88.18589287094612,105.0,12.0,1.5708120687042222,1.6610001,8.270145814599621,-0.08399434259389772,-0.1281601108974841,-0.11848245469869136,0.3691922649767282,-0.3153679295511223,0.06654469803834569,0.04270299462603711,-0.04460802094810423,9.100225214118927,-4.068368048892732,-113.58539317645264,72.24882003496678,8.206357601534515,-2.0876303235518128,-0.4381057048937869,166.2518,168.0734567524179,6.0,9.697771265928925,-0.236587279804138,-2.2523668043055824,-11.114702504735137,15.149557337848279,1.5574729000000002e-19,2.359502500069484e-18,8.298184837325985,-1.48196242328509,1.1227641639193615,7.705462125714708
9226,9226,4.0712630000000445,0.0,2500.0,-2500.0,2500.0,-2500.0,9.689359573111574,57.50375361781012,88.1398454092622,105.0,12.0,1.5734651907047854,1.6610001,8.24060821571013,-0.0699838074989258,-0.13402625358714393,-0.12350255186937018,0.3654857629784652,0.24609921140953064,0.011224708305377749,-0.05649250842709819,-0.4050668156853312,9.35529455117252,-4.059505310461281,-112.8285133682618,72.07214215239684,8.184173475251614,-2.0632984258048923,-0.4283801151823315,166.2518,168.03546288664438,6.0,9.766040480774052,1.7167779409533763,2.529073294833108,-12.651665025303767,15.151582470846279,1.5574729000000002e-19,2.3598179090458125e-18,8.268816802213685,-1.4656370207482128,1.168466990936112,8.043215058748356
9227,9227,4.165010000000052,0.0,2500.0,-2500.0,2500.0,-2500.0,9.672588962994485,57.304879483198796,88.10053388569973,105.0,12.0,1.57570413890282,1.6610001,8.207919572018824,-0.06817156457176643,-0.1381673654018772,-0.1258017146602599,0.3624960287542835,-0.3691665116976685,0.1086177033354701,0.10258942196312952,-0.6809434650885143,9.603719065753797,-4.005389466926088,-112.08348222525663,71.90015154924805,8.157628022373602,-2.0408611526484317,-0.3985283933597492,166.2518,168.01827848575712,6.0,9.798204887406296,0.20781401532963484,-1.0045425416450842,-11.945062637407286,15.152437621313885,1.5574729000000002e-19,2.359951096413684e-18,8.230699183005724,-1.4572643715935527,1.2329926242261504,8.51978899789036
9228,9228,4.2609530000002,0.0,2500.0,-2500.0,2500.0,-2500.0,9.68872638054235,57.49625028672875,88.06030149954168,105.0,12.0,1.5772120930849225,1.6610001,8.212539978428545,-0.06585181474809446,-0.13669392040770956,-0.1269049612793232,0.36390814352665135,-0.3534360671763755,0.08018243788235846,0.1018957871923611,-0.7370577875791263,9.690691844074344,-3.9485883268786512,-111.32618849655937,71.7223791038566,8.129405711073769,-2.031530930036805,-0.3838473026660255,166.2518,167.9940477037148,6.0,9.775483182444589,0.2283181564557585,-2.5100897117035155,-7.650682590093792,15.152311620793906,1.5574729000000002e-19,2.3599314721741585e-18,8.196894409652762,-1.4589721673332765,1.2571862547713868,8.719704578864883
9229,9229,4.381353000000104,0.0,2500.0,-2500.0,2500.0,-2500.0,9.790622611235953,58.71197300449437,88.01715596417458,105.0,12.0,1.5778247024176315,1.6610001,8.280532815075583,-0.06354771091065885,-0.13478764968453855,-0.12670961420132293,0.36900647125623015,0.2046767147204152,-0.07178997504437204,-0.06317703155950871,-0.775598703574556,9.710022669480296,-3.9097407048787622,-110.38280740175873,71.4985964514269,8.098425494257263,-2.0136911098298285,-0.3611384114412296,166.2518,167.93164363186315,6.0,9.75291863456346,-0.4044132918841332,-3.175671618863187,-8.466637348721665,15.152153501258287,1.5574729000000002e-19,2.3599068454849903e-18,8.160076425612248,-1.4498851394725838,1.2755238723138669,8.884167961617461
9230,9230,4.4799880000000485,0.0,2500.0,-2500.0,2500.0,-2500.0,9.736190109497857,58.06096791953994,87.98275556737025,105.0,11.690388299386429,1.5801673509431249,1.6603808456376028,8.492888089482253,-0.05970978682743978,-0.1344041797626185,-0.1270899452728094,0.3673185917302279,0.18679544413920365,-0.07033480049250376,-0.058453207720312976,-0.8137595623776389,9.751490845360877,-3.854017735447567,-109.61304143059601,71.31611623288563,8.067683751720201,-2.0100279058922506,-0.3333008931420295,166.2518,167.8974100522226,6.0,9.776387553409457,2.0395203769893038,-0.8473542931867866,-7.248063933612407,15.1521343267244,1.5574729000000002e-19,2.3599038591032998e-18,8.122741997151786,-1.4570980504014381,1.305498597133959,9.13057474136075
9231,9231,4.5753839999999855,0.0,2500.0,-2500.0,2500.0,-2500.0,9.642203213492564,56.945438522076905,87.95659206752897,105.0,11.230065094553288,1.5833895673446363,1.659460153195616,8.779669446093301,-0.05631656868004245,-0.13780915610565736,-0.12813233194359394,0.3651825011475688,-0.04698537815906372,0.05462506885713187,0.062282858060151575,-0.9356526948048016,9.81504545347289,-3.7751968749582714,-108.86606112752838,71.13760002046122,8.042778295624469,-2.0053557472495487,-0.277820692037476,166.2518,167.8887835022584,6.0,9.772266490941597,3.2296739874343743,1.9152268310903036,-9.328968438642866,15.152169750885243,1.5574729000000002e-19,2.3599093763203516e-18,8.085324187581373,-1.4681517130158697,1.3675040212784255,9.599819480486824
9232,9232,4.6708150000000614,0.0,2500.0,-2500.0,2500.0,-2500.0,9.513797041019588,55.43880365546936,87.93041896851692,105.0,11.0,1.5879410989345084,1.6580196663671016,8.749231764446339,-0.05568233744691813,-0.14358916805762445,-0.12919245942866694,0.36625280709418795,-0.31803000011089644,0.09513006847602204,0.12100191874158787,-1.0911286875563724,9.875706004832868,-3.651320926205777,-108.11500145229941,70.95513559174864,8.020349984990405,-2.00168236876899,-0.2273549771565931,166.2518,167.8855396812749,6.0,9.704655432270883,3.0937463969862127,3.462569475246152,-11.727801145072384,15.152205188042915,1.5574729000000002e-19,2.3599148955616247e-18,8.050047236487659,-1.4871082555887103,1.4254655967896466,10.041584719550023
9233,9233,4.790689000000043,0.0,2500.0,-2500.0,2500.0,-2500.0,9.516455332815974,55.469792167470295,87.90433229595844,105.0,11.0,1.5953241176699757,1.655558742154804,8.31302265781991,-0.06795359866987027,-0.1434465863430018,-0.12913288542404008,0.3727212077830482,0.3067426756971492,-0.1009477634439773,-0.04275874864153903,-0.7232192125158834,9.828625637547333,-3.474146726197449,-107.1643914935898,70.71953590505434,7.9946543408674575,-2.002809039902396,-0.2036681961897724,166.2518,167.85135915518273,6.0,9.580476281006632,3.6735888972158537,1.6504965643961254,-8.50094373139594,15.151809040752875,1.5574729000000002e-19,2.3598531966947598e-18,8.017189830633276,-1.5073583320246515,1.440694687396589,10.18736284184089
9234,9234,4.8869660000000295,0.0,2500.0,-2500.0,2500.0,-2500.0,9.430688673558732,54.4744767674165,87.88398170545658,105.0,11.36492705685992,1.601379224682319,1.65536502705686,8.134446646155599,-0.07947798144317253,-0.1386364508868275,-0.12524408306940465,0.3772761754655616,0.2798365844759563,-0.11232706015172532,-0.04958301704318298,-0.3621834458312361,9.704896265290168,-3.3088451052113528,-106.40610277904389,70.532966758973,7.9719496588153245,-1.9945378988488358,-0.20407015090995026,166.2518,167.80362129288392,6.0,9.504576537178561,2.4495765081504257,3.47801796153207,-12.211390586990627,15.151276085291268,1.5574729000000002e-19,2.359770190325924e-18,7.992638304478077,-1.5165072761778589,1.4179543249853035,10.060033687480248
9235,9235,4.982595000000174,0.0,2500.0,-2500.0,2500.0,-2500.0,9.26889600082174,52.62138015696808,87.86821180208149,105.0,11.870213519183205,1.6074426622301985,1.6558703135191832,8.024293843668596,-0.08910974662087698,-0.14103973582897425,-0.12182932641233407,0.3771574304328885,-0.16573421166305916,0.047533035655927,0.10298005254991993,-0.09807146261203294,9.60673318450115,-3.167622888873796,-105.65605000831249,70.34874259031143,7.9503643075307675,-1.9837890046679345,-0.2310221513218482,166.2518,167.7743975371942,6.0,9.450061444533189,3.0210937871776533,1.2209644776070276,-8.006402094681873,15.150746716928758,1.5574729000000002e-19,2.3596877426380516e-18,7.973530805661662,-1.5217349470275412,1.3725190513060883,9.766861154309424
9236,9236,5.0795570000000225,0.0,2500.0,-2500.0,2500.0,-2500.0,9.177288635881103,51.58635900371549,87.85222207750984,105.0,11.644744202478352,1.61326313404468,1.6567106115950432,8.009144657931559,-0.11394838740497548,-0.1404325561391029,-0.1156383378994299,0.37537358567542656,0.33165321061272635,-0.0783174949425634,-0.021247726317180426,0.4715581699401799,9.526346699933194,-2.9990278062305675,-104.89779880654363,70.16778748729666,7.941913279419102,-1.9603329571481023,-0.2711084167591812,166.2518,167.76273992185153,6.0,9.395898185953314,3.2706228499851955,1.7011988567450786,-8.364937390352706,15.15024100806586,1.5574729000000002e-19,2.3596089798531257e-18,7.967681120089197,-1.5121263571872463,1.3173889861820136,9.388436447468512
9237,9237,5.174858000000086,0.0,2500.0,-2500.0,2500.0,-2500.0,9.20399854462706,51.88707985663724,87.82476470030181,105.0,11.177110219141968,1.6188746950813182,1.6576458795617157,8.026446975024813,-0.13750233467185632,-0.13461028721047444,-0.11213515562549442,0.37331627309822346,0.3758078180245854,-0.06642577194615326,-0.010788705557604231,1.2175244720221499,9.393260088394026,-2.7628724246936645,-104.15455692405969,69.99141767733391,7.929872781877765,-1.9268720706298004,-0.29889002890044325,166.2518,167.7566125673546,6.0,9.358619132157578,3.3819390757176477,2.527903716707021,-9.230891335114812,15.14977090347632,1.5574729000000002e-19,2.3595357623372884e-18,7.954866340961388,-1.5001863348325255,1.264510986387963,9.032205434355888
9238,9238,5.295528000000104,0.0,2500.0,-2500.0,2500.0,-2500.0,9.140898360138511,51.17806959187386,87.78896571617639,105.0,11.0,1.626470349355195,1.6592624786021328,7.999336781006228,-0.1552273513145572,-0.12608561103693958,-0.11094466223200784,0.3723699257087983,-0.026678410184566625,-0.049356299702434415,0.04382497513025646,1.921519111658388,9.131339089394338,-2.4140556117466407,-103.21792780229113,69.77118264996466,7.916341040954895,-1.87853605426476,-0.3472852087370833,166.2518,167.74436944555447,6.0,9.309865114585447,0.7683082167223212,-1.3117598089435911,-7.002468077818402,15.149175657667564,1.5574729000000002e-19,2.3594430544156916e-18,7.942318069488237,-1.4928557571411278,1.1692853706642852,8.375047346328886
9239,9239,5.388271000000032,0.0,2500.0,-2500.0,2500.0,-2500.0,9.05318699467722,50.20063194677209,87.75448074590551,105.0,11.0,1.6324689377283732,1.6606467575784123,7.962422905685266,-0.1400811346670548,-0.1279753324333636,-0.11123093966066697,0.3743614682974336,0.18673299405705954,-0.07238992781475143,-0.01842878218266343,1.8009020236929263,9.005865106333458,-2.173971413460104,-102.49994009962505,69.60439526232818,7.910492962920309,-1.838786991590884,-0.4007163307362344,166.2518,167.7220303728745,6.0,9.239102549624075,0.03979182596866848,-2.1858202718748307,-6.817320938370904,15.148420778034867,1.5574729000000002e-19,2.3593254839586222e-18,7.9389703368076825,-1.491643749079484,1.092759379127327,7.837228715845847
9240,9240,5.484572000000071,0.0,2500.0,-2500.0,2500.0,-2500.0,8.971120104494126,49.29460728264414,87.71867279142862,105.0,11.363080091785331,1.6387201411932093,1.6631785442427027,7.954815718918882,-0.13675592158549232,-0.12872376949643555,-0.11383930018649788,0.37745024195818666,-0.2926098084779662,0.04414947486346652,0.15953012209527104,1.4832018775087763,8.974350115745803,-1.795269521334316,-101.75690271602163,69.43566774753523,7.905519306301635,-1.803966127927289,-0.4415482110678529,166.2518,167.69531692269345,6.0,9.140271818072932,1.3955908245848496,-0.9603443312569596,-6.4994513137491525,15.147469799714255,1.5574729000000002e-19,2.359177371662338e-18,7.929610533349618,-1.5155302646205662,1.0476306211360833,7.526118309667817
9241,9241,5.58114999999998,0.0,2500.0,-2500.0,2500.0,-2500.0,8.970634739482342,49.289283692015935,87.67855984408007,105.0,11.8458904280792,1.6449966755650296,1.6660753579794323,7.957229529195183,-0.13672908101143613,-0.1177931219943035,-0.1151105294424472,0.3819818959904922,-0.24194411809842584,-0.037931735954364575,0.13073340949981133,1.502487087467008,8.766579229957575,-1.315337483822098,-101.009568016021,69.26867695096729,7.913298254851826,-1.7611368616828158,-0.4442275880935315,166.2518,167.6611366154234,6.0,9.034429814717797,2.7621626944989632,0.5424699095405994,-7.20128025942414,15.146516086001544,1.5574729000000002e-19,2.359028833336148e-18,7.926448938624373,-1.5403115646001613,1.0132588355396768,7.284761248816148
9242,9242,5.700387000000092,0.0,2500.0,-2500.0,2500.0,-2500.0,8.951017499575293,49.07394213380675,87.62752328645077,105.0,12.0,1.651840216062059,1.6692000527554811,7.920599103156813,-0.13130829521373344,-0.1033143392059454,-0.1159348140820589,0.3895915015065459,-0.10514758198281618,-0.027688231773365598,0.12899456200825504,1.4003906264435044,8.333132416060417,-0.6886589446579754,-100.0865001663075,69.07325328272462,7.9211567581980935,-1.7031837846525508,-0.4514326591110741,166.2518,167.6030060879593,6.0,8.895801810856346,-0.3318147579041701,-2.2184068574230222,-10.499142581889645,15.145286483281831,1.5574729000000002e-19,2.3588373260447757e-18,7.92264020817508,-1.5736698897807941,0.937031471023538,6.7451873430650355
9243,9243,5.797339000000079,0.0,2500.0,-2500.0,2500.0,-2500.0,8.852921226184106,48.00421202448075,87.57565206634517,105.0,12.0,1.6571479746012268,1.671612670273285,7.879584605354156,-0.1229715032775672,-0.09849358603431972,-0.1153717690577526,0.3969039603508092,-0.20273811384877172,-0.047108759931529375,0.10632171305145356,1.1226050851813874,8.043477859885996,-0.21297631709600448,-99.3342183211313,68.92004841519389,7.936085466791696,-1.6414660937501493,-0.4862896882775086,166.2518,167.54746316884282,6.0,8.768639232388562,0.5196922996692029,-0.9084469077375414,-11.346634203438644,15.144257509678235,1.5574729000000002e-19,2.3586770661945347e-18,7.932042717886505,-1.5837583144903131,0.8552244496352321,6.153797961780361
9244,9244,5.892080000000078,0.0,2500.0,-2500.0,2500.0,-2500.0,8.763417795510003,47.03847480071578,87.52496377457155,105.0,12.0,1.6615789060991493,1.6704094416031303,7.888906220207961,-0.11070533672692362,-0.09582261421969712,-0.11384598364653235,0.4024728061459905,-0.19269357294136036,-0.014039635208531352,0.0943065807427136,0.8501969969255009,7.883965120526434,0.1592254893198773,-98.60022589283555,68.78048886275283,7.957728201141981,-1.5798195795485388,-0.5406832441652146,166.2518,167.48704085071626,6.0,8.663695587409867,0.7093609914586508,-0.2323840748973791,-8.787900881382537,15.14325200191998,1.5574729000000002e-19,2.358520461086112e-18,7.9522956904181745,-1.5785458911889825,0.7750323619312639,5.566478409902599
9245,9245,5.9884250000000065,0.0,2500.0,-2500.0,2500.0,-2500.0,8.668197075363992,46.021810810269386,87.45740602138358,105.0,12.0,1.6659337620355623,1.6684739769579608,7.908261640864867,-0.1011006959239698,-0.09267314017861726,-0.11449977879032018,0.4058272790221705,-0.12815977017025787,0.004023818970911968,0.05957043648051875,0.5134047879695673,7.7821051233373355,0.4211441192591807,-97.85023479161785,68.64272470753471,7.971920142942366,-1.5299202772800256,-0.6085675211075849,166.2518,167.4019040209063,6.0,8.608389981478686,0.5532397586958047,-0.2268747467393168,-11.469956910083585,15.141397238288233,1.5574729000000002e-19,2.358231586676877e-18,7.9695488117513245,-1.5695896446558593,0.6900024554126379,4.948321114487254
9246,9246,6.108375000000024,0.0,2500.0,-2500.0,2500.0,-2500.0,8.634447973101608,45.664135187812064,87.37069938736309,105.0,11.522811795874453,1.6708175533518248,1.6689544764082511,7.899161998923898,-0.10592706602945308,-0.0875961329936512,-0.11381909875782892,0.4121323803181155,-0.03464050730922305,-0.004763942696931397,0.03488869636146144,0.482456069752352,7.726133795029731,0.655225816204979,-96.9182441856279,68.47238486792767,8.012367469150634,-1.4699012905069018,-0.6744160455798671,166.2518,167.28934283039032,6.0,8.534346482977979,3.5515423143740588,0.6356863433490011,-5.04898412588229,15.138422288286073,1.5574729000000002e-19,2.3577682462761555e-18,8.013122556222784,-1.543833449419248,0.6164457591871355,4.399072964480574
9247,9247,6.1943710000000465,0.0,2500.0,-2500.0,2500.0,-2500.0,8.813486193211805,47.577601300854084,87.29198231591114,105.0,11.096951989501104,1.6742244743887922,1.6698061960209978,7.886811936781127,-0.10185770589208637,-0.0759673012467338,-0.11358992713511808,0.4157265386324688,0.029447847954849813,-0.016946679847933216,0.0031938122036910786,0.44036851958468937,7.6002923280157555,0.7195941439607376,-96.24767764735321,68.35152601810161,8.024041841040857,-1.4439217217159217,-0.7270509720282115,166.2518,167.22021300999987,6.0,8.496128599500032,2.7265442876992445,1.8432434241068,-9.340246306922268,15.13628945126744,1.5574729000000002e-19,2.3574360626904907e-18,8.03110825703737,-1.528413317539021,0.5424040994694446,3.863768448112235
9248,9248,6.313603000000057,0.0,2500.0,-2500.0,2500.0,-2500.0,9.054652349947018,50.2168907312999,87.18358227106279,105.0,11.0,1.677559083945687,1.673070880734825,7.845615643174048,-0.10054697096666984,-0.06733349054692148,-0.11524919902929595,0.4187086388435309,-0.09576443194423058,0.02840794185858022,0.03808087932769085,0.366721815193735,7.600724811487655,0.8334579673256121,-95.32083356927076,68.19351007168828,8.062707586387914,-1.410808297451808,-0.8134414633663838,166.2518,167.08899675061193,6.0,8.579354639584395,3.5033111834085493,2.0212545462620284,-8.873687295674927,15.133434810207289,1.5574729000000002e-19,2.3569914600814497e-18,8.078273646624737,-1.5128680911552246,0.4594177131185692,3.254949475310568
9249,9249,6.410662000000116,0.0,2500.0,-2500.0,2500.0,-2500.0,9.16272630020054,51.422803168852006,87.09977249518373,105.0,11.009739911712591,1.6800585394702756,1.6760585384962845,7.809429051245399,-0.11108372106951056,-0.06437780847776765,-0.11550326398131315,0.4191117083678729,-0.03751106816437092,-0.03544171761578407,0.042291267130532516,0.388430641069201,7.749949429988542,0.9678183850578056,-94.55994025212584,68.06529438546994,8.092742253303866,-1.3848225737716162,-0.8334921904134467,166.2518,166.98142371428577,6.0,8.693156986466095,-1.7863979653735793,-0.8879454351601144,-15.111298303217614,15.131148445584769,1.5574729000000002e-19,2.356635364987541e-18,8.106898651848109,-1.5056453406994756,0.4672615198312825,3.2987368805249577
9250,9250,6.505851000000121,0.0,2500.0,-2500.0,2500.0,-2500.0,9.188918408697123,51.717186494649155,87.0184704754023,105.0,11.473538038764536,1.6828413282325871,1.6788412808787834,7.829835936936622,-0.11213282510625887,-0.06191502433509843,-0.11618598289480442,0.4188355620515933,-0.04021435539504814,0.01653250303032664,0.05210683644864024,0.4833750108875447,7.9290147755521,1.1584793506639446,-93.82359992001363,67.93822197091205,8.12694148706815,-1.3537944453119668,-0.8319085196122596,166.2518,166.891994215314,6.0,8.815245606807062,1.5924965101101272,-0.6720170651870272,-7.487733308093147,15.128906131507224,1.5574729000000002e-19,2.3562861306466336e-18,8.135249823905644,-1.5008437200410492,0.5024879622318383,3.534483954489364
9251,9251,6.602167000000009,0.0,2500.0,-2500.0,2500.0,-2500.0,9.102608735598176,50.75021852173545,86.96948848368801,105.0,11.942827351660352,1.6856570641099622,1.6816569698272268,7.850484432059378,-0.11162412328497233,-0.06287554405041318,-0.11648245545472985,0.41782018613547256,0.04932263753534278,0.009920475680655308,0.040057833307423824,0.5241936487554629,8.113439482872893,1.3919927591011207,-93.07109390654284,67.81000239059834,8.142821977325184,-1.3231212427943373,-0.7914774477727059,166.2518,166.8185076824526,6.0,8.918735667647097,-0.7924710770611876,-0.7618586680567271,-12.051248439980974,15.12783201507676,1.5574729000000002e-19,2.3561188399234446e-18,8.138821901225517,-1.5020194693748838,0.5753778741658815,4.04382445102817
9252,9252,6.698562000000038,0.0,2500.0,-2500.0,2500.0,-2500.0,9.035351688715943,50.00302240052431,86.92046631612196,105.0,12.0,1.6893199113854946,1.6832449707672028,7.967118516376377,-0.1106055964557554,-0.06621428723292082,-0.11657212355051128,0.4158949644574862,0.009946081595988508,0.022852155058464902,0.04430236885701423,0.4843048883297022,8.324833900226173,1.6419555038747429,-92.3211073413402,67.68976271218267,8.175376855806658,-1.2888653610750285,-0.7423819263384799,166.2518,166.76957027758218,6.0,8.991105872422851,2.46801550877896,-0.5942846306851233,-6.729259414598694,15.127188503375391,1.5574729000000002e-19,2.3560186147198736e-18,8.156856839027256,-1.5027999786640125,0.6637125446126819,4.651832726482478
9253,9253,6.817834000000062,0.0,2500.0,-2500.0,2500.0,-2500.0,9.037568153254039,50.02755149265238,86.85801499282795,105.0,12.0,1.6939969237473846,1.684998908865566,8.127890816316341,-0.1035696190927019,-0.07203229287575022,-0.11724387913692977,0.4147237571702924,-0.10096530109522443,0.039326001548463316,0.06546683631624843,0.42930082613265536,8.578645464723406,1.9759929950627968,-91.38074196695813,67.54271641459333,8.181080001425903,-1.2466844129265304,-0.6539487990067641,166.2518,166.7380905978759,6.0,9.023135244414927,0.1150549143979558,-0.6078317534101371,-10.121939410643392,15.126392269881485,1.5574729000000002e-19,2.3558946035109903e-18,8.139781878429487,-1.506692132840192,0.7944912629229759,5.574751176015239
9254,9254,6.911308000000076,0.0,2500.0,-2500.0,2500.0,-2500.0,9.0748514871603,50.441209133632405,86.80916804228866,105.0,12.0,1.6962781447349793,1.6840888821060085,8.129367054645463,-0.09704966688654378,-0.07815402287716394,-0.11848947663258395,0.41307990587317256,-0.1092340599691303,0.03714042835572734,0.06488840232315908,0.3282562603218568,8.809377441951838,2.236629134400816,-90.64576641222601,67.42856532221124,8.183633104822114,-1.2186021099462931,-0.600241744716046,166.2518,166.70395043143455,6.0,9.056537257381834,2.135264584672974,-0.16215249462490894,-6.742453222827117,15.125988334852192,1.5574729000000002e-19,2.3558316917248413e-18,8.125861158520559,-1.5151864044265255,0.8872897828654377,6.2316278788361945
9255,9255,7.00774100000001,0.0,2500.0,-2500.0,2500.0,-2500.0,9.200777729938263,51.85076581936312,86.76743267667659,105.0,12.0,1.6986303412371626,1.6831480035051352,8.130778607766421,-0.09042181865787352,-0.08040219022270093,-0.1195950737496714,0.4120592337033096,-0.02387054404761441,-0.008712485301640961,0.045694631028106315,0.20098309510701345,9.051528130929961,2.4915850497845278,-89.87894227041109,67.31167467658429,8.194970297582634,-1.186769206800267,-0.5463625499651362,166.2518,166.66492490129613,6.0,9.108437056829489,4.451099291546203,1.1650847117958774,-6.9956752184586515,15.125610011968481,1.5574729000000002e-19,2.3557727689609587e-18,8.120275169177491,-1.5201064107880156,0.9829322517334156,6.901884422204412
9256,9256,7.103624000000082,0.0,2500.0,-2500.0,2500.0,-2500.0,9.212593999491002,51.98403532015602,86.72593534629186,105.0,12.0,1.7010906154553778,1.6842544092732266,8.062013531782847,-0.08922798033492256,-0.081871552153994,-0.12048179350532448,0.4103362753305507,-0.03645556542026468,-0.0007523077866179277,0.04236132204081101,0.05509753353599831,9.25369550364056,2.698309635183352,-89.12032144982182,67.20019173314921,8.192180827544835,-1.1679212082878143,-0.4779430807129024,166.2518,166.62575015370027,6.0,9.175800060831401,0.2584408631614288,-0.4300397574997053,-14.384235038021457,15.125233846827307,1.5574729000000002e-19,2.355714182259628e-18,8.099192559166665,-1.5312846543358334,1.0849458878151743,7.629766130947973
9257,9257,7.225486000000046,0.0,2500.0,-2500.0,2500.0,-2500.0,9.222799286758613,52.09927742814439,86.6912737743351,105.0,12.0,1.7041942612840704,1.6859515596789825,7.970417740088406,-0.08996167379720002,-0.08465197796700384,-0.12089413803677243,0.4076606455780177,0.03554560399783638,0.08258339467802146,0.02810241994964499,0.0418202203449583,9.510417884230424,2.945424747323936,-88.15145343800494,67.06185695034299,8.206226354325675,-1.1257867152353287,-0.3725625855250347,166.2518,166.590718694334,6.0,9.233660799751537,-0.1976363955657019,-0.0034878529653405987,-15.26160885348772,15.125936812182012,1.5574729000000002e-19,2.355823667208588e-18,8.087248748651874,-1.5240124106022697,1.2325347068577612,8.66546510316239
9258,9258,7.3198370000001205,0.0,2500.0,-2500.0,2500.0,-2500.0,9.3094479021015,53.08283542239916,86.66623838846073,105.0,12.0,1.7061197722482442,1.685470181937939,8.014222825696718,-0.08796649163737795,-0.08827311361723544,-0.12108516626857495,0.4069166572389544,-0.1448755995016502,0.06783208605112953,0.055692559855555886,0.015437665787830847,9.676461105753354,3.1390128643676003,-87.40739498495604,66.95776283876246,8.188391917527088,-1.0983414526832684,-0.3286304849817147,166.2518,166.57146157952616,6.0,9.268880405828256,1.0016613412600406,-0.10664993630185934,-8.549509285985604,15.126770196607485,1.5574729000000002e-19,2.3559534645743822e-18,8.055731101152269,-1.5228165492371344,1.2999155041279082,9.166534229193301
9259,9259,7.415298000000121,0.0,2500.0,-2500.0,2500.0,-2500.0,9.377327005415939,53.85974039553457,86.66127167976131,105.0,12.0,1.708049524079618,1.684983625306794,8.057972006899153,-0.0951142314403866,-0.09747141231900353,-0.11931986258398253,0.4045639919866927,0.07378478332383903,0.09848890778539167,0.02818478521535097,0.19151583359722346,9.960386522904573,3.3413501590424635,-86.65027392855188,66.85384092283735,8.162725028799022,-1.0734980924569024,-0.2850313278179043,166.2518,166.5581198977751,6.0,9.333414164561985,3.183001193352444,1.6696648468313913,-9.158193867497415,15.127613385451687,1.5574729000000002e-19,2.356084788951826e-18,8.013701427633137,-1.5203732713933251,1.3855755633740188,9.809503952420078
9260,9260,7.511405000000082,0.0,2500.0,-2500.0,2500.0,-2500.0,9.389161740186935,53.99577601349068,86.65627136054218,105.0,12.0,1.7094785252889515,1.6845072915703494,8.086075697349386,-0.09291177803948386,-0.1072271125363264,-0.11857430514767625,0.4027943838269292,-0.06571169241087213,0.08776851223180968,0.031554246315617866,0.1940847802067732,10.306602577693477,3.5214911042171777,-85.8968062158287,66.75238324358897,8.135717410582707,-1.0430119780631315,-0.2512831757031341,166.2518,166.56399806284028,6.0,9.37196197107743,3.4533633209246752,1.9224089820139951,-9.822906319178491,15.128525565398547,1.5574729000000002e-19,2.3562268585065416e-18,7.97125654760905,-1.5118559452941012,1.4698270241705018,10.447469492820831
9261,9261,7.632918000000018,0.0,2500.0,-2500.0,2500.0,-2500.0,9.347163427480837,53.51380850320167,86.63260007728597,105.0,12.0,1.7111916988111888,1.6841917083916085,8.1228979979021,-0.08140215108771648,-0.11405314634287272,-0.1202038270571928,0.401760207113586,-0.1499481029593819,0.051602620178910784,0.030430229520399286,-0.055232171467180256,10.642746249645054,3.682784698570576,-84.93723869488568,66.6292864031867,8.10737971681362,-1.0091202180723784,-0.21949416589161905,166.2518,166.54568381242814,6.0,9.417204075088735,-0.9402728722149524,-1.3789584245683018,-12.684582407212913,15.129696982902301,1.5574729000000002e-19,2.3564093036082097e-18,7.928295134728002,-1.5027329144083932,1.5486864640933955,11.052788841125343
9262,9262,7.72458000000006,0.0,2500.0,-2500.0,2500.0,-2500.0,9.1267389045124,51.01978511684026,86.61467890376404,105.0,12.0,1.7121073573216787,1.6851074126873131,8.155863810399618,-0.07197882871569161,-0.1195925515581374,-0.12456120229110185,0.40157916645271535,0.031038111959500594,0.06234438380191766,0.0060555795697800315,-0.35656416398047314,10.793420528377528,3.760264992406931,-84.21640015500091,66.54385123378582,8.08545513226832,-0.9865918531265732,-0.1611894824374989,166.2518,166.53479390740367,6.0,9.402024386749119,4.051279049198755,0.9366471658442928,-6.911080876466216,15.130580628859756,1.5574729000000002e-19,2.356546929071404e-18,7.891942723889944,-1.4962718124935928,1.6240716915736275,11.628479623184225
9263,9263,7.836950999999999,0.0,2500.0,-2500.0,2500.0,-2500.0,8.901950622822756,48.537404325248566,86.62428897205083,105.0,12.0,1.7135829972437278,1.6864664861350371,8.166546701430823,-0.07136467444405847,-0.11841192695290548,-0.1255033823471061,0.4043197263309383,-0.07451401864950694,-0.02381623630413799,0.0294663339960079,-0.4241132124009113,10.732200022620079,3.9146048749576257,-83.3272070941533,66.43762011398134,8.049247453631908,-0.9648709336197726,-0.0887368372732465,166.2518,166.53747986532326,6.0,9.288360517408123,-1.1986387591671546,-1.5973950599972868,-13.397360918216211,15.130548981474572,1.5574729000000002e-19,2.3565420000769248e-18,7.841806589263673,-1.4960219738021898,1.6775234354982842,12.074750752326784
9264,9264,7.9329400000000305,0.0,2500.0,-2500.0,2500.0,-2500.0,8.796984578409974,47.399506609045076,86.63362618923371,105.0,12.0,1.7160147237647438,1.6884118187173196,8.07705916545743,-0.07223329998377276,-0.11891212368868742,-0.12495472941179946,0.4048950892327299,-0.056537738307037774,-0.031107875882013237,0.02163333628162723,-0.3762201565075612,10.608499365501164,3.997091309623488,-82.5663811270122,66.34560057343161,8.02946655625571,-0.938950811438216,-0.060588913561707765,166.2518,166.54984177272723,6.0,9.176393937412753,-1.0040043329263322,-1.0633537239491937,-11.469138073944569,15.130430005877493,1.5574729000000002e-19,2.356523469950104e-18,7.819852763981607,-1.4800041501374226,1.6784506021685175,12.114145388117409
9265,9265,8.029735000000073,0.0,2500.0,-2500.0,2500.0,-2500.0,8.712598700499006,46.49450507695335,86.65266275444344,105.0,12.0,1.71854567898036,1.6903637890184058,8.001636339549616,-0.07284995802644678,-0.11982722399511887,-0.12375576832891742,0.40737920031696345,-0.007940162238309513,0.012764281409927195,0.007448937615066448,-0.3426269702143782,10.497679758738842,4.024386943505852,-81.80003948994549,66.254198337765,8.012039113284237,-0.9143627272607276,-0.04637087447710113,166.2518,166.5611248829116,6.0,9.04849772783744,3.696046258057939,2.005416952412157,-8.057728211680669,15.13031003126666,1.5574729000000002e-19,2.3565047842295973e-18,7.803862730842261,-1.4580886351543612,1.6674779860773,12.061210803335385
9266,9266,8.124978000000056,0.0,2500.0,-2500.0,2500.0,-2500.0,8.625999953529151,45.57482585111791,86.67139408953585,105.0,12.0,1.7213658050385208,1.6922438887242857,7.989415526956787,-0.08077320176116498,-0.12265629144050184,-0.12196454865145526,0.4083567533987319,-0.008013678198521557,0.0035098674473013967,0.017047185108611515,-0.21903244318486192,10.40141438365082,4.0415183604918266,-81.04944130399896,66.16410469646219,7.992825614204861,-0.8995886646956713,-0.05733788571744228,166.2518,166.5829113726077,6.0,8.924743374003071,3.40735075929999,1.9781579475721582,-9.129525019486588,15.129800994714484,1.5574729000000002e-19,2.356425503166085e-18,7.7899214860918065,-1.4419206655289734,1.6353272961932586,11.855860826389769
