,Unnamed: 0,timestamp,thrustinput,Position state,Position state2,PA-ON,PA-ON2,Airspeed[m/s],Differential Pressure[Pa],GPS Altitude[m],GPS Noise Magitude/ms,GPS Satellite Num.,Horizontal accuracy[m],Vertical accuracy[m],Groundspeed[m/s],Roll control,Pitch control,Yaw control,Thrust control,Roll Angular Rate[deg/s],Pitch Angular Rate[deg/s],Yaw Angular Rate[deg/s],Roll angle[deg],Pitch angle[deg],Yaw angle[deg],Local X[m],Local Y[m],X-velocity[m/s],Y-Velocity[m/s],Z-Velocity[m/s],altitude set position,altitude(Tecs),airspeed set position,airspeed(Tecs),X-acceleration[m/s^2],Y-acceleration[m/s^2],Z-acceleration[m/s^2],Battery Voltage[V],Battery Current[A],Inst. power[Ws],Body_Uvelocity[m/s],Body_Vvelocity[m/s],Body_Wvelocity[m/s],A.O.A.[deg]
4666,4666,0.0,0.0,2500.0,-2500.0,2500.0,-2500.0,12.262103608497169,92.09498375877777,82.15727159461926,103.0,11.0,1.4245545976772798,1.597777271113756,14.468498867297379,-0.4275359493362783,-0.19172440818103367,-0.12388144786435408,0.2856965637207705,-0.9584970294261592,0.3146510580873723,0.2877535925710556,1.9237425012214369,4.716590424481637,9.224408710126372,-285.55177952614565,-9.365754650122492,14.316586988073745,2.57530799179638,0.21397255633172807,166.2518,162.0682771743205,6.000683912110796,12.285551774862066,-0.4241544846052472,1.5378395451671896,-14.640041618066007,15.751760164308354,1.5574729000000002e-19,2.453293958320981e-18,14.477425281228225,0.2934996926693727,1.3880742541117157,5.476694201371467
4667,4667,0.09570300000001453,0.0,2500.0,-2500.0,2500.0,-2500.0,12.379070748815126,93.86035657187936,82.16672122931895,103.0,11.0,1.4260278237625748,1.59877083778597,14.437522066985435,-0.2320067768514471,-0.22110068264568733,-0.1452329744584106,0.28835319888895283,-0.9581129546443286,0.2875727664452721,0.292485471056588,-3.1567372203571833,6.008946909748462,10.563784462987256,-284.1859641726723,-9.087684314961237,14.264380347228801,2.6074085672108582,0.2882152244342157,166.2518,162.06742472968457,6.0,12.223080237486306,0.5988838916496348,-2.3268415405460328,-9.202343488636279,15.757447736722632,1.5574729000000002e-19,2.4541797823111837e-18,14.390791374443571,-0.15096308405653833,1.8073046375801272,7.158161766470215
4668,4668,0.19487500000002456,0.0,2500.0,-2500.0,2500.0,-2500.0,12.42595050749954,94.57263046056086,82.18009545524069,103.0,11.0,1.4280201497586682,1.6002651694494814,14.421084966590154,0.1354836231779505,-0.25506951826932417,-0.1437429610937199,0.2889414153359132,-0.7765414694473081,0.2642016578228188,0.3981361065521721,-7.178448174936035,7.554198621606384,12.13258515583582,-282.77828704835264,-8.807109124956288,14.200805745487285,2.547618097584889,0.5078373304289898,166.2518,162.09129910130312,6.000003659194168,12.196315629387374,0.2447249882134801,-2.6414896625431394,-10.78684983384137,15.763341469745304,1.5574729000000002e-19,2.4550977152574484e-18,14.227153178254499,-0.7894290335187255,2.4451473706196842,9.751859385653004
4669,4669,0.2900910000000181,0.0,2500.0,-2500.0,2500.0,-2500.0,12.189918350763385,91.01407192439173,82.22256471594203,103.0,11.0,1.4306850251598977,1.6024443866472458,14.35498881966897,0.1440743634604371,-0.2793779954023331,-0.1389196720248844,0.2883658773777525,0.18120915754099146,0.17730929481299926,0.23903175972433904,-7.856474794580474,8.728326764965558,13.483045299373858,-281.4325448355989,-8.548284186785494,14.125291044122644,2.4635441314378834,0.7345064963963909,166.2518,162.1358939688635,6.0,12.148269565127185,0.024340269713564292,1.0809717807866734,-14.931237067537275,15.768579630590706,1.5574729000000002e-19,2.455913544613704e-18,14.033187657358669,-1.2834536888541261,3.006631490159768,12.092882733777204
4670,4670,0.4106580000000122,0.0,2500.0,-2500.0,2500.0,-2500.0,11.460884837510152,80.45379061864253,82.29403124202899,103.0,11.0,1.4350594799304417,1.6061938657437251,14.204384742627045,0.03232214186013911,-0.2899249233818082,-0.12923392876090442,0.2890379125231894,0.7268416822658945,0.0067722730582568036,0.03721063775845693,-4.551893869332796,9.350847417725843,14.442681438941634,-279.73948157109817,-8.236407425606036,14.009232248749244,2.4207230361987606,0.9915266778791328,166.2518,162.22019270245306,6.0,11.942423322693115,1.3468116532668415,4.859686840447357,-13.223555776120007,15.774784491644185,1.5574729000000002e-19,2.4568799349076094e-18,13.820864661768866,-1.3949250429526698,3.457206581809172,14.044009294626438
4671,4671,0.504004000000009,0.0,2500.0,-2500.0,2500.0,-2500.0,10.83218763532968,71.86848627953573,82.3872054564603,103.0,11.0,1.4376448114845108,1.6086448114845109,14.064765811209893,-0.018149271247214285,-0.287542504272245,-0.11828550863918336,0.2934671541814796,0.357022532166799,-0.06084496903786218,-0.15262103839592894,-1.7089918434667157,9.189088604006644,14.084850061702314,-278.4436572031261,-8.008680420880294,13.896962282865713,2.4321452424963304,1.0865964219778144,166.2518,162.30943565671194,6.0,11.620638415551277,0.2927108415051509,2.6621616227737985,-13.508521076631007,15.77958845093568,1.5574729000000002e-19,2.4576281385485307e-18,13.71695270721663,-1.1087948977275317,3.4815796699361794,14.241828051010494
4672,4672,0.5973730000001751,0.0,2500.0,-2500.0,2500.0,-2500.0,10.488138152692493,67.37564996591584,82.48755041353111,103.0,11.0,1.4399225152651944,1.6109225152651945,13.916259524709332,-0.04908454357987319,-0.2903592147623261,-0.1091914670294081,0.2997744173243272,0.5034076250914455,-0.1141216124888458,-0.2985523716613335,-0.2606728661465409,8.949280924070711,13.064786252513935,-277.1578118633868,-7.782002129897455,13.787599572988546,2.4546598519609715,1.1678550312937706,166.2518,162.41390827236063,6.0,11.229562242036199,-0.04947007319642768,1.4689295766936867,-14.256989958112335,15.782549648348427,1.5574729000000002e-19,2.45808933702072e-18,13.633664909920537,-0.7319158944526541,3.442078161143093,14.169309475755894
4673,4673,0.7175970000001826,0.0,2500.0,-2500.0,2500.0,-2500.0,10.4860811136639,67.34923262394265,82.63417279770721,103.0,10.634373707945024,1.4417313525841102,1.6120001,13.722784939577474,-0.05401106075085856,-0.30039810681511264,-0.10190101932122307,0.306220971581864,-0.3270665777939153,0.07887950788138705,-0.1725831556426814,0.2724818515368838,8.825937806705877,11.486914418932598,-275.5294232220108,-7.493074419961169,13.649326496727483,2.493502864735809,1.2412477607704409,166.2518,162.56832147198818,6.0,10.767671918790095,1.4779916339470454,4.429043858957413,-11.524091684074461,15.784938448839164,1.5574729000000002e-19,2.458461386223504e-18,13.517787283092199,-0.2554172835708283,3.3971507038303512,14.106846375592179
4674,4674,0.8157810000000154,0.0,2500.0,-2500.0,2500.0,-2500.0,10.753837929863815,70.832642113598,82.75945159007237,103.0,10.162339785194456,1.4426754204296113,1.6120001,13.563709507610533,0.010144064926881094,-0.3156296170799097,-0.11110120232001043,0.3075158309257992,-0.3032198959713276,0.016727624124238366,-0.2458420858769259,-1.2061363852763891,8.983943457006044,10.07302534302924,-274.2089051068729,-7.255270714847077,13.545539704350007,2.4894380978194928,1.4053174589397788,166.2518,162.70563311133205,6.0,10.528389557902576,1.7691909451809549,4.2829160919367295,-12.776606131230901,15.786889323767483,1.5574729000000002e-19,2.458765229706719e-18,13.383748537656192,0.0064138918188685,3.5251303644759213,14.755938765103078
4675,4675,0.9124190000000567,0.0,2500.0,-2500.0,2500.0,-2500.0,10.955213624823864,73.5102811358545,82.89596692334459,103.0,10.320709865994656,1.4436414876610029,1.6113586802680109,13.47725072326653,0.026043532787382504,-0.31310466690004124,-0.11618365065231152,0.30549435740122804,-0.2038602798193693,0.035120211937583884,-0.1220350814571866,-2.4952596458145093,8.940333485069106,8.954233339118007,-272.9308025174915,-7.020321076743933,13.455210000780745,2.436426621496584,1.5379198046001326,166.2518,162.85209073993468,6.0,10.417865780195877,2.0833617849171464,3.4532111018109934,-10.380750793473087,15.79019372886208,1.5574729000000002e-19,2.459279881845264e-18,13.265361959049894,0.15005990139170128,3.591684870629181,15.14997421191225
4676,4676,1.0053530000000137,0.0,2500.0,-2500.0,2500.0,-2500.0,11.132799503488616,75.91279030047241,83.02962129989174,103.0,10.794773435627153,1.4445895673939109,1.6104105531287456,13.430318429872914,0.004404264843154114,-0.31259456930740204,-0.11981173922008755,0.3023227616589925,0.5268050603867338,-0.1159750415727866,-0.19717731979456074,-2.150231526855475,8.743100227831652,8.220533492902337,-271.70738653054184,-6.797061057957008,13.367482505623824,2.3857323196573885,1.544554561158217,166.2518,162.99440323213662,6.0,10.39652498182454,-0.030690062288358355,-2.462777494928854,-8.617761016727519,15.79379166356956,1.5574729000000002e-19,2.459840250425551e-18,13.178773609002485,0.3099827737279113,3.5185839047483425,14.94864307578422
4677,4677,1.1015640000001667,0.0,2500.0,-2500.0,2500.0,-2500.0,11.316812756416182,78.44307088756564,83.1584699746124,103.0,11.0,1.4455598655818545,1.6094402064248663,13.361292694378662,-0.016989400364702964,-0.3134914666727,-0.119359370554056,0.2986580761869858,-0.0506909957200072,0.06714993933743255,-0.0620422672113211,-1.3687829509266465,8.707748121058946,7.638390636584657,-270.45317012966945,-6.561260868219177,13.264379451886006,2.365957152281968,1.5198143405796498,166.2518,163.1294771449346,6.0,10.438694415199066,-0.8630283261132647,-3.4536931837336007,-8.679670298621582,15.797516467152116,1.5574729000000002e-19,2.4604203784893166e-18,13.075912207793017,0.4905807980030783,3.451142458994134,14.784997596512197
4678,4678,1.2216410000000337,0.0,2500.0,-2500.0,2500.0,-2500.0,11.717254490937169,84.09262086425035,83.31398933403901,103.0,11.0,1.4467607977076906,1.608239214252424,13.25681159943091,-0.03348768122159691,-0.31839462168111105,-0.11789208120992935,0.2927906953971828,0.3889969948519851,-0.0634158350944517,-0.2055283175145515,-0.6894913556016534,8.77811034864241,6.727598881014211,-268.89736473144785,-6.2692079093365995,13.136630578587752,2.340658193030732,1.4739628885986495,166.2518,163.2811444602981,6.0,10.614999454675617,-0.5466773105127669,-3.7184368572245288,-9.326785194074658,15.80101512071126,1.5574729000000002e-19,2.460965284299801e-18,12.939418393015373,0.7344032986493214,3.369357387871627,14.595402732239279
4679,4679,1.3105840000001763,0.0,2500.0,-2500.0,2500.0,-2500.0,11.856883522509351,86.10879141351322,83.42514965389233,103.0,11.0,1.4482619800915046,1.6073690572773183,13.318027339794293,-0.03853860064243622,-0.31624470661501564,-0.11736329498450487,0.28704914502979184,0.022145847853075808,0.029892020051868105,-0.0984754970720734,-0.4706756881792456,8.8697010243142,6.112918032226784,-267.75424377353545,-6.04697775775563,13.04207815767891,2.3252487442679484,1.479720211938011,166.2518,163.39393216175742,6.0,10.795258287568704,-0.9120960590115365,-4.052213286474025,-10.41677358921595,15.803220253266902,1.5574729000000002e-19,2.461308727719434e-18,12.829339692200026,0.8834099568581336,3.3572361329452667,14.664569101687784
4680,4680,1.4270020000000159,0.0,2500.0,-2500.0,2500.0,-2500.0,11.991435599946618,88.0741591305043,83.56936376555086,103.0,11.0,1.4505213409362825,1.606239461578843,13.464881558509154,-0.04549015455585803,-0.3155631578935992,-0.11648497425189948,0.2771559181244395,-0.17885124404443878,0.047145562600929884,-0.037740442042782193,-0.2235263140706172,8.928246517406665,5.401642281456834,-266.271670222205,-5.757132959749754,12.920137760122028,2.31662354342595,1.5526763851498708,166.2518,163.53846283753438,6.0,11.057202214275069,-0.8064911716122183,-1.2313387582412596,-13.302387560003341,15.80610656384629,1.5574729000000002e-19,2.4617582627702716e-18,12.681376772549775,1.0629630540466617,3.3947724841477607,14.986542679044495
4681,4681,1.5231959999999845,0.0,2500.0,-2500.0,2500.0,-2500.0,12.01980161647111,88.49133104775419,83.67471599523137,103.0,11.0,1.4524141052167758,1.6060001,13.276470555360715,-0.07614863135952031,-0.30355118365104783,-0.1136652096297112,0.2700235741876664,-0.04192760419431785,0.01655585447758651,0.017421229164019017,0.6522282083945252,8.69283158118185,4.945843256834067,-265.03613279625483,-5.529434188017911,12.831494512666644,2.2892145246728477,1.4822620036619496,166.2518,163.65381516714132,6.0,11.265137102833052,1.4917190616265903,-2.117218347832278,-5.074614023489462,15.809526382044805,1.5574729000000002e-19,2.4622908901869838e-18,12.607939629875915,1.1999567008618588,3.2494356008314162,14.452286024214999
4682,4682,1.6188250000000153,0.0,2500.0,-2500.0,2500.0,-2500.0,12.087674512725837,89.49355604326729,83.77715151006711,103.0,11.0,1.4543046316743111,1.6060001,12.982959457682544,-0.10278214662771623,-0.31546002857705424,-0.11386496380521262,0.26579821935168474,0.13782282994228212,0.1160630454241924,-0.00431733613659066,1.6856722642387048,8.829581219293564,4.60080202833488,-263.81323610943906,-5.30758073236695,12.735444280646131,2.259948458742256,1.331404905773811,166.2518,163.74683808916882,6.0,11.449860933723171,-0.24540915299906296,0.7398264043004548,-10.824366794944112,15.813096844386337,1.5574729000000002e-19,2.4628469800207235e-18,12.518732843170804,1.3133682671695714,3.1015966063873983,13.915194459265054
4683,4683,1.710815000000025,0.0,2500.0,-2500.0,2500.0,-2500.0,12.146622060774837,90.36850827176669,83.85771397363695,103.0,11.0,1.4577116946397142,1.6075065802833937,12.774669413125984,-0.12003060610909015,-0.3254255330363465,-0.11393317676564295,0.2599775838973045,0.10704464816524413,0.1013067244419744,-0.022490105029503386,2.761246785615733,9.299370535682415,4.399107663326747,-262.649819024409,-5.091554004594746,12.647588010499543,2.2380523995414867,1.1571337039050524,166.2518,163.81973927531274,6.0,11.619646962519612,0.3244498199742264,-2.7095679386828464,-8.318850349894833,15.816531438816865,1.5574729000000002e-19,2.463381908795528e-18,12.427021852967592,1.399281709432467,2.999858144354244,13.5714459278733
4684,4684,1.8228910000001406,0.0,2500.0,-2500.0,2500.0,-2500.0,12.103026050789914,89.72099841901691,83.94733002593246,103.0,11.0,1.4630608196826682,1.6104782833994444,12.576753985596998,-0.14151193383061772,-0.33061757497765365,-0.11451984848695028,0.2544501252459193,0.16063532996369345,0.028567751853912606,-0.01771092164029392,3.613104911828577,9.741417442506119,4.272096414746109,-261.24688246472243,-4.829500418720599,12.526739169332078,2.203206571025399,0.9509299078080881,166.2518,163.8974928829322,6.0,11.788062582603974,-0.18137930573848612,-3.214172565004697,-6.785708353715888,15.820952686907447,1.5574729000000002e-19,2.464070506204054e-18,12.312676093432994,1.43971821789608,2.858668921461893,13.070947689422866
4685,4685,1.9189770000000976,0.0,2500.0,-2500.0,2500.0,-2500.0,11.995967705409107,88.14078972526535,84.0047275735371,103.0,11.0,1.4677093992208192,1.6139675393766553,12.486361140757792,-0.1438294739833139,-0.3363332115974212,-0.11569627579381372,0.2523053826260997,0.02176466905682703,0.037802266021050336,0.026129272441096973,3.8711670250916215,9.990036140129703,4.322816894714563,-260.06288665801685,-4.613375816869499,12.414348266785865,2.1782838048363264,0.7575275583080902,166.2518,163.94157758895088,6.0,11.881375109667985,-0.27137846407531024,0.6660452642419954,-9.314694864703569,15.824816288706188,1.5574729000000002e-19,2.4646722517138467e-18,12.221627147780714,1.4148733738882653,2.700857051383707,12.46150996923198
4686,4686,2.0233840000000214,0.0,2500.0,-2500.0,2500.0,-2500.0,11.82268428718039,85.61274397634386,84.05921559463502,103.0,11.0,1.4727780692696069,1.6180224754156856,12.410330583158972,-0.1460881250917726,-0.3412053351107313,-0.1175773260223713,0.25210040736300554,0.013807794905774093,0.029779023233764364,0.06890159479469232,3.991932626777679,10.224084612301064,4.66161816721436,-258.7888323115393,-4.383408534503445,12.291732936997493,2.1548328724633268,0.5331723199437528,166.2518,163.979246135829,6.0,11.912878172036411,-0.18780786896807086,0.956842357669268,-9.75578364959308,15.829014476506705,1.5574729000000002e-19,2.4653261080866878e-18,12.134245820171554,1.3205795054196041,2.519812133869193,11.731375898409151
4687,4687,2.1390030000000593,0.0,2500.0,-2500.0,2500.0,-2500.0,11.643455858131444,83.03671669550108,84.10152461112175,103.0,11.0,1.4780704547013293,1.6194523666586662,12.281194668626801,-0.14130661693237634,-0.3449023147876137,-0.11890369631023842,0.25281251296094315,-0.107965662237279,0.018016847972609176,0.10660582850419408,3.8604978501932874,10.366939855353332,5.247311539957012,-257.3940376417173,-4.140959523279216,12.154928117861324,2.1472595788647277,0.4173543884316423,166.2518,164.0142928097069,6.0,11.886105297797975,0.3191772134490478,1.6451035976531676,-11.612593306064165,15.832783400707363,1.5574729000000002e-19,2.465913107817156e-18,12.024465567208756,1.186541897056563,2.4333134709624424,11.440085702672231
4688,4688,2.2352480000001833,0.0,2500.0,-2500.0,2500.0,-2500.0,11.474106669547036,80.63879322848047,84.13222028037067,103.0,11.0,1.4824017347684353,1.6199336253467744,12.163286290040267,-0.13357772610737734,-0.3355736370403378,-0.1206532020043838,0.2535539674015344,-0.0669052531439345,-0.044866706085177614,0.1270197589929436,3.5148355498068926,10.217257043958057,5.867445100073562,-256.2442676471819,-3.9400798144175453,12.042086087504087,2.141377908064143,0.3953652165942641,166.2518,164.04577025962357,6.0,11.814611421938126,0.6753396558617222,-2.1166365649088297,-8.954347567610279,15.835777712410872,1.5574729000000002e-19,2.466379463750393e-18,11.934343750305073,1.0413736467828,2.3884839092152967,11.317388282919664
4689,4689,2.328441000000055,0.0,2500.0,-2500.0,2500.0,-2500.0,11.27151750287866,77.81639479212731,84.15210704266798,103.402116801546,11.0,1.4858148578225023,1.6204021765898655,12.091105764585107,-0.12462534112408155,-0.32492676497955514,-0.12196357306573667,0.2548535940151019,-0.16956043821670722,-0.07411465650112721,0.15750171553298295,3.2216253728618467,9.840862897641669,6.5652060074734475,-255.14316694720085,-3.7406090663245184,11.933039131195867,2.1532566946459264,0.3706619011547358,166.2518,164.07484564114003,6.0,11.712429036133866,0.6857551889223626,-2.39629153155859,-8.72494396330868,15.8386770722798,1.5574729000000002e-19,2.466831031192713e-18,11.859575663753974,0.9001395401696757,2.297147098523025,10.962190089436602
4690,4690,2.4247629999999845,0.0,2500.0,-2500.0,2500.0,-2500.0,10.921532955754742,73.05895088056623,84.17005817557624,103.88688750654268,11.0,1.4892083012345496,1.620886898817792,12.023722636590565,-0.09394614385712673,-0.31280054638544963,-0.12209873019721705,0.25777475594171145,-0.25110014944478226,-0.08413404286206562,0.13518720031808565,2.3229774132193968,9.304274267609754,7.264399753201876,-254.01442394144317,-3.53227655415799,11.835771311347616,2.182131244058213,0.3361668511699806,166.2518,164.09664216357916,6.0,11.549686037049987,1.06531799069602,-0.4658942708949396,-9.144329188312078,15.840906657523837,1.5574729000000002e-19,2.467178283052296e-18,11.804248360643813,0.7514084385677469,2.1647023831211287,10.3916292872539
4691,4691,2.5445960000001833,0.0,2500.0,-2500.0,2500.0,-2500.0,10.433201765520275,66.67171755587225,84.19539731552742,104.0,11.0,1.4919346179253594,1.621,11.837279276716515,-0.07220884049244791,-0.289498742979462,-0.1232233848890855,0.2638692241330396,-0.05816476290114307,-0.15146445387405771,0.11056282313388152,1.1879101315725626,8.49972454690388,8.121366536072541,-252.62431888543503,-3.271467459772926,11.738905808233168,2.2002035818582133,0.29977360270969194,166.2518,164.11651759376718,6.0,11.255559340807958,0.432866599373682,1.7676204983019144,-10.07781128436391,15.843520603199188,1.5574729000000002e-19,2.4675853980074398e-18,11.756638344672034,0.5567773573139737,1.9828179804461348,9.573140589820088
4692,4692,2.6430220000000872,0.0,2500.0,-2500.0,2500.0,-2500.0,10.153081872727467,63.13968599541196,84.21716347435239,104.0,11.0,1.493890357169397,1.621,11.664685777364983,-0.08465160446074341,-0.26956335831483824,-0.12253128500614552,0.27186664657800536,-0.05120438753563337,-0.11396996633444338,0.14629004969706394,1.2631356415761723,7.686081436834428,8.853604803649207,-251.48166981384225,-3.0551123428639224,11.675645076971351,2.2086628004851634,0.2446758304530929,166.2518,164.13451230393378,6.0,10.958925784663897,0.2596511689687274,2.140326884274633,-9.84954480181355,15.845667592901876,1.5574729000000002e-19,2.467919785835291e-18,11.73703791519933,0.4222422229919783,1.7789176608998878,8.618409201865338
4693,4693,2.739112000000034,0.0,2500.0,-2500.0,2500.0,-2500.0,9.987936442292833,61.10233137989543,84.21278137916765,104.0,10.540266701861624,1.4949195206229469,1.621,11.63293334195606,-0.103598119276948,-0.25680717462342784,-0.12161152271038435,0.2787959391002156,0.25067819122479,-0.12560661650658153,0.058221982718764415,1.7251833584979859,6.996174961557451,9.4112647795231,-250.3828564800177,-2.838537452733426,11.620420505284569,2.2105975308812202,0.08465850167298297,166.2518,164.1439842022393,6.0,10.66790724992513,-0.01737367772833734,-0.5280392208838136,-8.482810409534299,15.846922863041446,1.5574729000000002e-19,2.468115290757746e-18,11.727125890307985,0.32447605547878755,1.489531111552988,7.23871196525693
4694,4694,2.832675999999992,0.0,2500.0,-2500.0,2500.0,-2500.0,9.92511950721902,60.336154097952175,84.20376626874466,104.0,10.065320128528699,1.4958693662749554,1.621,11.610135431489509,-0.1222697581668831,-0.25161953803021186,-0.12140358311537995,0.28397396462340185,-0.01009289742570621,-0.04534617692235246,0.1213841371379539,2.3318731377287394,6.617804092938309,9.928794619157284,-249.3162436997051,-2.6251830108002663,11.575417816358282,2.2403973969812885,-0.07456096486421984,166.2518,164.1320611331896,6.0,10.406782165999218,0.08966050420783186,-0.3126591663149688,-9.449843996899183,15.848038573868045,1.5574729000000002e-19,2.468289059695413e-18,11.718396157625842,0.2618182410592122,1.2591178271076084,6.1327860314234695
4695,4695,2.95066300000002,0.0,2500.0,-2500.0,2500.0,-2500.0,9.951108910235526,60.65255648636093,84.16828751356543,104.0,10.0,1.4970510375995478,1.6220510375995478,11.55339708242307,-0.15271908288726818,-0.23820769444528864,-0.1214665241475405,0.2904494758247632,-0.00634240232598543,-0.06379002789807281,0.12313868872968475,3.2850822585038437,6.205452131744356,10.529944121772056,-247.97654875262302,-2.350068029766957,11.535220475034485,2.297470161253944,-0.18353220403100687,166.2518,164.09551065772897,6.0,10.164844602187433,0.4871007052680337,1.3753336037238806,-11.589254862253945,15.849445518561492,1.5574729000000002e-19,2.468508187518597e-18,11.711751527731831,0.212235911474627,1.0707353990163486,5.223688946903262
4696,4696,3.045889000000102,0.0,2500.0,-2500.0,2500.0,-2500.0,9.849548223019239,59.42084815535717,84.13268874209315,104.0,10.00161189126874,1.4980032239437269,1.6230032239437269,11.505236948016504,-0.16443097580661464,-0.21536760598034174,-0.12219631306993325,0.2937005656176699,0.11324787089939513,-0.1346113411578176,0.07006957918804367,3.864487672994625,5.697464394155996,10.970279268848007,-246.89325247270006,-2.1218441830826613,11.523088759461125,2.363199781871227,-0.22483152087359776,166.2518,164.05803665125987,6.0,10.01408119367824,1.9451394757867115,-0.7398055656441327,-7.726587336671949,15.849301202211313,1.5574729000000002e-19,2.468485710638154e-18,11.726447015815518,0.19016683664100897,0.9292115563826446,4.5306891097782565
4697,4697,3.144564000000173,0.0,2500.0,-2500.0,2500.0,-2500.0,9.656972689075594,57.12001307562983,84.09188810993193,104.0,10.504945343623863,1.4990099411817823,1.6240099411817823,11.579226965512706,-0.18463619071187895,-0.1880769340161561,-0.12396292493899208,0.2970120957747847,0.2188517277253728,-0.15115315681503375,0.050687297907224586,4.393687306529643,4.966659503536904,11.414577726800735,-245.77427991942574,-1.880804063438813,11.507520375788426,2.439019201602852,-0.3061167507551002,166.2518,164.01142263000298,6.0,9.859930986924713,1.0435467809719134,2.8137449017760736,-11.01784097243534,15.849077047744524,1.5574729000000002e-19,2.4684507991874097e-18,11.744946451588774,0.16758838776096247,0.7014819106493535,3.4180031210179167
4698,4698,3.240534000000025,0.0,2500.0,-2500.0,2500.0,-2500.0,9.548621480174331,55.84541416195783,84.05135543637326,104.0,10.994480802681062,1.4999890610534423,1.6249890610534423,11.651188677994115,-0.1993198088119502,-0.17193729712457562,-0.1268207786710538,0.30043406651055593,0.1624294675229217,-0.09716380337617883,0.08575354404367569,4.864914776133602,4.414540821362267,11.90200690762856,-244.68582890386315,-1.6411286557157505,11.510283813947686,2.5063031993607217,-0.3854073932353619,166.2518,163.96303864704115,6.0,9.713547260170852,0.17961549558493395,-1.22747956993493,-9.899575039183093,15.848859038074618,1.5574729000000002e-19,2.468416844772129e-18,11.774447191896725,0.1226328024572364,0.5145170669267465,2.50210592978582
4699,4699,3.3605459999999994,0.0,2500.0,-2500.0,2500.0,-2500.0,9.562533358773036,56.0082813008561,84.00970910368964,104.0,11.0,1.5005749751903468,1.6267248405575776,11.6864965359496,-0.20079877649561725,-0.15929516316582115,-0.12957663301687838,0.3036983897073177,-0.15888085781217487,-0.014018669518979052,0.17309943201291142,5.047206877721933,3.9791231745931386,12.659826097417874,-243.31499921010203,-1.3339553439000191,11.521995002132964,2.620987199026648,-0.4419623616848423,166.2518,163.9100416122276,6.0,9.567924335361283,1.5139411942990884,2.0999606819809933,-8.166983195531781,15.847008586035338,1.5574729000000002e-19,2.4681286418817363e-18,11.818483369791975,0.06535391508706909,0.3753752066172514,1.8192001887785287
4700,4700,3.4553320000000554,0.0,2500.0,-2500.0,2500.0,-2500.0,9.675792665825767,57.34285303176966,83.97891804561695,104.0,11.0,1.5010346256826488,1.6280692479030758,11.710200644537805,-0.19383990602491386,-0.1568047807942514,-0.13209953576085007,0.3045712433667013,-0.3589402638442215,0.0660506770758387,0.22869645998009516,4.804009857701487,3.7951297801708894,13.351154182347972,-242.22961768930023,-1.0828759791784308,11.538862462130067,2.6915612053646596,-0.4810083169738851,166.2518,163.87588164722965,6.0,9.518394140847892,0.016214821846520122,-0.7724437841632192,-11.191245779929652,15.84536631425213,1.5574729000000002e-19,2.467872862502058e-18,11.854388842234163,-0.020136448425776197,0.30624733193017,1.4798550857823536
4701,4701,3.5433830000001763,0.0,2500.0,-2500.0,2500.0,-2500.0,9.774318579097066,58.516596953075215,83.95012736101812,104.0,11.0,1.501479255401612,1.6289584628824758,11.687082210995078,-0.17875101231246796,-0.15362167162066254,-0.1329276075690055,0.3041085855366642,0.1856440237666441,-0.056377746841295075,0.07366507260334366,4.5704462047702,3.7372784271034263,14.077243230668294,-241.2170672550637,-0.8415290231735937,11.564176660898848,2.7715580082147597,-0.506938889834947,166.2518,163.84935084511258,6.0,9.521379438889179,0.5906340275482816,-3.159929862627108,-8.770474494860979,15.843840733757295,1.5574729000000002e-19,2.4676352574743107e-18,11.898770700239178,-0.10271074010966127,0.2764684835852889,1.331030575701752
4702,4702,3.662756000000172,0.0,2500.0,-2500.0,2500.0,-2500.0,9.849447281055538,59.41961676502918,83.91103650459347,104.0,11.0,1.5023229350330236,1.6303229431041009,11.667991366826506,-0.1637132597141824,-0.1475270789724648,-0.13322210067052026,0.3023200857335706,-0.020350282817068188,-0.008562027560531406,0.1495499522944723,4.050472319282337,3.676011067492786,15.187783587140125,-239.8419128529104,-0.5022511559847116,11.60579902495095,2.8855748275749478,-0.4845048669454757,166.2518,163.81620649125415,6.0,9.568954121748224,0.7138479307283149,-3.5061895734888555,-9.239982884768033,15.841823860580867,1.5574729000000002e-19,2.467321134942808e-18,11.962872847780588,-0.2352173601489905,0.2987605030685765,1.4306060667639702
4703,4703,3.755811000000051,0.0,2500.0,-2500.0,2500.0,-2500.0,9.795210271578958,58.76702633082721,83.87608942835857,104.0,11.0,1.504174029616662,1.6321740839662608,11.713807103164957,-0.14913790075504796,-0.13433927823491734,-0.13106647967504018,0.30017160096373857,-0.3525763548402607,0.018648300116905717,0.20812468145647506,3.5661297243589303,3.5319773560712657,16.02803961724262,-238.77118326771904,-0.2225393515907485,11.6327702284008,2.9961856324105685,-0.4557169362445127,166.2518,163.79259494802082,6.0,9.623712192522989,1.978866289995436,0.3377710037106323,-6.961911880751603,15.840256946980658,1.5574729000000002e-19,2.4670770923959115e-18,12.013102680885607,-0.313832219433444,0.3048113355309179,1.45346769407431
4704,4704,3.8524150000001782,0.0,2500.0,-2500.0,2500.0,-2500.0,9.555653038002893,55.927695291523534,83.83920158713583,104.0,11.0,1.5061954617692912,1.6342688599327753,11.757901527547734,-0.1262402353520649,-0.12617915436975258,-0.12711240136735694,0.2991848184498598,-0.3884149314079957,0.05298796584854895,0.16739718490682667,2.869225692927526,3.4239411621075946,16.647091350358018,-237.65584754820566,0.07467911315482254,11.66061962938358,3.0859007041103754,-0.4538903413965456,166.2518,163.76082912104394,6.0,9.63557829928502,1.0047696057915847,2.4301063628329707,-12.14711821997971,15.83863027327764,1.5574729000000002e-19,2.4668237423749516e-18,12.061517072912874,-0.3698764600040306,0.2895366300714721,1.3751206802255973
4705,4705,3.972027000000139,0.0,2500.0,-2500.0,2500.0,-2500.0,9.17450785967358,51.555105880514965,83.77880347687343,104.0,11.0,1.5110540596804234,1.6409494320605822,11.730571914297617,-0.0958204572122732,-0.11170094814931347,-0.12361879880028867,0.30117656269227444,-0.3798536313612506,0.04614004586029456,0.1528014807824558,1.7803228714792052,3.3940228247442272,17.201790777453635,-236.27238954143726,0.4440006738263568,11.69686824840699,3.171204729560155,-0.512635384761033,166.2518,163.71392870594713,6.0,9.547973098568242,0.4551974043178406,1.7661071718889003,-12.557161944498533,15.839263799572056,1.5574729000000002e-19,2.4669224123784507e-18,12.120608179481176,-0.4227215253085778,0.23064097957433194,1.0901400208983374
4706,4706,4.0707230000001005,0.0,2500.0,-2500.0,2500.0,-2500.0,8.973832217931841,49.324433056386916,83.72573710575074,104.0,10.868612222562563,1.515182503135715,1.6460512022194995,11.765110845423164,-0.07544303147104131,-0.10715645265972326,-0.12092229104166168,0.3056255802325828,0.053210654284666016,-0.02619070415348585,0.02246147156538915,1.1134686634461763,3.3773647542253142,17.545319889036165,-235.1277418105036,0.7588288590392861,11.724291467536625,3.236704036746453,-0.6235185256334482,166.2518,163.65598999049809,6.0,9.406522740448032,1.6157830504152155,-2.4174146126027765,-6.219034461652844,15.839879584612618,1.5574729000000002e-19,2.467018319229741e-18,12.170222774821744,-0.4456793628331845,0.12000751850081225,0.5649610201393548
4707,4707,4.16619100000014,0.0,2500.0,-2500.0,2500.0,-2500.0,8.957510582217553,49.14516389594815,83.66851722946473,104.0,10.389328727992007,1.5194961025151992,1.649885470176064,11.951552124811109,-0.091590008588191,-0.1216694502273425,-0.11915366066401815,0.31067776009508263,0.08441945353094576,0.06813573528093393,0.050631943050076005,1.1117745583047611,3.642340439717071,17.840266081120358,-234.02548357379365,1.0735261864099257,11.727522913444126,3.309461677938337,-0.7125620956052068,166.2518,163.59089870474094,6.0,9.266326279955985,1.6413773951234127,3.623756606492021,-9.385263431870289,15.840213828262195,1.5574729000000002e-19,2.4670703767723622e-18,12.198167931186195,-0.4404646639860783,0.0905935419239524,0.4255173565127259
4708,4708,4.264587000000006,0.0,2500.0,-2500.0,2500.0,-2500.0,9.079303406548684,50.49072133217854,83.60876664753718,104.0,10.101291040461023,1.5236078361136618,1.6535065552023052,12.090643493063753,-0.14852790644136124,-0.14848141260470518,-0.12097325460945416,0.3145856125131003,0.4831199631324296,0.055985921634021864,-0.011744843846789869,2.3369630633605576,4.296886079194326,18.102894911199797,-232.88707872854226,1.4030248080827956,11.74561413165794,3.398295435757188,-0.6520685141223598,166.2518,163.5252121865133,6.0,9.163183894896603,1.8502805563750024,4.58570281992441,-13.023615478097188,15.837922089184813,1.5574729000000002e-19,2.4667134446216737e-18,12.234647762867196,-0.4075701774654765,0.29656795195601626,1.388578194356996
4709,4709,4.3580120000000875,0.0,2500.0,-2500.0,2500.0,-2500.0,9.262987124825637,52.55433236216696,83.56417760421108,104.0,10.555244578553264,1.5263315119468617,1.6557763228927664,12.035261161416502,-0.17925086589413294,-0.15014954159470276,-0.11806718533010326,0.3154892188378519,-0.07824988115902087,0.1077939407812644,0.05818158710959286,3.7390994590579782,4.76761415243527,18.218674401864316,-231.7963302238545,1.7281785677753818,11.768096919944472,3.5053127707022367,-0.5017877993584916,166.2518,163.48294226980084,6.0,9.129047285072613,2.7508599844112926,2.190304656113673,-9.700271294307592,15.83574612955938,1.5574729000000002e-19,2.466374544806863e-18,12.273318979725437,-0.31451153179930397,0.5480563937137378,2.55680405682768
4710,4710,4.4773420000000215,0.0,2500.0,-2500.0,2500.0,-2500.0,9.563155699832826,56.015661475753106,83.51102585718978,104.0,11.0,1.5295841012969544,1.6587302083684836,12.001298012643845,-0.18168108799194024,-0.14633633565627108,-0.1185661687565286,0.3141319532104298,0.20391770602903536,-0.051704030662094086,-0.08931913274838325,4.088736436446841,4.791889993480416,17.896993985431255,-230.4054720487791,2.1517319876695318,11.785101761112113,3.6383984692414035,-0.3174075202723837,166.2518,163.44290358672376,6.0,9.17823444728255,2.938594308933584,2.838449795639456,-8.868596509809835,15.833181327596725,1.5574729000000002e-19,2.4659750838517924e-18,12.316338940120485,-0.10783954701007084,0.7254458860245245,3.370889666536085
4711,4711,4.5740710000000036,0.0,2500.0,-2500.0,2500.0,-2500.0,9.789068760557901,58.69336825803923,83.50035722871961,104.0,11.0,1.5316166048710662,1.6612707743219746,12.071925746150894,-0.189671581690822,-0.15556273060710335,-0.1250174092542854,0.3115081059567916,0.2269691348364001,-0.00921855232069893,-0.07193021317334714,4.122756107328404,4.955101107137082,17.741815063733238,-229.27679608388993,2.499197220518569,11.78041254627622,3.721768847316887,-0.21761690561415106,166.2518,163.42167948574618,6.0,9.289999817775264,0.5840394691693294,-2.8842014163765484,-8.71237298332034,15.832054446015539,1.5574729000000002e-19,2.4657995750993716e-18,12.326881434476268,0.016233922703414474,0.8519883103819955,3.953783882166491
4712,4712,4.669701000000089,0.0,2500.0,-2500.0,2500.0,-2500.0,10.016621835124774,61.45381495179326,83.49336828041214,104.0,11.0,1.5335765684822424,1.6635765540705305,12.140465631119609,-0.19928826174343695,-0.16974863307624524,-0.11697568590528293,0.3084647609726404,-0.015616382098759832,0.033851686625285565,-0.027887704631824942,3.6249098629226553,5.330091687175319,17.71779744721533,-228.16129616337398,2.8507255707623886,11.753241951972447,3.8199111772095566,-0.12033641736088885,166.2518,163.41357931203197,6.0,9.438231043983974,0.6936741523111238,1.816004559470304,-13.655923163107346,15.830940367656323,1.5574729000000002e-19,2.465626060414076e-18,12.316001939858973,0.12660830028561526,1.0203819682086888,4.736144197673805
4713,4713,4.7676280000001725,0.0,2500.0,-2500.0,2500.0,-2500.0,10.25175041468336,64.37279342365552,83.50443925977027,104.0,11.0,1.5354716882976207,1.6654716265079132,12.207742384565533,-0.21318406916728225,-0.18723084967586887,-0.10861752394682042,0.3042586947940712,0.2305719828256075,0.02066541218236789,-0.06129179348742645,3.102874426516619,5.8960540697607495,17.782024481750422,-227.02068677962365,3.216897413532873,11.71919293134558,3.9067344379909863,-0.01913895827552191,166.2518,163.42245130160518,6.0,9.630509413944392,0.8168850102024486,2.7352915619319917,-14.847777177907384,15.829885321081786,1.5574729000000002e-19,2.465461739769269e-18,12.289035215919998,0.2079965364572908,1.2335264875159608,5.731932820638455
4714,4714,4.887867000000085,0.0,2500.0,-2500.0,2500.0,-2500.0,10.389897712658478,66.11936105236104,83.52426211161433,104.0,11.0,1.5378255717688891,1.668857332116794,12.289035200431108,-0.1904341074606317,-0.2021444464370513,-0.1082309110649886,0.2979400039092696,-0.5219995629371015,0.13933374547137112,0.09977149076625554,2.033558418919808,6.601998034507184,18.004647196696,-225.62415213093638,3.679516507886208,11.66751347375601,4.0101560902902635,0.09942065293609513,166.2518,163.44957808935362,6.0,9.878588807734742,2.3771278174033452,2.5079950496382404,-8.410717980399172,15.829668878206126,1.5574729000000002e-19,2.465428029377945e-18,12.242456448138967,0.2598802413875828,1.4922141429566778,6.949414187724486
4715,4715,4.983688000000086,0.0,2500.0,-2500.0,2500.0,-2500.0,10.381678818197095,66.01480155830944,83.54712905249437,104.0,11.0,1.5397425764553183,1.6731706405863782,12.351817103911682,-0.16682786259418236,-0.20916948425853366,-0.11624230137891953,0.29302217616757603,-0.046881204903925416,0.039376698994616696,0.0029257123627248506,0.9860948397016815,6.956151112465642,18.138379121016253,-224.5164929143087,4.054910078930844,11.61438638545368,4.059121242079433,0.1563190192751029,166.2518,163.47969742566357,6.0,10.043391585112746,1.8665570632356,3.2291017735790435,-9.254874958022423,15.829496390304625,1.5574729000000002e-19,2.465401164854728e-18,12.191417872508573,0.26823252789359625,1.615409950475887,7.547943228179487
4716,4716,5.068275000000028,0.0,2500.0,-2500.0,2500.0,-2500.0,10.253245724624886,64.39155818358337,83.5675308429838,104.0,11.0,1.541545028379407,1.6767629997311695,12.359760259870505,-0.16338031904547473,-0.21487318707521286,-0.119727430639538,0.2909983362480827,-0.2540453626969992,0.12082931621172865,0.0908674983996196,0.44989181952716095,7.290116125747626,18.336265871858217,-223.5373071158893,4.392304037269944,11.562400447755735,4.087888439841099,0.18611346860316413,166.2518,163.5014999325236,6.0,10.140061253261306,1.0804348509447912,3.915771688869572,-11.120094381498538,15.829431166321148,1.5574729000000002e-19,2.465391006396058e-18,12.13862672203334,0.25458108781348315,1.7096225496140969,8.016893196024867
4717,4717,5.18953300000004,0.0,2500.0,-2500.0,2500.0,-2500.0,10.205385831770775,63.79182414843679,83.58992602795261,104.0,11.0,1.5445858440918012,1.6810201417285218,12.174269893251305,-0.15887850450089508,-0.2261454845077999,-0.11984997260272733,0.29009794252158594,0.06166400342857947,0.06074421998481564,-0.011254098093981438,0.3140011706684807,7.667517445266667,18.55693459115589,-222.13649967579258,4.8808416685878715,11.486543248649141,4.1079382082762965,0.19778011764499254,166.2518,163.52924057630844,6.0,10.192971227327208,-0.5280434608608607,-1.6814703344106423,-11.673818001440926,15.830582178486438,1.5574729000000002e-19,2.465570273421559e-18,12.061232803089965,0.2466590530567328,1.7914554312088884,8.448378891834016
4718,4718,5.284189000000083,0.0,2500.0,-2500.0,2500.0,-2500.0,10.334051380363062,65.41050426351208,83.60577256010157,104.0,11.0,1.5465687211245966,1.6841373801585318,12.109418776319012,-0.12942579027512746,-0.2350361646620393,-0.12288580890028608,0.2890218562312595,-0.4162585557684709,0.12161427430524364,0.06310257786109871,-0.3676492587561122,8.065530016704853,18.575820032795857,-221.05505469519048,5.269273785926575,11.422891222757563,4.117749645659386,0.2733863179787137,166.2518,163.5485915861208,6.0,10.237711368746854,-0.5088614833213075,-2.049736012746328,-11.658958316580597,15.831480677616534,1.5574729000000002e-19,2.4657102122261396e-18,11.981100592256961,0.2490777282166253,1.9367957115230223,9.182668144085474
4719,4719,5.378813000000093,0.0,2500.0,-2500.0,2500.0,-2500.0,10.545033063751005,68.10872162589673,83.63259752051609,104.0,11.0,1.5479750254971518,1.6869500826603927,12.16239134010406,-0.1005992477228292,-0.2424095609176775,-0.1286244667283688,0.2875229166755223,-0.3596175614413655,0.09529325254433132,0.03966210976805271,-1.2776801078446651,8.393389387531071,18.500495914605704,-219.9847949980003,5.659842767085365,11.358894372650907,4.108649014714108,0.32150063807599183,166.2518,163.5707011954621,6.0,10.308511187915489,1.5360528585377793,-0.9528770973204136,-7.744149591761,15.832541406569376,1.5574729000000002e-19,2.465875417885969e-18,11.899335520270505,0.2424713279421308,2.037580194937186,9.716792206043438
4720,4720,5.475408000000016,0.0,2500.0,-2500.0,2500.0,-2500.0,10.700437584912523,70.13087045877857,83.66234432670717,104.0,11.0,1.5492740375241756,1.689685159557461,12.176886040589292,-0.09500216544732487,-0.24646964106167374,-0.13283719197828256,0.2856251702038445,-0.1656988584948915,0.06957527636417546,0.06790439091969372,-1.8768588468007803,8.653248523830403,18.52110964824796,-218.89475050200988,6.051183736293182,11.286723755836244,4.0640749264838005,0.3199024974653363,166.2518,163.596422816161,6.0,10.413123061580043,0.4960161166899477,1.4065153668740311,-11.196802143794317,15.834320376345842,1.5574729000000002e-19,2.4661524876076447e-18,11.808468154010232,0.19580024261616166,2.07916970156616,9.985967523754995
4721,4721,5.594903000000102,0.0,2500.0,-2500.0,2500.0,-2500.0,10.708499537663206,70.23658734047537,83.69692653287841,104.0,11.0,1.550459245600881,1.6926480316056218,12.072593537068427,-0.061212335665561925,-0.2558796673931056,-0.1372004037071627,0.2835446877602118,-0.3115985201159318,0.0899376176253113,0.019987582254358455,-2.5899944879816514,9.01325852256449,18.515790080606397,-217.55088095280547,6.524478840246021,11.199887228206622,4.0098939239848645,0.3338179745199596,166.2518,163.630215548529,6.0,10.528383197415485,-0.42090970725130095,-0.2652439635223081,-12.193566835595385,15.836521090600606,1.5574729000000002e-19,2.466495242888889e-18,11.69438709774714,0.14349293480749994,2.1522542916728002,10.428116704593336
4722,4722,5.686462000000006,0.0,2500.0,-2500.0,2500.0,-2500.0,10.719958443323923,70.38698080274307,83.72296967055429,104.0,11.0,1.551187389681319,1.6951239317421205,12.002898607365086,-0.05200166650534095,-0.2629421763510953,-0.14070625118818922,0.2820415193477822,-0.24999812066010385,0.09027903601668644,0.0455513795478196,-3.4402463694022174,9.330218350077867,18.44953007861229,-216.52473004085883,6.883602968258287,11.142167364605033,3.952568378529082,0.39021613908508174,166.2518,163.65771732278043,6.0,10.592611238127985,1.4782292574074374,0.09214705857714367,-8.728524578993802,15.837841017370168,1.5574729000000002e-19,2.4667008179062473e-18,11.60071442911375,0.08220841074605052,2.2610765872256464,11.02915239805704
4723,4723,5.780050000000017,0.0,2500.0,-2500.0,2500.0,-2500.0,10.721730094246203,70.41024304632522,83.76098262455443,104.0,11.0,1.5516607502013249,1.6979643315660864,11.947036479791631,-0.061619510507817166,-0.26128030180090017,-0.1429058694681985,0.28028977846884995,0.023417041877601963,-0.005499838516323821,-0.014740415403707838,-3.511388006656704,9.502951321097177,18.404246733624184,-215.4843003679252,7.246254438997396,11.07801192641514,3.88820961108495,0.4690889347558405,166.2518,163.69254108242004,6.0,10.643099680978805,0.7907015455114177,1.6939137101638782,-12.5476906029446,15.838239126856296,1.5574729000000002e-19,2.4667628223798338e-18,11.5004448885778,0.04212506654960076,2.3645671209166257,11.618474962182134
4724,4724,5.892532000000017,0.0,2500.0,-2500.0,2500.0,-2500.0,10.683294044673293,69.90632305394884,83.809962410297,104.0,11.22431508541026,1.5515513922606878,1.7004486301708204,11.83544426343904,-0.06656288050537297,-0.2496404957726077,-0.1423825686559061,0.27796014455180584,-0.11659838802403932,-0.023041932747191428,0.006806936745641179,-3.4586067594103254,9.27740044216017,18.313308562311136,-214.23457324821575,7.670303490890966,11.010205487802928,3.8185020069488815,0.5287823257193601,166.2518,163.74383013397988,6.0,10.683990185472162,1.6566205651635522,0.6548912427702189,-8.615460863094732,15.838717608619106,1.5574729000000002e-19,2.4668373446177062e-18,11.41472133801615,0.01857951315375204,2.3693384124861803,11.726292458829596
4725,4725,5.991106000000173,0.0,2500.0,-2500.0,2500.0,-2500.0,10.567716374433504,68.40195582573732,83.85465221480172,104.0,11.711258978234982,1.5505775531694281,1.70142251795647,11.680108674684062,-0.09181859561788223,-0.24236096216538305,-0.14011174696953138,0.276387095153605,0.019303733384047717,-0.019454785116732036,-0.013155159096013691,-3.1633416204244913,9.049762902043476,18.149397130065974,-213.1446767103489,8.033166357012334,10.956812977042675,3.7526812748864535,0.5286665327314967,166.2518,163.79268679924718,6.0,10.688182604843162,0.8082398617969684,1.9811525677815944,-11.871136029654664,15.83986383918387,1.5574729000000002e-19,2.467015866921884e-18,11.35331926687579,0.02174301751489807,2.315995981071025,11.529737221032493
4726,4726,6.087435000000141,0.0,2500.0,-2500.0,2500.0,-2500.0,10.472797162100234,67.17868814289463,83.8986116428582,104.0,11.812311397184649,1.5494370154226935,1.7018123301660448,11.577114248725312,-0.12168920966497662,-0.24130263641356586,-0.13609063079500158,0.27569268192228474,0.16777893661044238,-0.011920641832057578,-0.057671004200737085,-2.4981726949789778,8.923227279511348,17.9513051074058,-212.08445688242568,8.375717003040434,10.91694331521782,3.6858598294875256,0.5045518279993544,166.2518,163.83519802802851,6.0,10.66090196404168,1.0381140422451616,2.4292104668120627,-9.734111230627024,15.84269670508265,1.5574729000000002e-19,2.4674570781085525e-18,11.303801590195405,0.04039489590649988,2.261400092290478,11.313050550742565
4727,4727,6.204798000000039,0.0,2500.0,-2500.0,2500.0,-2500.0,10.260118644619537,64.47790716561364,83.95354278004729,104.0,11.23076808728912,1.5476923273386762,1.7012308450104805,11.54338531829468,-0.1372577452247061,-0.2349374327185429,-0.13479737569615804,0.275887824809658,-0.13149773170682758,0.0092689740412886,0.004867590610556472,-2.2852167460998936,8.767078099940829,17.675321650255203,-210.80026632198243,8.783902194122991,10.877633073070182,3.5857141809395383,0.4688470410242737,166.2518,163.88260930715006,6.0,10.585844384340367,0.4853432604485912,-2.5321676690236226,-8.795265808904746,15.846148143802855,1.5574729000000002e-19,2.4679946303358247e-18,11.247555594744286,0.024334601357213687,2.1898927599323,11.017618004435024
4728,4728,6.301212000000021,0.0,2500.0,-2500.0,2500.0,-2500.0,10.111111051585453,62.61866945922104,83.99894090088152,104.24981455121357,11.0,1.5465003958790282,1.7017495436536407,11.506518432185926,-0.12831198537551966,-0.23429057090820746,-0.13909181812831148,0.276795571866483,0.04856385489252385,-0.033793160279359045,-0.04413176353030572,-2.515370236944737,8.658385633287049,17.528720174686658,-209.74965486502774,9.112024362207318,10.84142361523698,3.5159025405879327,0.5049371668865935,166.2518,163.92750937890057,6.0,10.479017800089943,0.2444808686168351,-1.0737560225808207,-10.506142579482773,15.848067866822113,1.5574729000000002e-19,2.4682936219936253e-18,11.191046877266867,-0.010818499604473487,2.1996221494448736,11.119847138617649
4729,4729,6.396450000000016,0.0,2500.0,-2500.0,2500.0,-2500.0,10.016552007411947,61.452946657864864,84.05412581815838,104.72715972653805,11.0,1.5455457532628964,1.7031815791796139,11.46164798570542,-0.10566656134098004,-0.23058737415040514,-0.14672842140750758,0.2771341903767181,-0.10769060855746324,-0.026704741027206595,0.035237674107222394,-3.0911316629711707,8.602459560181233,17.592740918997194,-208.7186834725641,9.433208284602614,10.808652485548476,3.46410404596379,0.5994115476200237,166.2518,163.9820398421224,6.0,10.366647273388134,0.6383682669673781,1.5338213805488667,-12.674220584642494,15.848632821143685,1.5574729000000002e-19,2.468381612098184e-18,11.132794870659325,-0.0887251581930737,2.281803043033824,11.583052290422193
4730,4730,6.509993000000065,0.0,2500.0,-2500.0,2500.0,-2500.0,9.96516316390424,60.82398842541441,84.12120779557691,105.0,11.295890068081775,1.5458877702042453,1.7060713304765724,11.437184560272328,-0.04780549428685412,-0.21355194977011455,-0.14935764852510633,0.2767199202561907,-0.1113781878329122,-0.08709543295843616,0.028456500489893236,-3.9344276486009537,8.210117064443862,17.739920701521328,-207.4863576439517,9.808076819670674,10.774363407342436,3.3985934127024517,0.6946766759183376,166.2518,164.05768226415094,6.0,10.23364855906707,0.9470396935828612,2.9308253356801397,-10.211464585335436,15.849306361206837,1.5574729000000002e-19,2.468486514137726e-18,11.082585588364632,-0.203329743254016,2.3020283246609816,11.734375456864074
4731,4731,6.6020120000001725,0.0,2500.0,-2500.0,2500.0,-2500.0,9.966713149515863,60.84291013666481,84.16872123542923,105.0,11.756537845414634,1.547269713536244,1.7092958649179024,11.439027151381655,-0.02060619335634416,-0.2074674397467345,-0.13756808551779262,0.2765630084324344,0.0335318803868426,-0.04893324633977851,-0.02054205617510937,-3.983210193026488,7.842466978451832,17.78209585122154,-206.48932375965302,10.104353799268273,10.75129887210399,3.3246718397149486,0.7094806216292775,166.2518,164.11366276160038,6.0,10.142174170296148,0.8151451334732314,-2.0452783954220477,-8.723354478401044,15.849586322371554,1.5574729000000002e-19,2.468530117330436e-18,11.050943419843323,-0.27197027582266325,2.2489534054652136,11.50305462649084
4732,4732,6.6979230000001735,0.0,2500.0,-2500.0,2500.0,-2500.0,10.153566528407268,63.14578957307115,84.21808553058406,105.0,12.0,1.5484381237648532,1.7112191118824265,11.3986075352095,0.020322385595825047,-0.2088296278336556,-0.11927173215752535,0.2762977351933467,-0.007246713449399561,0.0126061832038733,-0.021943123258576905,-3.8016996886139838,7.602379275694611,17.631942327751513,-205.45144340611245,10.409347270288839,10.715227679632312,3.2578693405372565,0.6754023094908824,166.2518,164.1643867145647,6.0,10.087324632253539,-0.0846381322947436,-1.8800686192537963,-9.186240099548408,15.849489475827546,1.5574729000000002e-19,2.4685150337436616e-18,11.010870086812579,-0.2822171104692785,2.1649196198010703,11.123412075708725
4733,4733,6.814139000000182,0.0,2500.0,-2500.0,2500.0,-2500.0,10.464812128870829,67.07635286667993,84.28006787204106,105.0,12.0,1.5495148708058282,1.7117574854029138,11.296854401463866,0.024018985480809083,-0.22298033445637414,-0.11619860039293775,0.27478475830968263,0.05973266968809034,0.06616539341347706,-0.0667142208692571,-3.338518730498415,7.781245196717937,17.215936903451762,-204.19814330340802,10.772352851380155,10.667308392164113,3.1905078674777765,0.6508933475180687,166.2518,164.2181545696874,6.0,10.12405445439236,0.4479142063435498,1.8194118619255824,-12.783394780839473,15.84937212622262,1.5574729000000002e-19,2.4684967568607114e-18,10.943035852447789,-0.23401248286593165,2.1635001017253908,11.183476765444293
4734,4734,6.9058390000000145,0.0,2500.0,-2500.0,2500.0,-2500.0,10.657006229174604,69.56276223099742,84.32928632602128,105.0,12.0,1.5491359715057107,1.7117840678764276,11.222700007844145,0.01884419740100215,-0.23172195801728784,-0.11658696733463672,0.2718547277065397,0.012604678766196684,0.05453614720036483,-0.07527294797251932,-2.961053658515103,8.083519181447697,16.774601159748105,-203.2138329079472,11.050142622376692,10.641450376843816,3.122577818645452,0.6764962502613204,166.2518,164.264779287175,6.0,10.212239116564437,1.8271319734360492,-1.2763323104624338,-9.214584781236924,15.849875617993712,1.5574729000000002e-19,2.468575174339596e-18,10.884515996996322,-0.19584053396480525,2.2376707044205,11.6171750430356
4735,4735,6.99810100000002,0.0,2500.0,-2500.0,2500.0,-2500.0,10.723606265146866,70.43487722507678,84.37609228705045,105.0,12.0,1.5471087587529588,1.7112772646882397,11.156309296994708,0.005835931442490691,-0.2339166248015448,-0.11773455004447793,0.2682712344583615,0.07893031214033659,0.025007007774040992,-0.06693056888561154,-2.6243831505906594,8.262451517637714,16.292641175649802,-202.22751988827824,11.32082689657239,10.601586114689717,3.066624882215452,0.6713508068161291,166.2518,164.31565275805158,6.0,10.325387471844364,1.5301099955691244,-2.374685346721268,-8.445618208823833,15.851090081433151,1.5574729000000002e-19,2.4687643237290927e-18,10.82513035500274,-0.1334529666462544,2.252419844203685,11.754005315822948
4736,4736,7.118203000000051,0.0,2500.0,-2500.0,2500.0,-2500.0,10.454632713723512,66.94586038222792,84.4363929206047,105.0,12.0,1.5453140060700683,1.7113431298134751,11.107651926714897,-0.015880105817967897,-0.22935783739106966,-0.11808499761840326,0.2647441655372128,0.29050100451479666,-0.042950880896148035,-0.12979182914966378,-1.7948393194397885,8.35446004930936,15.763334021205893,-200.94737102230548,11.665001198162956,10.536632417159039,3.024694333994736,0.6625487736400397,166.2518,164.37603759127003,6.0,10.418074213604351,0.4438868756198984,1.2363821739157794,-11.457460687957303,15.852671008445391,1.5574729000000002e-19,2.4690105488269367e-18,10.749478791935562,-0.022418770688146083,2.240118895006184,11.771579439004647
4737,4737,7.216433000000109,0.0,2500.0,-2500.0,2500.0,-2500.0,10.120169800788585,62.73100041593818,84.481840054146,105.0,12.0,1.5443463126715882,1.71182695232159,11.090234316422762,-0.02105582630504929,-0.21685204915284934,-0.11665058792095627,0.26380189825471784,0.005995126587292046,-0.043014531063074415,-0.08017779500670735,-1.4925344874147772,8.112071631688131,15.245150459418163,-199.9070830902197,11.942973793406939,10.488442952569123,2.9997451398419006,0.7014275451528026,166.2518,164.4208271333674,6.0,10.391918622892163,0.3449395427614265,1.2130452107743293,-11.257545368576913,15.853205321548048,1.5574729000000002e-19,2.4690937666446868e-18,10.700006287936944,0.07670883674156831,2.2136692832780542,11.68872668504036
4738,4738,7.3149760000000015,0.0,2500.0,-2500.0,2500.0,-2500.0,9.842906559071938,59.34078897608705,84.52719845738483,105.0,12.0,1.5430429326889492,1.7116810669285474,11.036784105424996,-0.059920870356942074,-0.20337126658711505,-0.11652498728221955,0.26513273470316195,0.3236344379771521,-0.0763600996833325,-0.12523573955395534,-0.4093838381460403,7.718598766457786,14.755968917594936,-198.8649651840434,12.218542599408893,10.434902170730641,2.9835447115403744,0.6080486487866057,166.2518,164.46311624475106,6.0,10.280031668666279,0.15196477819068555,1.2786923224133468,-10.449923397527245,15.853084437552011,1.5574729000000002e-19,2.4690749392899e-18,10.67069327352374,0.21057028988657356,2.0292825695682337,10.767558558207064
4739,4739,7.410081000000048,0.0,2500.0,-2500.0,2500.0,-2500.0,9.816593857102204,59.023894181231725,84.56061082408377,105.0,12.0,1.5416070071085255,1.7112024091131457,10.965942748745556,-0.07260736098890833,-0.2099366596341302,-0.1104324797987202,0.26805889959143586,0.03363213769236939,0.02544472986691083,-0.08991711301512922,0.28332202965361797,7.640694345253742,14.199235435282233,-197.86592541448087,12.486544229800547,10.382137514165807,2.9800101811122777,0.4809351017943737,166.2518,164.49434190053285,6.0,10.143413496980488,-0.14214470443852087,-0.4211001522134705,-9.52853367681036,15.85296777099586,1.5574729000000002e-19,2.469056768789946e-18,10.636130349025008,0.3487021135917231,1.8665618678423264,9.953626869276013
4740,4740,7.528696000000025,0.0,2500.0,-2500.0,2500.0,-2500.0,9.963323522059422,60.801540065247366,84.60068290961722,105.0,12.0,1.5398237594195658,1.7094316458927543,10.941490589375361,-0.0905443393485135,-0.22446777999422848,-0.11124427126856233,0.27059026473938896,0.16461106368694475,0.026937866014417743,-0.08342932952844563,0.7981798683107028,7.9207524395473925,13.526762741313613,-196.62133738704475,12.814831436309056,10.317337330726641,2.990930746970371,0.4043834628371407,166.2518,164.5259159643029,6.0,10.033332253086124,0.6133848610086103,3.0697035707664297,-11.302077175540367,15.853533058420195,1.5574729000000002e-19,2.4691448107743568e-18,10.57261909995831,0.5162030226396559,1.8108943046475996,9.719393643695971
4741,4741,7.624002000000019,0.0,2500.0,-2500.0,2500.0,-2500.0,9.80449586040064,58.87849501820923,84.62223758164863,105.0,12.0,1.538394083639018,1.7075254115186906,10.948162409684585,-0.12009205304761933,-0.21867662397295684,-0.11294649844508585,0.27139882721881115,0.31033118273444776,-0.03007456277012257,-0.10046902638114663,1.6087872152447409,7.985963869107403,13.154503646136167,-195.6271394363784,13.084597173064394,10.275977399565136,2.9962807095730497,0.3828270065664675,166.2518,164.55022367623855,6.0,9.964144462060348,0.6139922522670114,1.940884025262284,-11.402393120880552,15.854485168533895,1.5574729000000002e-19,2.469293099344348e-18,10.531382359698982,0.625791463672465,1.7828485374116665,9.608454746230016
4742,4742,7.72000300000002,0.0,2500.0,-2500.0,2500.0,-2500.0,9.743636421613658,58.14980505329751,84.64384620359478,105.0,11.658086594986225,1.5369743597849588,1.705632446379945,10.89495277083608,-0.15148264711522216,-0.2112716346765281,-0.11621245811281294,0.27246321772146803,0.19482373798046665,-0.020871521280793292,0.0044760207595855575,2.4643068492294993,7.835935584297798,12.905276486718488,-194.62173407798986,13.355266229107366,10.246897804536557,2.9976500198613825,0.3575157898798977,166.2518,164.57087803274598,6.0,9.878304953052458,0.5318381470290847,0.4686962985381316,-10.985452401268363,15.855444221720742,1.5574729000000002e-19,2.4694424692791646e-18,10.509305106513796,0.7051801111057739,1.7191711242490717,9.29047664328109
4743,4743,7.818799000000013,0.0,2500.0,-2500.0,2500.0,-2500.0,9.765122611526758,58.406535383046894,84.66870147713364,105.0,11.173699873995595,1.5355211996219869,1.7036948994959824,10.81696626656323,-0.15830092727197054,-0.20978881450001485,-0.1171196381425062,0.27313207917212085,0.16635735796847415,-0.029434770220234826,-0.05661341300811418,3.2347502023037604,7.7073777868012225,12.790207189964983,-193.5957640110886,13.640721483972854,10.214872265469774,3.02802967653015,0.3457685223333429,166.2518,164.59040580233906,6.0,9.811335305447269,0.8977687849168536,2.3100651425307865,-11.403655670109572,15.855505939521622,1.5574729000000002e-19,2.4694520816593967e-18,10.489343152748779,0.7850534666487055,1.6729523400308344,9.06182048079311
4744,4744,7.912086000000102,0.0,2500.0,-2500.0,2500.0,-2500.0,9.835765654711127,59.25466636200965,84.69243039808178,105.0,11.0,1.5361788937232592,1.7041789231938391,10.813461228625062,-0.14865754416426108,-0.20852437830539547,-0.11825044516567755,0.2728473253333596,-0.12997195358332525,0.028859803134652494,0.029961250322833432,3.066206704561254,7.670735530258309,12.742846896898445,-192.62402489645248,13.908617218980694,10.189143802269045,3.0338415324449244,0.3477355524653334,166.2518,164.6140920143813,6.0,9.772544197143707,0.8414702619004951,2.552859095167792,-11.420923716309511,15.854823710006794,1.5574729000000002e-19,2.4693458262613046e-18,10.466039654901794,0.7994410256788725,1.6629863324569152,9.028454491320208
4745,4745,8.030373000000168,0.0,2500.0,-2500.0,2500.0,-2500.0,10.143829063168633,63.02464886041789,84.71881733870107,105.0,11.0,1.5385888208416534,1.7065889105619174,10.863468767761102,-0.12656315258474998,-0.20848461452407835,-0.12039429537022872,0.2709428747948447,-0.19527079367314792,0.03443693888007897,0.05451116701364772,2.559300776177928,7.604468258070309,12.830570318859,-191.40109869756213,14.250411760738142,10.165794972494918,3.012465836016041,0.31592894323811715,166.2518,164.64371172769134,6.0,9.799524410342258,0.9859013100114696,2.3887834851626057,-10.327139861678774,15.853958649680916,1.5574729000000002e-19,2.4692110954598616e-18,10.446074819451393,0.7502714755186233,1.6217034460542132,8.824454320306273
4746,4746,8.125320000000045,0.0,2500.0,-2500.0,2500.0,-2500.0,10.333137169742496,65.39892348084443,84.7394821054297,105.0,11.0,1.5416840477793723,1.7096841094363804,10.826756269501017,-0.11768996204706958,-0.19796629973816413,-0.12466595034584248,0.26792376109830346,-0.0568488775486515,-0.05111476238223647,0.09192846052749833,2.024879777225652,7.435726360520372,13.12121578644703,-190.40870165659507,14.51228844116858,10.161375012095377,2.9813339579933373,0.2952730803111865,166.2518,164.66466134736137,6.0,9.891869764942658,1.6191863740888368,-0.786274879797177,-8.60439485725124,15.854008681887741,1.5574729000000002e-19,2.469218887840488e-18,10.44575659710796,0.6504168116360128,1.5828037254774945,8.616255867299207
