,Unnamed: 0,timestamp,thrustinput,Position state,Position state2,PA-ON,PA-ON2,Airspeed[m/s],Differential Pressure[Pa],GPS Altitude[m],GPS Noise Magitude/ms,GPS Satellite Num.,Horizontal accuracy[m],Vertical accuracy[m],Groundspeed[m/s],Roll control,Pitch control,Yaw control,Thrust control,Roll Angular Rate[deg/s],Pitch Angular Rate[deg/s],Yaw Angular Rate[deg/s],Roll angle[deg],Pitch angle[deg],Yaw angle[deg],Local X[m],Local Y[m],X-velocity[m/s],Y-Velocity[m/s],Z-Velocity[m/s],altitude set position,altitude(Tecs),airspeed set position,airspeed(Tecs),X-acceleration[m/s^2],Y-acceleration[m/s^2],Z-acceleration[m/s^2],Battery Voltage[V],Battery Current[A],Inst. power[Ws],Body_Uvelocity[m/s],Body_Vvelocity[m/s],Body_Wvelocity[m/s],A.O.A.[deg]
7702,7702,0.0,0.0,2500.0,-2500.0,2500.0,-2500.0,12.581344438823715,96.95276068090293,103.3539075353853,106.0,12.0,2.772199164594364,3.34295744864241,12.638873272502911,-0.5323936724221365,-0.3490986794281309,-0.06957892041258736,0.12907673971608125,-0.9716780706329546,0.2410266170378216,0.42431511444669984,29.68439070589025,0.28697387820533,-10.346995677029225,-344.0347932371659,80.9946805386381,13.396373854997686,-3.241354001783333,-0.5934443177069002,177.54748999999995,182.31887689574523,6.000000346578751,12.501518829708932,-0.2906822460272189,0.00656455737957673,-12.84246114164226,15.521654858988855,1.5574729000000002e-19,2.4174556806028462e-18,13.763499290956151,-1.0422731691897191,-0.4517614514873837,-1.879953237780638
7703,7703,0.1166880000000674,0.0,2500.0,-2500.0,2500.0,-2500.0,12.57903413620648,96.91717158848594,103.3205122159721,106.0,12.0,2.7807659641599467,3.3544783964785245,12.611104834128685,-0.5217148582233047,-0.3689733273449522,-0.1033394859806082,0.10129887761957007,-0.8963600451651703,0.11247359721918276,0.4391625031057772,22.852150347174764,0.014597825683227568,-7.343600921537537,-342.46909603886536,80.65988703690854,13.545252821925326,-2.4156419432781737,-0.3883628561180241,177.54748999999995,182.27118267088608,6.0,12.411735687341785,0.2410054658172057,0.21457135763557855,-13.732813753053119,15.5251588381386,1.5574729000000002e-19,2.4180014158596357e-18,13.743011732853,-0.8139443310876975,-0.3544843738112422,-1.4775477456391963
7704,7704,0.21479900000008456,0.0,2500.0,-2500.0,2500.0,-2500.0,12.568647888957546,96.75718930366686,103.30410289469116,106.0,12.0,2.787968909382922,3.3641651827217416,12.587757195491186,-0.4092658665995342,-0.3680004389639508,-0.11701398449831933,0.08323174334839922,-1.024749053733721,0.10990782352794223,0.4700702887428422,16.926518209266213,-0.3915144721072604,-4.776251227012662,-341.14983229082844,80.47639166478481,13.557602942162214,-1.8979998274962364,-0.3049496197876041,177.54748999999995,182.2539277548097,6.0,12.35012537853045,-0.16202459640647468,-0.1902201011565085,-12.096742994255195,15.528104975687963,1.5574729000000002e-19,2.4184602687989167e-18,13.66615727783159,-0.8784953879813393,-0.3862959523111171,-1.619126378078067
7705,7705,0.3105580000002419,0.0,2500.0,-2500.0,2500.0,-2500.0,12.493711937995718,95.60685988138763,103.30414597600542,106.0,12.0,2.7949991795015343,3.373619749119644,12.564969266224447,-0.3257532083299174,-0.3697784489853081,-0.11843423906497758,0.07270513016070168,-0.8450298375864829,0.0897245745762695,0.41230133569284705,11.762123220485687,-0.5075492322145291,-2.364917504430919,-339.8678716622283,80.34109624916411,13.534496522932464,-1.5080906757100008,-0.2672616097317188,177.54748999999995,182.25042007794232,6.0,12.296037563678818,-0.2211609477275968,1.4865916773208592,-11.144043574122168,15.532618905241106,1.5574729000000002e-19,2.419163301094069e-18,13.582298136628554,-1.02729354519548,-0.3878547085571522,-1.6356878817767704
7706,7706,0.40666299999986677,0.0,2500.0,-2500.0,2500.0,-2500.0,12.373107534869614,93.76998594309308,103.30722544837411,106.0,12.0,2.8012881797376474,3.382328400923834,12.551584766871963,-0.2809270868319267,-0.3768120956822277,-0.11499559796124433,0.06785423239686811,-0.5620691201733088,0.06018526229562837,0.3646311864234073,8.27607130134007,-0.4094499651701765,-0.20280371903492228,-338.5954160980497,80.24431395597804,13.481804446598327,-1.1989869139696352,-0.2734234544747325,177.54748999999995,182.2487531017994,6.0,12.233204068523538,-0.435019209548411,2.2756710384688827,-10.901672545272728,15.539369430550229,1.5574729000000002e-19,2.4202146771170417e-18,13.48366561735446,-1.204458625860988,-0.3741658462781268,-1.5895250040510165
7707,7707,0.5011010000000624,0.0,2500.0,-2500.0,2500.0,-2500.0,12.230827509701033,91.62583747012279,103.31293649935036,106.0,12.0,2.806481429390716,3.389882081261381,12.550640084724751,-0.18507986207045368,-0.3883244377077615,-0.11909175889797907,0.06673793984481044,-0.4521395589051,0.09380947890704727,0.2841477081935723,5.673783598817511,-0.2275315546299229,1.499673003067176,-337.360807231456,80.18542262231952,13.4120029266482,-0.9372228104560512,-0.289845024597351,177.54748999999995,182.2511704617224,6.0,12.15069322568109,-0.08219029881416667,1.3325659222994726,-9.121993874818155,15.546002863869465,1.5574729000000002e-19,2.421247816379908e-18,13.381624138066408,-1.3218097728658975,-0.3464225317174008,-1.4829378338087644
7708,7708,0.6207529999999224,0.0,2500.0,-2500.0,2500.0,-2500.0,11.95338508073016,87.51611355397742,103.32129043905334,106.0,12.0,2.8118889170811845,3.3993172945958086,12.500893625705936,-0.11159479510627936,-0.4058866038702384,-0.11641968534640615,0.06836197488376991,-0.3240765075794124,0.06152990630283287,0.12121178527560325,2.9753970915782557,0.05244215949169392,2.8166539337180825,-335.8157151461827,80.14327894926167,13.302318458674078,-0.6514724488544094,-0.35012604277680764,177.54748999999995,182.2573205403254,6.0,12.002208919647973,-1.262486866921,2.947992904985038,-10.036886246604974,15.553000528998997,1.5574729000000002e-19,2.42233768376016e-18,13.25454937870999,-1.32190626305074,-0.33634493883170163,-1.4536149112450274
7709,7709,0.7170619999999417,0.0,2500.0,-2500.0,2500.0,-2500.0,11.703187925774815,83.8908848671483,103.32729022376023,106.0,12.0,2.8151567464389715,3.4067866655254555,12.415930529236231,-0.045229200331730016,-0.42041869541261895,-0.10242255651438226,0.07272927812909666,0.01144914950265815,0.03685583193326769,0.031548592765629886,2.3870826945467822,0.2446184020698657,3.178346502645681,-334.5900266282929,80.13514834030205,13.204420191572785,-0.4690943407983357,-0.4595296457756509,177.54748999999995,182.26070003982034,6.0,11.83826872554627,0.12399160203691095,0.9384063464509879,-8.239573155681803,15.557099826940467,1.5574729000000002e-19,2.4229761383054473e-18,13.159942452964351,-1.2172695176929504,-0.39787315935415984,-1.7317333126755243
7710,7710,0.8255460000000312,0.0,2500.0,-2500.0,2500.0,-2500.0,11.417446126910974,79.84431586642823,103.33391856307249,106.0,12.0,2.8183699950522074,3.4151097673476136,12.316220675813579,0.009015027300211031,-0.4321673383498005,-0.08659003605186022,0.0791936228041006,0.1980396864394772,-0.047016978677847786,-0.09995454574734068,3.345434241238035,0.23858173695311394,2.908336135706207,-333.22728942911584,80.14747416849455,13.088684732913887,-0.2598716297460373,-0.5437003012675979,177.54748999999995,182.260960855,6.0,11.612448428299867,-1.071666697275314,2.584597452683941,-9.59242341133671,15.561717341792484,1.5574729000000002e-19,2.4236953037301838e-18,13.060791657492599,-0.9521803560718136,-0.484639178512197,-2.1250661065815146
7711,7711,0.9210799999999608,0.0,2500.0,-2500.0,2500.0,-2500.0,11.347326067448675,78.86660506813865,103.32414451271795,106.0,12.0,2.820786473992228,3.4223593491622104,12.224874118018509,-0.029522745493186488,-0.4368336025208429,-0.07048665492927897,0.08560308247907378,0.22801948615247936,-0.04133123674511699,-0.1948788275498492,4.688640620824937,0.08363619087855673,2.1198536918641264,-332.04820060631863,80.18259079005225,12.986192180416387,-0.08005467509513893,-0.6306459921451051,177.54748999999995,182.2580130131441,6.0,11.409853491178986,-0.5767656978466518,2.201865996335559,-9.516225659944318,15.564855405952803,1.5574729000000002e-19,2.4241840487189998e-18,12.975250428133792,-0.6103597945217396,-0.6088413511160389,-2.686535514595667
7712,7712,1.0170929999999316,0.0,2500.0,-2500.0,2500.0,-2500.0,11.36848661997374,79.16103219275931,103.31260559634458,106.0,12.0,2.8222463057041347,3.42846256452844,12.15806920150826,0.020859784151912225,-0.4371958937524905,-0.05795965197984615,0.09121974557317104,0.24671729448447086,-0.07442138058560392,-0.2545517756897759,5.8317288019103755,-0.09241962368608764,0.9432775581939196,-330.874749109798,80.23856760649154,12.896510411301074,0.1024121601384548,-0.6548043861344266,177.54748999999995,182.25013203490695,6.0,11.249281814312864,-0.9612866299827384,0.698578493379751,-10.264583019623103,15.567175774261393,1.5574729000000002e-19,2.4245454397948643e-18,12.895375686279378,-0.17855752390637225,-0.6722865969090237,-2.9843522722783913
7713,7713,1.115891000000147,0.0,2500.0,-2500.0,2500.0,-2500.0,11.469580397511024,80.57518104068139,103.29791549330257,106.0,12.0,2.8227528841948235,3.4335273364809438,12.115018639911986,0.09056707281798762,-0.4311922740180222,-0.04685409902186765,0.09457045941214708,0.19359974393312768,-0.09760249785881388,-0.2771752541980901,7.13442971092132,-0.3581997538766241,-0.501963928868549,-329.67901882108015,80.31923071707959,12.809371509828427,0.27568386739309125,-0.7111465613730396,177.54748999999995,182.2427284777306,6.0,11.141837216640992,-0.5298066349818782,0.058944812725536026,-9.569356107711435,15.569563448307129,1.5574729000000002e-19,2.42491731355689e-18,12.80176855580649,0.2896215285785649,-0.782644306251442,-3.4984598763571677
7714,7714,1.211479000000054,0.0,2500.0,-2500.0,2500.0,-2500.0,11.577150742377588,82.09365178014819,103.2830996112556,106.0,12.0,2.8225438072431155,3.438053607684489,11.975122574674053,0.05645608059447761,-0.4297727698703424,-0.03683466512205059,0.09647620060151198,0.2842923511811098,-0.03231191100056012,-0.320561698800099,8.413421367715365,-0.3974592305107224,-2.095323090975166,-328.5348707354517,80.41217566398885,12.734779763338134,0.4094814332539753,-0.7384197999396878,177.54748999999995,182.22966202298852,6.0,11.102253559386961,-0.3993090666774717,0.20743104704852905,-10.051038234149683,15.57119179348862,1.5574729000000002e-19,2.4251709239060926e-18,12.705865340100805,0.7538566081079671,-0.8116150995177762,-3.654928291642971
7715,7715,1.3320579999998472,0.0,2500.0,-2500.0,2500.0,-2500.0,11.764025585237455,84.76531909502305,103.25415475862071,106.0,12.0,2.821381679814972,3.4432827744072063,11.67241865003508,0.007554516076978622,-0.4285276942575056,-0.02282386731570599,0.09758871249258652,0.2973573156891919,0.0017939076705619952,-0.3118735638527999,10.635714759747016,-0.12790314183451754,-4.172524849375072,-327.09249097222994,80.53812451595792,12.63849008699557,0.5191306875907559,-0.8165270312228827,177.54748999999995,182.20834361966945,6.0,11.134274945113225,-0.08762704862487453,-0.13582976271446295,-9.387121787722137,15.572094132354215,1.5574729000000002e-19,2.42531146073907e-18,12.565365558893438,1.281448056443115,-0.826861118988373,-3.7649080844159686
7716,7716,1.425089999999841,0.0,2500.0,-2500.0,2500.0,-2500.0,11.898424076422348,86.71316377039473,103.22950381125231,106.0,12.0,2.8218120660563737,3.4479776221548963,11.558925657534266,0.14754254992136198,-0.43675491676267625,-0.021681045943898847,0.09540232888159172,-0.07040057080597238,0.057198275080204426,-0.29206687396453324,11.255495048746798,0.3990965925847339,-5.6693460873281625,-326.00458528465305,80.6317611905808,12.560067788550034,0.6065846658008958,-0.8482738469855391,177.54748999999995,182.18404053795857,6.0,11.212750662106318,-0.5885904069633403,-1.0257295319632582,-9.394972228701002,15.572790326462176,1.5574729000000002e-19,2.4254198910846997e-18,12.444315018112107,1.6956942276764837,-0.7598102369131791,-3.4939603522981297
7717,7717,1.5211420000000544,0.0,2500.0,-2500.0,2500.0,-2500.0,12.067746492154535,89.19870540706152,103.20919776560658,106.0,12.0,2.8232719307175573,3.453330183502878,11.533622180189669,0.1585486512588221,-0.4472993115826718,-0.029434722710805137,0.08953142416979543,-0.0067870591118341225,0.049644330357412336,-0.2414218827489225,10.604296581247151,1.1096828000805667,-7.026686464024516,-324.87901348169237,80.72744084974441,12.495356255573478,0.6761802101004847,-0.7218539721943481,177.54748999999995,182.16247953355915,6.0,11.338216449178214,0.3199389135415324,-1.8042733539878093,-10.582394724272449,15.573999465967526,1.5574729000000002e-19,2.4256082112858894e-18,12.330458298875824,2.110354983825931,-0.5174963631289748,-2.403233240588227
7718,7718,1.6409730000000309,0.0,2500.0,-2500.0,2500.0,-2500.0,12.348031409638633,93.39037004060198,103.18530329011908,104.24056813789585,12.0,2.824703907933478,3.458463204606946,11.588915069877222,-0.07394160713496276,-0.43806580614130025,-0.029793321245210537,0.08192858570613593,0.16651977014142208,0.005339049413462601,-0.16445856398650727,11.931170950550596,1.5774498865018254,-8.260169185207207,-323.49586609105666,80.88218286530164,12.399055658001124,0.7550326970258237,-0.5272167052775745,177.54748999999995,182.1522561867395,6.0,11.553773870523822,-0.13497565789966914,-2.051201978380864,-11.310121040948,15.576059099148235,1.5574729000000002e-19,2.4259289935721788e-18,12.171856697604033,2.4878536230181143,-0.25767394486239953,-1.212750448055805
7719,7719,1.74005800000009,0.0,2500.0,-2500.0,2500.0,-2500.0,12.558836570192803,96.60619071454269,103.17529924541522,101.81661260256188,12.0,2.8256735386267238,3.4618567423564133,11.682479753541115,-0.21150737932190844,-0.438421806934784,-0.06156843898776674,0.07337646331939089,-0.002816078869356068,0.01111604032169768,-0.08089270548569959,12.360921701020725,1.833917867705432,-8.927312955038293,-322.3454740384372,81.01512211403153,12.314092249918835,0.8219430773088097,-0.48391870401640297,177.54748999999995,182.1539765273537,6.0,11.777040412082904,-0.5030367260067519,-1.9087152600919413,-10.522121689414762,15.577762153897927,1.5574729000000002e-19,2.426194239734166e-18,12.046690079663945,2.7004344033093037,-0.1833030850644926,-0.8717483929288087
7720,7720,1.8378040000000055,0.0,2500.0,-2500.0,2500.0,-2500.0,12.625426877887179,97.63335806202265,103.1660356468522,101.0,12.0,2.8263275362570117,3.464309541449445,11.649508980830431,-0.2685192698954013,-0.4403808107275817,-0.08508090128215066,0.06359996405235344,-0.3416011149590832,0.034423544103805,-0.02777171030748242,11.547728565773035,1.9858909620652279,-9.187796617656733,-321.22281639056166,81.1612571336229,12.222739484460325,0.8792872024815646,-0.4847534291226573,177.54748999999995,182.1454875673449,6.0,11.999919986468518,-0.3678953025266945,-1.939058827913324,-8.354832795532209,15.579630205034913,1.5574729000000002e-19,2.426485183636333e-18,11.935164510213662,2.803675400278212,-0.16747044584469356,-0.8039034626983589
7721,7721,1.9320390000000316,0.0,2500.0,-2500.0,2500.0,-2500.0,12.617081384615386,97.50432875907116,103.16407013906769,101.0,12.0,2.826806780134578,3.4662268045347955,11.555088015609426,-0.2165815825140741,-0.4401905259233409,-0.10037625353626588,0.05254371169935757,-0.6454681780902225,0.01295409354981875,0.0710819088366679,8.661349639116679,2.1935451391334446,-9.00245963269717,-320.13129797859415,81.29117735921999,12.146008722132446,0.9141301872663384,-0.4237337603106768,177.54748999999995,182.13689351526963,6.0,12.184826744639428,0.4588780221829367,-1.7059632434253782,-9.405922623788763,15.581520056462393,1.5574729000000002e-19,2.4267795228746644e-18,11.860882182178164,2.805942638362797,-0.07738099716717511,-0.3737952694282447
7722,7722,2.0267430000002378,0.0,2500.0,-2500.0,2500.0,-2500.0,12.633348322644355,97.75592102861452,103.16297911660057,101.0,12.0,2.8270001,3.4675669654603536,11.431126728811972,-0.14964751361172327,-0.4274292904109078,-0.11227657494124148,0.041856297400908814,-0.5553400291516096,-0.057937087724973475,0.17995742471183554,5.3342701951429055,2.0486021807979182,-8.29378306159339,-319.05240179071313,81.41601872880344,12.063675441639305,0.9066325740477462,-0.31062631526221085,177.54748999999995,182.1367394067416,6.0,12.340633874157556,0.007921135865482376,-1.1150130144984265,-11.032605185950901,15.583419313528113,1.5574729000000002e-19,2.427075327015664e-18,11.810284081609158,2.6460137893107447,0.016869641642170474,0.0818404200918434
7723,7723,2.1466560000002346,0.0,2500.0,-2500.0,2500.0,-2500.0,12.667510058244282,98.28531893433228,103.16464088661085,101.0,12.0,2.8270001,3.4687657897295936,11.249487287490249,-0.10095451408207144,-0.4084664975076486,-0.12128910497692595,0.030252492747401688,-0.28135270736629364,-0.06769212265630363,0.2394943659079077,2.6720630633657696,1.5561467255753858,-6.848570731024507,-317.6783297665963,81.55387932813116,11.96879299503053,0.8344978071690798,-0.21032929265589015,177.54748999999995,182.1480772122334,6.0,12.512923400335204,0.3416575394157091,-1.322238039696707,-8.872688537493284,15.586418564296027,1.5574729000000002e-19,2.427542452194797e-18,11.785248579095809,2.2600552575810946,0.048379554030844735,0.23520324340201804
7724,7724,2.24244299999998,0.0,2500.0,-2500.0,2500.0,-2500.0,12.537830508320715,96.28329301058984,103.16662871533943,101.0,12.0,2.8266346340095163,3.4686345705597703,11.14711366954241,-0.08732839692624622,-0.4005122772440919,-0.12295712895009875,0.024891964632322308,-0.1368551072594497,-0.04147183240476685,0.2298283085211724,1.7538751740949037,1.2658619410298315,-5.55344090615373,-316.5932559184621,81.64654906670259,11.881219986705739,0.7742965106967155,-0.2337252513301917,177.54748999999995,182.14722544991508,6.0,12.604280081494114,-0.3721558809030221,-1.1756075673924398,-9.683154798620217,15.589104564561026,1.5574729000000002e-19,2.4279607894570094e-18,11.752817696229846,1.9207816840871983,-0.01651788631074264,-0.08052575760225904
7725,7725,2.3417839999998478,0.0,2500.0,-2500.0,2500.0,-2500.0,12.337443092319194,93.23022668309116,103.15860531215885,101.0,12.0,2.8261328960747387,3.468132882803803,11.055285942967398,-0.06805335682587987,-0.40440880344745256,-0.12213578822355545,0.022416247180496417,-0.13785727375590753,0.01551817146848734,0.17963087699099498,0.9113946547273936,1.217312189247875,-4.424518719632361,-315.4643947792574,81.73023575575137,11.804794143200118,0.7137802106329934,-0.2767509488488141,177.54748999999995,182.1434335457272,6.0,12.625878062818606,-0.4550401988676632,-1.0370493227859512,-9.0696796053555,15.59189022391276,1.5574729000000002e-19,2.428394648351905e-18,11.717784366719465,1.6215334057884008,-0.06228100909227453,-0.3045290176670432
7726,7726,2.4378540000000157,0.0,2500.0,-2500.0,2500.0,-2500.0,12.149163697612732,90.40638087653751,103.14976753822172,101.0,12.0,2.8256482575149104,3.468352001736245,11.092577619366805,-0.06728446406042678,-0.4085008831250408,-0.12095556567869364,0.022949981356360945,0.01345051016836285,-0.009983878278475505,0.1354494960426498,0.6078913055731999,1.2854140827056444,-3.5472433401629635,-314.3901276814452,81.80087943101876,11.727654714436126,0.6640209852915081,-0.28151208773997205,177.54748999999995,182.12588162535675,6.0,12.587451233738873,-0.4601484336347865,-0.9824543916550418,-10.604954070249745,15.594961700822505,1.5574729000000002e-19,2.428873022556896e-18,11.667481825649636,1.387797513531699,-0.050926127931965735,-0.2500825552187807
7727,7727,2.5587070000001404,0.0,2500.0,-2500.0,2500.0,-2500.0,11.849466372701215,86.00119570047094,103.142595733916,101.0,12.0,2.825038871650896,3.4689611438946555,11.199198821329023,-0.05719927500719401,-0.4137124781368054,-0.11937121633040057,0.025508195120724338,-0.07420392375538712,-0.03861062925813255,0.06848393149084411,0.3252353622280927,1.1385317686691008,-2.8686361496066928,-313.0311734865728,81.88025907095165,11.654719237469347,0.6073490101568653,-0.23480821346992714,177.54748999999995,182.1130680746086,6.0,12.454793689604955,-0.173017081037648,-0.7696529762366175,-9.460487618080537,15.599045875540249,1.5574729000000002e-19,2.4295091217010715e-18,11.612092761627906,1.1896046538801055,-0.027721114828326232,-0.13677981208188186
7728,7728,2.6512330000000475,0.0,2500.0,-2500.0,2500.0,-2500.0,11.536030579793575,81.51171417189764,103.13754142705127,103.88563304981743,12.0,2.8245878079304982,3.469,11.020907663752146,-0.052320258743394486,-0.418163469124605,-0.11984642061380055,0.029051651314343997,-0.004327739038042042,-0.0480940664997363,0.02818326223267002,0.0610037165310432,0.9114118996635108,-2.5884267244336483,-311.99930375800545,81.92850412841186,11.59703116467227,0.5780924764972655,-0.22118939483001684,177.54748999999995,182.10456039432964,6.0,12.29501161126085,-0.17620034337377946,0.060021943790527936,-10.096030742340062,15.602172751579184,1.5574729000000002e-19,2.4299961241703016e-18,11.561147438781607,1.1010595039586657,-0.05481388982344723,-0.2716495944582696
7729,7729,2.7473150000000714,0.0,2500.0,-2500.0,2500.0,-2500.0,11.206564750430696,76.92221277964491,103.13340661250928,107.15452247873915,12.0,2.8241208704247875,3.469,10.811232223081227,-0.04600197005729489,-0.4272163415789481,-0.11831070809400825,0.03565146812503665,-0.03638997417816757,-0.047310750394238515,-0.01285229180235815,-0.04304508775780401,0.6396741347247941,-2.5013168384191498,-310.91910974792995,81.97731304735322,11.544187220451755,0.5595124230464621,-0.2589997402207389,177.54748999999995,182.09106543175903,6.0,12.06188756168676,-0.11563861444052942,-0.3554622917887048,-9.93252604946399,15.605431512769576,1.5574729000000002e-19,2.430503667394462e-18,11.510943977845972,1.0628265786619628,-0.14236273566644375,-0.7085750818583272
7730,7730,2.844004000000041,0.0,2500.0,-2500.0,2500.0,-2500.0,11.041574009891713,74.67378551741537,103.12932024707665,108.0,12.0,2.8240001,3.4704531882936616,10.775165490373695,-0.02965845689553932,-0.4365893223089927,-0.1193094847587912,0.042557787940107394,-0.09840851263557976,-0.039236932479740236,-0.06965691834712068,-0.5913835665512938,0.39084110810804334,-2.7493609405512585,-309.85349281619176,82.0140914966509,11.492733921928949,0.5171267636677671,-0.2779310106207889,177.54748999999995,182.08440322675727,6.0,11.79311572748173,-0.2669616320990795,-0.5570098652586262,-9.421661974697523,15.60871431718943,1.5574729000000002e-19,2.431014955286454e-18,11.456329246130549,1.0698405792477057,-0.207060608911978,-1.035445749662585
7731,7731,2.9594160000001466,0.0,2500.0,-2500.0,2500.0,-2500.0,10.989687723604957,73.97362387114713,103.114594550077,108.0,12.0,2.8240001,3.4727878213200274,10.804347819545011,-0.024818984652873348,-0.4422728686046932,-0.11909691884364833,0.050018974123145966,0.031383229876720584,-0.08697182595524586,-0.10819674905705744,-0.9918487542676948,0.05273895050020366,-3.2998633820220697,-308.5757702841407,82.05364642311352,11.433880440225945,0.4460285171064508,-0.3214733824138383,177.54748999999995,182.08435423042306,6.0,11.492872272727055,-0.38629009134424935,0.09687187215011683,-9.580504930310077,15.612632808679715,1.5574729000000002e-19,2.4316252497169544e-18,11.389539484363427,1.1088247814519268,-0.3119588922387768,-1.5689361465068627
7732,7732,3.0551100000000133,0.0,2500.0,-2500.0,2500.0,-2500.0,11.04889267935806,74.77280168590845,103.1009562457144,108.0,12.0,2.8235740813909183,3.4747043300730565,10.86196232282244,-0.036202182414863136,-0.443154310306245,-0.11654735127362865,0.05484578380216831,0.09843292514325007,-0.07103561446699105,-0.130463967714844,-0.8875380182621385,-0.31482277226408306,-3.893255749347576,-307.52894082266397,82.07912550646166,11.387244327270567,0.3758575314676589,-0.3923109335251607,177.54748999999995,182.06352930656936,6.0,11.310146996350456,-0.4638627012366582,-1.1179022306516373,-10.7743356648314,15.615633827364388,1.5574729000000002e-19,2.4320926502443316e-18,11.333119077808187,1.1551837895071515,-0.4482262101010796,-2.2648744853336664
7733,7733,3.1679610000002185,0.0,2500.0,-2500.0,2500.0,-2500.0,11.144189295126317,76.06828273206223,103.07066848671437,108.0,12.0,2.823009834855463,3.476961654796657,10.93475796970741,-0.0323769415459408,-0.4317320618265877,-0.11322259132901845,0.05879015208855558,-0.036818023364349764,-0.08455327209516106,-0.15660730848713222,-0.8556893630740401,-0.8034496238003672,-4.808369149323542,-306.28206654557823,82.1033544299497,11.36331483755806,0.28446096077591826,-0.3646015253996734,177.54748999999995,182.0268036532508,6.0,11.163038048936349,0.08284751394949247,-0.6536789100676689,-8.871714069056317,15.61912439408383,1.5574729000000002e-19,2.432636296551449e-18,11.293255067735979,1.2436606674098338,-0.5056216905839073,-2.5635350374594346
7734,7734,3.265761999999995,0.0,2500.0,-2500.0,2500.0,-2500.0,11.360391399932723,79.04833605943419,103.0435861220194,108.0,12.0,2.8230002,3.4793830620403035,10.674828635201916,-0.03254659084344957,-0.4127855832561919,-0.11346237940913564,0.06055948122072793,-0.02921502006941075,-0.08343829309371799,-0.15710388098923614,-0.9023025560129622,-1.4205293607590654,-5.690123082005342,-305.204195791211,82.11721479601019,11.327394380580992,0.20358109961506535,-0.4616122859566459,177.54748999999995,181.9931094241679,6.0,11.11545777363322,-0.1600566754075855,-1.2990396959548256,-7.403967376312018,15.622149452928927,1.5574729000000002e-19,2.4331074412686627e-18,11.236494523156026,1.3369209143622152,-0.7074411007067041,-3.602543476285069
7735,7735,3.362312999999972,0.0,2500.0,-2500.0,2500.0,-2500.0,11.499331067056264,80.99373028786906,102.99579524275052,108.0,12.0,2.8230002,3.4817827503067145,10.411812040570645,-0.038639042775119765,-0.4040767328559012,-0.11259274290826378,0.06090664179119549,0.03101780009016328,-0.042017607743922984,-0.16787837785781182,-0.8094578416147641,-1.8109446310735948,-6.611681958324182,-304.13487374209564,82.12386435817737,11.294321692431275,0.10938419068785804,-0.5871723832515519,177.54748999999995,181.95580512288745,6.0,11.125466809362367,-0.2351472240312576,-0.5062318632208986,-9.28236606802615,15.625618677648161,1.5574729000000002e-19,2.4336477636170844e-18,11.182459337563076,1.4216716895577466,-0.896403680896398,-4.583120487381035
7736,7736,3.4553820000000997,0.0,2500.0,-2500.0,2500.0,-2500.0,11.608039215516513,82.53229261033883,102.94972788619623,108.0,12.0,2.8217406582432996,3.481580236717217,10.443420127371171,-0.04035254562475183,-0.4025710537688691,-0.11246594909609024,0.059654079175248065,0.03593080881180427,0.008679835485159779,-0.1791858759380408,-0.7495540628802978,-1.8623809512697287,-7.556435825689884,-303.12658755277613,82.1272484015022,11.255693300962902,-0.0021916058138528455,-0.6886486946625274,177.54748999999995,181.91043147966028,6.0,11.180129740624855,-0.21946080129026274,-0.3436863538930979,-9.361969143794088,15.62900081093485,1.5574729000000002e-19,2.4341745217109053e-18,11.129960476586382,1.4909485776629958,-1.00279313622868,-5.148364799676278
7737,7737,3.5730690000000322,0.0,2500.0,-2500.0,2500.0,-2500.0,11.57111334615386,82.00804215384635,102.87236525779848,107.9942563138501,12.0,2.8199829689415497,3.4809944568882187,10.520287190051182,-0.033211601362813016,-0.4063236025092928,-0.11314784436543338,0.05824560022595395,-0.07663505325570062,0.0530111561439707,-0.15562526435705076,-0.8408346912911655,-1.6085535629098804,-8.680958950703117,-301.84493735849753,82.11770498647779,11.211758746465442,-0.152902432579697,-0.8026223611589959,177.54748999999995,181.83666083925183,6.0,11.260577967790315,-0.2010333709947696,-1.4569090972747312,-9.307220268433051,15.633277563882771,1.5574729000000002e-19,2.434840614392544e-18,11.079488940509052,1.5568073282755068,-1.0706932302368821,-5.519776234096487
7738,7738,3.6697320000000673,0.0,2500.0,-2500.0,2500.0,-2500.0,11.50865283757083,81.12507398380536,102.80644868099236,107.51604620674328,12.0,2.81854833862023,3.4805162946021224,10.544198173616627,-0.015043572851367471,-0.4064715103074949,-0.11468449232922374,0.05762253051476347,-0.11148565997510096,0.022033448687556842,-0.15360274782248542,-1.3488226831486527,-1.4212441055623977,-9.539881371685384,-300.8037831449386,82.0805660817356,11.173904945562988,-0.28641123824159176,-0.8812795862466404,177.54748999999995,181.76393045496,6.0,11.311485526395801,0.2806499371043851,-1.1607314686547152,-9.186637884121213,15.634910235377445,1.5574729000000002e-19,2.4350948985532995e-18,11.041580478401107,1.5961632549001925,-1.1162507619540467,-5.772715296612837
7739,7739,3.764953999999989,0.0,2500.0,-2500.0,2500.0,-2500.0,11.494539960842614,80.92623017412738,102.74276764095778,107.04496499864015,12.0,2.8171350949959204,3.48004526050214,10.567752705102992,-0.006648872848954099,-0.4008715386597671,-0.11626048146102885,0.05667812683157944,-0.07113322637975322,0.0057291568747864395,-0.13783429498879085,-1.7767727723426128,-1.3546397284493972,-10.287678679873249,-299.77670191492376,82.03178480285567,11.142585431385708,-0.4347140824888158,-0.9110329901672658,177.54748999999995,181.69047323705777,6.0,11.359348306216258,0.14251415114392607,-1.7224197342743082,-8.36406873802654,15.636488326904216,1.5574729000000002e-19,2.4353406820319653e-18,11.016463891631325,1.5981315850112716,-1.134301862100686,-5.8787003445713015
7740,7740,3.8636209999998528,0.0,2500.0,-2500.0,2500.0,-2500.0,11.523728091799756,81.33775218702306,102.67680084628607,107.0,12.0,2.8155934413207917,3.4809379671880305,10.525454657783603,0.00912420918399441,-0.3941949711713801,-0.11700463495953985,0.05577315362945656,-0.09918649810410612,-0.0030429578760615213,-0.14345199727958094,-2.3728112610956957,-1.3886198414592832,-11.040234761592725,-298.7185939345337,81.9584895296545,11.104622558112316,-0.609495325647184,-0.9321877894404416,177.54748999999995,181.6140276047905,6.0,11.411323082634684,0.0631025356981835,-1.7272539182253093,-9.062172993841127,15.638123511595484,1.5574729000000002e-19,2.43559535761628e-18,10.990000677250158,1.5774868209972668,-1.1608031486528767,-6.029429201215943
7741,7741,3.9600370000000567,0.0,2500.0,-2500.0,2500.0,-2500.0,11.652748377489026,83.16927884935161,102.60576874852535,107.0,12.0,2.8140792967226225,3.4819472118641945,10.477507839020658,0.015679420626907803,-0.3862341314903061,-0.11836206652229705,0.05408873385367298,-0.039892513330672764,0.00886820763572884,-0.11365436812493927,-2.8048294134288776,-1.3921790937984733,-11.69752553376782,-297.6853124440678,81.87040660438281,11.069965909249754,-0.7958156099926154,-0.9212533034078856,177.54748999999995,181.5393004393893,6.0,11.484207919102184,-0.04095195146975748,-1.9317364860928132,-8.957960998692311,15.637201714487507,1.5574729000000002e-19,2.4354517902147838e-18,10.97577775447206,1.5228067318950682,-1.1512494629536676,-5.987859763281135
7742,7742,4.0770089999999755,0.0,2500.0,-2500.0,2500.0,-2500.0,11.733404857403245,84.32459793951416,102.51854033112188,107.0,12.0,2.8118879760238515,3.4825282026084,10.495594251654731,0.027836028416302658,-0.3729427009930179,-0.11967013033866278,0.05203443926665341,-0.01227818110119592,-0.01321388719071486,-0.1142465553067546,-3.3095461644170148,-1.5134215914846552,-12.426024640605647,-296.4370246653955,81.74231731950621,11.00082237899358,-1.006246532651631,-1.0086281392233452,177.54748999999995,181.4447763380281,6.0,11.597184662621208,-0.7211090586064031,-0.7673011167907127,-9.647305069809644,15.635124682552052,1.5574729000000002e-19,2.435128298119592e-18,10.929185117982213,1.4589059203827146,-1.2590030821132965,-6.571303727288443
7743,7743,4.165348000000108,0.0,2500.0,-2500.0,2500.0,-2500.0,11.632410443113706,82.87921243603604,102.43074461469679,107.0,12.0,2.8102210003524126,3.4829450819714194,10.511848087541079,0.03444037904464666,-0.37497999536713206,-0.1196970566925652,0.05213499232997555,-0.01436389121901076,0.034001073002956725,-0.1206465785796648,-3.392310970921565,-1.4193336342716512,-12.986835835734224,-295.49654124764254,81.62968096687831,10.955578957067509,-1.1512607227282523,-1.0645636166895582,177.54748999999995,181.36211908302104,6.0,11.656994235354507,-0.5868926232546182,-0.2373689703751561,-10.08391880516991,15.633556077038369,1.5574729000000002e-19,2.434883992061757e-18,10.904350282981694,1.4187909379281518,-1.2995331536748649,-6.796208214888915
7744,7744,4.2851100000000315,0.0,2500.0,-2500.0,2500.0,-2500.0,11.487327496527795,80.82470495102359,102.31042960985648,107.0,12.0,2.8078176455300565,3.4835458840536235,10.533098351612002,0.044951693002086526,-0.3768723678333711,-0.11864872072075973,0.05459792093493954,-0.06648335337899501,0.01432219921700978,-0.14073694678679366,-3.629356616078726,-1.1978429308428602,-13.915615104510415,-294.2235608006198,81.45126822237948,10.89205043905972,-1.348745699487507,-1.1310858420005792,177.54748999999995,181.234820781,6.0,11.676120998399995,-0.27652853407845,-1.79347255149048,-9.93719077060552,15.633386022776273,1.5574729000000002e-19,2.434857506571283e-18,10.870716368800917,1.396013719373165,-1.3285163879606905,-6.9675986539831785
7745,7745,4.381855999999857,0.0,2500.0,-2500.0,2500.0,-2500.0,11.395517335280447,79.5379313084122,102.20017770395069,107.0,12.0,2.805896147353034,3.4841042526469663,10.5486888420591,0.03555852943031687,-0.37004773857643375,-0.11775264344141999,0.05792497930908087,0.10951991607566527,-0.03266016320988397,-0.1690933802737287,-3.514404048301761,-1.2588818458730942,-14.761361294347436,-293.1982678339026,81.29060542108577,10.846767777008813,-1.521281507963313,-1.1445837213463947,177.54748999999995,181.12608666007802,6.0,11.653351195994778,-0.142549457594835,-2.1326286545658544,-10.2071128591587,15.63362168747355,1.5574729000000002e-19,2.4348942107092328e-18,10.848616316051436,1.3770969499793515,-1.3522603056664997,-7.105167946152929
7746,7746,4.47463300000004,0.0,2500.0,-2500.0,2500.0,-2500.0,11.385395412767991,79.39666965621981,102.0944488771854,107.0,12.0,2.804468508721321,3.485531891278679,10.544405926163963,0.009506996454685805,-0.3712873960535528,-0.11715330352604017,0.061324914034191914,0.20478549803126875,0.0151802445077379,-0.16281979854582534,-2.7819547928546156,-1.279589785651565,-15.58973954942476,-292.2149622963325,81.12366556426312,10.799856116029684,-1.6862102700701735,-1.159478754984105,177.54748999999995,181.01840425963903,6.0,11.613430522678433,0.10664995552135023,-1.12810892446976,-8.700433493983924,15.63384768403795,1.5574729000000002e-19,2.4349294090616867e-18,10.827101922240224,1.3459654279613278,-1.3714135978403632,-7.218920240146746
7747,7747,4.570543000000043,0.0,2500.0,-2500.0,2500.0,-2500.0,11.439271786620381,80.14987738372129,101.975141944957,106.98775012250128,12.0,2.8029952995590053,3.4870026499755,10.539785402156024,0.0017412040419277233,-0.3763507486213377,-0.11676267879532308,0.06552781455560305,0.05439884186478199,0.07609121659362142,-0.1553810892375384,-1.8237537735870315,-1.1572398040589056,-16.42202452766147,-291.20128321038993,80.93806901378845,10.737729985190787,-1.820298668574576,-1.2822587142829258,177.54748999999995,180.89752798011344,6.0,11.584256020042677,0.0886434424348701,-0.9721366450239468,-8.285882650763414,15.631141078873405,1.5574729000000002e-19,2.434507862642209e-18,10.786202683523095,1.3371130727315816,-1.473600169995232,-7.779529399794232
7748,7748,4.690694000000235,0.0,2500.0,-2500.0,2500.0,-2500.0,11.444705549079835,80.22605426380481,101.82417919083946,103.98400515994614,12.0,2.801793681424185,3.487603398968011,10.486919490815053,0.05082109567229207,-0.3877254817196145,-0.12154610879171275,0.07184906212675098,-0.01766317014661907,0.0695765327508705,-0.15628012783417622,-1.811310777097027,-0.6275695414324879,-17.622938769718388,-289.9369947871171,80.68981584608137,10.65996128322618,-1.9803605539884956,-1.3784160948841115,177.54748999999995,180.73506857032845,6.0,11.545297392197108,0.2380548638167717,-0.9442116558138592,-9.153423614965174,15.627137767997219,1.5574729000000002e-19,2.4338843578222163e-18,10.743498345113618,1.3871087239886069,-1.4807552960211,-7.847522121570347
7749,7749,4.789565000000039,0.0,2500.0,-2500.0,2500.0,-2500.0,11.511558138004071,81.16603842378818,101.69587331297708,102.0,12.0,2.800803915656596,3.4880002,10.444647837122325,0.10942035551390564,-0.3883798642558249,-0.119285121862353,0.07583231362354613,0.1207512607431756,0.05980743340734423,-0.15831463651284955,-1.406400315590199,-0.3369341456033006,-18.5449058900748,-288.89937863718126,80.46932811448524,10.599424140090996,-2.11989686257539,-1.3834684742249497,177.54748999999995,180.6027542139716,6.0,11.531796624975016,0.018018224250870823,-1.5025634426558088,-8.902655611469681,15.623839815947681,1.5574729000000002e-19,2.43337071072795e-18,10.714953148555269,1.3967823681424123,-1.4380625850338635,-7.6440354402396915
7750,7750,4.887210999999866,0.0,2500.0,-2500.0,2500.0,-2500.0,11.569651077694298,81.98733375348574,101.56915712977116,102.0,12.0,2.7998225290960623,3.4880002,10.407845841102342,0.11589935228196248,-0.3867033829428863,-0.111027715536803,0.07898026653809358,0.2060462091302396,0.018816337970041147,-0.17346061709375826,-0.2493594815987655,-0.1729363983737606,-19.43334072263982,-287.8826074678894,80.23448870178419,10.536995899683347,-2.2502447017131813,-1.3956414513011597,177.54748999999995,180.4763201785178,6.0,11.529713847658202,-0.030884185504160163,-1.8811833201654204,-8.881639479297393,15.620311995141947,1.5574729000000002e-19,2.4328212621978518e-18,10.68111257891966,1.3899248529465478,-1.4236968083890116,-7.592263530293233
7751,7751,4.983635999999933,0.0,2500.0,-2500.0,2500.0,-2500.0,11.732320516104732,84.30904212567961,101.44429483222231,102.0,12.0,2.7987802242209017,3.4880002,10.360443380874766,0.1271142088363693,-0.3847369613572934,-0.1039365374570982,0.08120711471497494,0.19953324972457506,0.020587557029974383,-0.1829574302522637,0.7347203700985188,0.014934318351295462,-20.414455960270654,-286.88010480943433,79.99266080073858,10.478617820620613,-2.363204755470773,-1.3914642295700412,177.54748999999995,180.3559165093863,6.0,11.555589471926186,-0.11049545772826512,-1.9618611326909152,-8.940952560792045,15.616828287450971,1.5574729000000002e-19,2.4322786841658297e-18,10.645166163529858,1.4224426560676653,-1.3889508132164308,-7.433794139525356
7752,7752,5.101198999999838,0.0,2500.0,-2500.0,2500.0,-2500.0,11.918932857626274,87.01234419224842,101.2917077643244,102.0,12.0,2.797008712399287,3.4880002,10.22698000225057,0.1331886299662411,-0.3833956532126921,-0.09465380433734524,0.08272120315327358,0.18590107533834985,0.0760264001520081,-0.1784391983274595,2.202237071881456,0.32531925213243834,-21.651061194174808,-285.6669889320208,79.68145844269658,10.39927055690048,-2.477201348914873,-1.4055489355666764,177.54748999999995,180.2084988177089,6.0,11.640753522187062,-0.7577679179452349,-0.3568487716017492,-10.857498698247968,15.613221669281392,1.5574729000000002e-19,2.431716963159853e-18,10.587362605942431,1.482685838551824,-1.3531754922478991,-7.28351024547446
7753,7753,5.195987000000059,0.0,2500.0,-2500.0,2500.0,-2500.0,11.96541278465471,87.69231283936921,101.16425273447506,102.0,12.0,2.7957161334118408,3.4881421977875315,10.129980123470052,0.13062079589080566,-0.3859573887450581,-0.08771211345904815,0.08425987379859272,0.20308249280917884,0.06801582688307073,-0.20373229844432691,3.2850708250746647,0.7434713927642469,-22.71277187514371,-284.6924526155326,79.42549875285087,10.334848851878544,-2.5636121590925223,-1.420196427607726,177.54748999999995,180.08421481373506,6.0,11.715592532954615,-0.741356720021612,-0.4601297269355096,-11.029106851518383,15.615134833166163,1.5574729000000002e-19,2.4320149332502324e-18,10.540785095383962,1.551908374892118,-1.302514911981805,-7.044276728382587
7754,7754,5.283480999999938,0.0,2500.0,-2500.0,2500.0,-2500.0,12.045495059814938,88.87005736099617,101.04660545442259,102.0,12.0,2.794824025656477,3.4885881401573187,10.063967450206805,0.12357649767068475,-0.3895157989092304,-0.08328901815943163,0.0852895598162742,0.16830246804125132,0.07340480674605901,-0.1856659267493207,4.16334254655899,1.2122852085749474,-23.657741965384453,-283.80495972140164,79.18120078453543,10.272665535314653,-2.6316018449915224,-1.3941816903090136,177.54748999999995,179.97085527671706,6.0,11.786538959070606,-0.4807602541073905,-0.42293334725583576,-11.375362111499266,15.616900777810356,1.5574729000000002e-19,2.4322899743428557e-18,10.49248132546212,1.6261939260142733,-1.2055769645618108,-6.554492284508092
7755,7755,5.400714000000221,0.0,2500.0,-2500.0,2500.0,-2500.0,12.167644682086037,90.68160013966221,100.89598458130179,102.0,12.0,2.7934641003531526,3.489,10.048202726217395,0.1114903155212599,-0.3960536726068038,-0.0788321624361531,0.0863176522485389,0.09005425171074538,0.10356194174993984,-0.15083776346209485,5.180163606009286,1.8670512753523865,-24.775730085695468,-282.61953746705575,78.8475475423939,10.185229230580275,-2.7165549097040875,-1.3443430879320266,177.54748999999995,179.82295757403253,6.0,11.889888875205969,0.1603150257282977,-2.184944741948796,-10.79864154366541,15.619363530320964,1.5574729000000002e-19,2.432673541372323e-18,10.42443591371778,1.710071122496012,-1.0598415467625095,-5.805254936609132
7756,7756,5.496996000000081,0.0,2500.0,-2500.0,2500.0,-2500.0,12.244038380607169,91.82384625049863,100.77309246640995,102.0,12.0,2.792047334361895,3.489,10.167683560941153,0.10307297538105953,-0.4005742735276527,-0.07735837266177809,0.08642055546968824,0.17547620738471267,0.08791111043079164,-0.1233967925641676,5.7953820331713475,2.460931605494033,-25.471891149537157,-281.6608973941223,78.5618991352342,10.103473016570536,-2.771267396484868,-1.2671930998960357,177.54748999999995,179.70943797200695,6.0,11.979931888927787,0.01543603736376653,-2.628264921401461,-10.581518003660204,15.622167827789507,1.5574729000000002e-19,2.4331103031034027e-18,10.358112365804132,1.7584697750815852,-0.898134198922059,-4.9556244658498985
7757,7757,5.585366000000022,0.0,2500.0,-2500.0,2500.0,-2500.0,12.26513285220468,92.14050595059406,100.67616661037556,102.0,12.0,2.7906643661193304,3.48874819329433,10.232330711634805,0.09830856909196582,-0.4062337674361957,-0.07333812783494048,0.08702838030016513,0.2081173263226747,0.09877792356286996,-0.062412158156484,6.6874633306681215,2.9657265791006853,-25.915234944301513,-280.78152694552733,78.30070829255514,10.030142164402383,-2.8051135789229726,-1.2157801593295672,177.54748999999995,179.61498045338652,6.0,12.051543566899474,0.0928464221840112,-2.57894204192022,-10.535816541427632,15.624741681337365,1.5574729000000002e-19,2.433511173818339e-18,10.296654592458124,1.7784055589104453,-0.7755704020684714,-4.3075309403825495
7758,7758,5.701518999999848,0.0,2500.0,-2500.0,2500.0,-2500.0,12.226609273817749,91.56262397134972,100.54904865098459,102.0,12.0,2.7883972597044893,3.487047820973891,10.072495996908943,0.09040799178576192,-0.4109658476725712,-0.06587085743257409,0.08897535287900257,0.1590335893680736,0.06720998905837844,-0.05831560714316444,8.08325313070081,3.582772870973957,-26.23348017934884,-279.6264360920778,77.95534027769651,9.94586879355608,-2.8208592181153294,-1.1498769483678446,177.54748999999995,179.5038593849428,6.0,12.1059119321613,0.3456886553399238,-1.3301688495841513,-9.616056351143193,15.627742533461804,1.5574729000000002e-19,2.4339785484044108e-18,10.220334106003016,1.7903926522596512,-0.6237270130786159,-3.4923181043477296
7759,7759,5.797052000000235,0.0,2500.0,-2500.0,2500.0,-2500.0,12.222574025667846,91.50218246218212,100.459762830923,102.0,12.0,2.786882065287488,3.486590579073689,9.963843387179157,0.08122017148754257,-0.4138876263327681,-0.06260458308519723,0.09059647515315218,0.03945881103785842,0.07100075791471536,-0.00956744207273296,8.690497835118498,3.969910030354404,-26.392629604064073,-278.68172634097436,77.67725704518931,9.874473416227408,-2.8150805042679554,-1.1048089808316126,177.54748999999995,179.42273027221057,6.0,12.12609714956626,0.08420065970986029,-2.318942397657869,-8.884540877124458,15.627140712413189,1.5574729000000002e-19,2.433884816407024e-18,10.14886856900402,1.802343399831576,-0.5278238572388396,-2.9771650474880995
7760,7760,5.8933779999998706,0.0,2500.0,-2500.0,2500.0,-2500.0,12.152574336204907,90.45713806096478,100.36996213593424,102.0,12.0,2.786407050914577,3.488965271002729,9.923000082262678,0.11704579798942652,-0.4164884902483223,-0.059960379459791685,0.09299132796702736,0.1304565603107641,0.030870862184737623,0.0016517914794745318,9.096328055484085,4.216789599316238,-26.432426826370953,-277.73600600454046,77.4018253653465,9.79792798093023,-2.7987148840921687,-1.0907329648473554,177.54748999999995,179.34452003410152,6.0,12.1253382756724,0.16154787253138805,-2.2765599783243893,-9.132508983789918,15.626533895770473,1.5574729000000002e-19,2.4337903063593938e-18,10.072557062372725,1.7948118858198587,-0.4830523587372775,-2.7456456683070782
7761,7761,6.014313000000243,0.0,2500.0,-2500.0,2500.0,-2500.0,12.072818263964562,89.27369303296119,100.26297575424286,102.0,12.0,2.786196265100922,3.491588877567252,9.779095051945466,0.1090876705898699,-0.4194590515824335,-0.052700116960179635,0.0977581532790598,0.1783135536385755,0.04973489645712033,0.05129085651651344,10.24567193900279,4.5261058102286675,-26.213245037885265,-276.55568580299905,77.0624038714197,9.71722296562678,-2.752017918257374,-0.9920876797178992,177.54748999999995,179.24688795485432,6.0,12.079316591147006,-0.4422821283957792,-1.7324635534511172,-11.181128716085546,15.625503085736096,1.5574729000000002e-19,2.4336297604900347e-18,9.980781661698867,1.7810673834033788,-0.3457176852340529,-1.9838373982827315
7762,7762,6.111356000000228,0.0,2500.0,-2500.0,2500.0,-2500.0,12.12045608068284,89.9796045355795,100.17876758175659,102.0,12.0,2.7866923749753383,3.4930769095840977,9.503808880823552,0.08263250761260141,-0.4191265616809321,-0.045521420699570055,0.10168076520025296,0.19649633916095904,0.031394911996570525,0.021713493642122408,11.383696669113329,4.7696858982803185,-26.011582277364806,-275.6106699088662,76.7956494230265,9.656962015985911,-2.688750833449372,-0.8720344186298846,177.54748999999995,179.17183259545772,6.0,12.052219437196277,-0.4554778672854945,-2.1746435751218294,-10.437062325830496,15.623787823770614,1.5574729000000002e-19,2.433362613087271e-18,9.896295430831607,1.8026597810998128,-0.19957739057461574,-1.1553204343802357
7763,7763,6.206417999999871,0.0,2500.0,-2500.0,2500.0,-2500.0,12.11995817850512,89.97219924558979,100.10887124502506,102.0,12.0,2.787179351139425,3.4947169299885834,9.327982764649034,0.12120290248913462,-0.4185445659234303,-0.03964844461814443,0.10563701118629998,0.18854683841427936,0.031238707137210837,0.04249745733471723,12.374091303810252,4.959556000041208,-25.784273926820607,-274.69943557516893,76.54261726092156,9.582250523809028,-2.620245735184688,-0.8875967925639198,177.54748999999995,179.09698480610874,6.0,12.033423846933179,-0.3138127339848352,-2.3031466107849448,-8.677908099820934,15.622107576530087,1.5574729000000002e-19,2.4331009191330286e-18,9.808152625758066,1.7934537772521522,-0.19525305724012654,-1.1404490813515529
7764,7764,6.3015100000000075,0.0,2500.0,-2500.0,2500.0,-2500.0,12.088258824456592,89.50218077422744,100.03895285016183,102.0,12.0,2.7876681984564287,3.496672661518172,9.314292301680345,0.12694947226675565,-0.4223769337249888,-0.033833122600054624,0.11090338827667696,0.0986434552844852,0.07941325252509299,0.03483153805474503,13.185745354838982,5.250755911978568,-25.45522791701228,-273.79518648610576,76.29664138362409,9.50698148269142,-2.534883961389684,-0.9578780997752788,177.54748999999995,179.01370472018738,6.0,12.018755629316786,-0.6398199067263536,-1.0001166885192374,-9.890198083914797,15.620579031466365,1.5574729000000002e-19,2.4328628523817114e-18,9.720631698855195,1.77416654305905,-0.2312608373551032,-1.3628508237839894
7765,7765,6.420959000000039,0.0,2500.0,-2500.0,2500.0,-2500.0,11.946859144639252,87.42056451277996,99.953480564515,102.0,12.0,2.7885939909200075,3.4991879333571334,9.35904776894377,0.1254939665119424,-0.4307545165930595,-0.02547421408201933,0.11685011464173024,0.16571074681283282,0.08097489898100954,0.07401428116113341,13.891506494115927,5.7143055351600776,-25.001967891088515,-272.67544390650016,75.9921599060306,9.425458573488944,-2.429350978688976,-0.957644544444678,177.54748999999995,178.907421716127,6.0,11.976480575239774,-0.3424549551926928,-1.167291915958616,-11.303733108331294,15.620139984071269,1.5574729000000002e-19,2.432794471939744e-18,9.616793518894829,1.7730764220351516,-0.17754145791025622,-1.0576519872642949
7766,7766,6.516972000000237,0.0,2500.0,-2500.0,2500.0,-2500.0,11.820388216101005,85.57948082223872,99.88536265798012,102.0,12.0,2.7896326907015,3.5012650732711377,9.453559997836713,0.10367086842766768,-0.4256075834379407,-0.014887141454552947,0.12175942599092268,0.19438307225975007,0.04176910561496025,0.09248549698129313,15.144609980120073,5.916982804037641,-24.523207321510807,-271.77853354841227,75.75533083319957,9.385917450384708,-2.3190016662070336,-0.8709403464811768,177.54748999999995,178.83523786003292,6.0,11.928608273590019,-0.12648605048877665,-1.9532423758342048,-10.567489226354011,15.619787078165446,1.5574729000000002e-19,2.432739507801286e-18,9.540933493754887,1.8059862378107832,-0.07482555501484844,-0.4493376473119376
7767,7767,6.613728000000037,0.0,2500.0,-2500.0,2500.0,-2500.0,11.72685563004338,84.23048465275579,99.8238706235973,102.0,12.0,2.7905752836718904,3.503437910479141,9.401016680262268,0.08766936637386928,-0.4154337330151833,-0.006894988900671835,0.1263242004423701,0.18276345557718424,-0.007419248047188364,0.1116057434547922,16.224709586076038,5.819536313065353,-23.993213065762852,-270.87508072097,75.52553588327909,9.350419334497731,-2.194638280762024,-0.8240655423883492,177.54748999999995,178.77146614439857,6.0,11.865451423996825,0.03878842617211198,-2.4253596859072126,-9.533355522627039,15.620299240480618,1.5574729000000002e-19,2.4328192756939155e-18,9.469816839594865,1.8261095251203785,-0.05083489376017358,-0.30756633809185824
7768,7768,6.708041000000094,0.0,2500.0,-2500.0,2500.0,-2500.0,11.73270243577697,84.31448866323905,99.76393120651974,102.0,12.0,2.79143915030161,3.505597879436998,9.271856134997957,0.0678920123856606,-0.4052085114142605,-0.0024898695143389204,0.13064438423240604,0.19382284766917784,-0.0011050563050162571,0.12631698699656346,17.190081837728847,5.614451206722325,-23.344007440882407,-269.9936021839669,75.31259266128394,9.31731967449055,-2.061667700590033,-0.8148701545757356,177.54748999999995,178.71197166100845,6.0,11.810364112281555,-0.1251080002584932,-2.2728090293212047,-9.478380188273805,15.62378193535026,1.5574729000000002e-19,2.4333616959817587e-18,9.406327115160957,1.8217572495756211,-0.0748468948975981,-0.4558974646683492
7769,7769,6.827148999999849,0.0,2500.0,-2500.0,2500.0,-2500.0,11.766441450716073,84.80010238748922,99.6881514864831,102.0,12.0,2.792851817147117,3.5087038342942343,9.137459565332,0.052052017875499214,-0.39406474269619945,0.002877428893971858,0.1354744813722406,0.050352403284303085,0.034398539129326014,0.15831798089502624,18.358103239702608,5.42294236057863,-22.311805843676527,-268.88409287846144,75.06645735436119,9.284308293412336,-1.8664248307058453,-0.8265109862854124,177.54748999999995,178.6389600806814,6.0,11.765889299417314,0.011647306906775262,-1.571800243442249,-9.172975764124963,15.628180234848024,1.5574729000000002e-19,2.434046719209144e-18,9.334284371795018,1.8076257102098243,-0.11688077280395635,-0.7174010083351517
7770,7770,6.922637000000236,0.0,2500.0,-2500.0,2500.0,-2500.0,11.719217216851408,84.12080482867653,99.62653067075199,102.0,12.0,2.7942571822445497,3.5115145644890995,9.054074101095962,0.055340089924056216,-0.3903512996992572,0.003768225825270849,0.13669703750165507,0.003784591196024711,0.03127714437172742,0.15339284277767604,18.482070660559934,5.35425075341358,-21.492040844215037,-267.99156051157854,74.89081280452749,9.251081271312565,-1.7122976151659668,-0.8744600580096523,177.54748999999995,178.58081398922238,6.0,11.746210262338804,-0.16871171419290393,-1.4567496043944996,-8.326759511906417,15.631131162898097,1.5574729000000002e-19,2.434506318255928e-18,9.276481090099727,1.7854464329111168,-0.17602121090876502,-1.0870568538526628
7771,7771,7.0343890000001466,0.0,2500.0,-2500.0,2500.0,-2500.0,11.564483877781624,81.91410581773113,99.54005809372343,102.0,12.0,2.796238369008948,3.5151673457656587,8.902881235522132,0.021551192030506275,-0.3798846521642652,0.008854456567234464,0.1421815667808213,0.25997500039143456,0.04436150114723696,0.2461720949261571,19.31943703815836,5.137610526455112,-20.25178022626553,-266.9567087076179,74.70100263193261,9.208866565094516,-1.5476783494007234,-0.9739286222265712,177.54748999999995,178.4991528133979,6.0,11.682067093845856,-0.07590866761113113,-1.227148605461397,-8.308275794326018,15.633144913726118,1.5574729000000002e-19,2.4348199544901273e-18,9.225654446275678,1.6795487926317247,-0.2954499476909367,-1.834260284376114
7772,7772,7.126716000000101,0.0,2500.0,-2500.0,2500.0,-2500.0,11.496488528703015,80.95367772678466,99.46745701286407,102.0,12.0,2.7981041168833123,3.5184324045457966,8.741494277608103,-0.042760224697862136,-0.36689271785690336,0.023084901873480255,0.1524918905103638,0.3023322031246929,0.1161600956242965,0.2681276206044457,21.40951744592282,5.0377148419145215,-18.823542065206805,-266.1023877805247,74.56078082913794,9.207494604928387,-1.3619604043548728,-0.9967585266757416,177.54748999999995,178.4229326399524,6.0,11.614401677538108,0.2495700515294669,-2.138121865758541,-10.232946086356893,15.63480862956743,1.5574729000000002e-19,2.4350790737237413e-18,9.206654904826381,1.6062209979275308,-0.32366881077122844,-2.0134590194865667
7773,7773,7.223418999999922,0.0,2500.0,-2500.0,2500.0,-2500.0,11.455128538416435,80.37224160913298,99.37509480188388,102.0,12.0,2.8003024707751965,3.5218236226168234,8.645245165696776,-0.06474777581567713,-0.3547666807291797,0.029923767642594787,0.15987767088484633,0.026003520829220646,0.06153104153436426,0.23106860345515284,22.231256218018366,4.981816751443463,-17.418250419989878,-265.21448579760306,74.43790051744283,9.205919730674658,-1.135747824373882,-1.0515120651067749,177.54748999999995,178.34029741012256,6.0,11.549091620700151,0.3860498507345291,-2.0120766982712333,-9.084986578377986,15.63676978035075,1.5574729000000002e-19,2.4353845176435247e-18,9.180608758964986,1.5691913763483838,-0.3814651851515919,-2.3793389298236525
7774,7774,7.334648000000129,0.0,2500.0,-2500.0,2500.0,-2500.0,11.245673570270505,77.45999048118604,99.26577858509512,102.0,12.0,2.803068797333432,3.5256964023427577,8.605410583317184,-0.06527275874525594,-0.3489489526374477,0.0308975411674835,0.16518144311260893,-0.24501030547341265,0.04240925300140617,0.24269261691005944,21.615859729617284,4.675079968030398,-15.826443698187676,-264.19449255314214,74.3228696509092,9.195644479753646,-0.8845771089663981,-1.1846467876510007,177.54748999999995,178.22720565815123,6.0,11.457571398740154,-0.33656656776911664,-0.8109192484697569,-8.925805674668515,15.639556159649315,1.5574729000000002e-19,2.4358184886681887e-18,9.154620996643398,1.4892442575892817,-0.5440624119097556,-3.40110830597817
7775,7775,7.428241999999841,0.0,2500.0,-2500.0,2500.0,-2500.0,11.082441193439738,75.22760365208072,99.15350875392168,102.0,12.0,2.8056910443910152,3.5289729355772583,8.743337282531861,-0.03919332839298048,-0.34697410279497104,0.019684382117320848,0.16693132583882495,-0.4521210518094982,-0.033365657248098896,0.2478617817845576,19.66629527767072,4.215533425069538,-14.613281946761331,-263.34269540864915,74.24833265893538,9.183857432691847,-0.6936143172032005,-1.3072799030750362,177.54748999999995,178.1148051560551,6.0,11.341400456929007,-0.02917114130350285,-0.7840723127973934,-8.329838819866076,15.641900767477036,1.5574729000000002e-19,2.436183654983469e-18,9.133341146677658,1.426812538782364,-0.7214167732147336,-4.5162548092047325
7776,7776,7.52403500000014,0.0,2500.0,-2500.0,2500.0,-2500.0,10.94090777889174,73.3184005139104,99.03860113230463,102.0,12.0,2.808575931404784,3.532338580999232,9.001530847852623,-0.05530734669387781,-0.3384714454068075,0.004075966210824103,0.16945992016662145,-0.2825538786044801,-0.05786513017439441,0.3074640960371416,17.692902994170918,3.4830764570277464,-13.305015243680973,-262.47146595754805,74.19087399672526,9.174533474171836,-0.5165133890867357,-1.4297216346859094,177.54748999999995,177.9901247697614,6.0,11.21296618904042,0.14003552185050944,-0.7206832737859962,-8.774767235798526,15.643229826574494,1.5574729000000002e-19,2.4363906523361483e-18,9.117294029805489,1.3390942703115658,-0.9336659951019776,-5.847051511074182
7777,7777,7.634571999999935,0.0,2500.0,-2500.0,2500.0,-2500.0,10.761067224744897,70.92788496324485,98.87746705126808,102.0,12.0,2.812205492207144,3.536835575694899,9.092456000189319,-0.14768293891911596,-0.3260542814647716,-0.02169708920297413,0.17724901654541111,-0.03762865971776627,-0.04434343375347025,0.30616435887172205,17.21927626601239,2.592951546757655,-11.522779384940051,-261.4537617878604,74.12820377121997,9.186255839046478,-0.3171002067082553,-1.5278166742665646,177.54748999999995,177.82910728181545,6.0,11.054114967109893,0.40814772911606656,-1.1895955464712238,-8.917458337044769,15.642084962635131,1.5574729000000002e-19,2.436212342880173e-18,9.124291205648477,1.19233292913431,-1.1351074941932795,-7.091447671521685
7778,7778,7.7313669999999775,0.0,2500.0,-2500.0,2500.0,-2500.0,10.614628530725176,69.01060889913603,98.73504637979934,102.0,12.0,2.8155806939526213,3.5411751207962268,9.036523844464137,-0.16445505970527308,-0.2969784013198616,-0.02987321330546525,0.18452345046452406,-0.09466936190782904,-0.13428619931118374,0.2865112243052516,16.885887071300687,1.6002638909546694,-10.158321380920661,-260.5552511079076,74.08926198342637,9.211214722932832,-0.14282286483318926,-1.602973180436032,177.54748999999995,177.68173231161282,6.0,10.910936365980213,0.5529192355504813,-1.3296467848676825,-8.971008829220017,15.641082428596652,1.5574729000000002e-19,2.4360562009205468e-18,9.133229735272169,1.0917304330833484,-1.3317465949450713,-8.296022442044125
7779,7779,7.824362000000065,0.0,2500.0,-2500.0,2500.0,-2500.0,10.438068396677874,66.73395911628076,98.5839892753502,102.0,12.0,2.8188583062957893,3.5453892544825973,8.954071011476108,-0.08622772122827421,-0.2728388309558556,-0.01889693160518963,0.19070837794611264,-0.2961058964464102,-0.0908293654321562,0.23680899245936546,15.933357377836874,0.6034618616607339,-8.993286217529224,-259.68558730066337,74.06212366352766,9.24426924639117,0.017024548213574603,-1.700513945549471,177.54748999999995,177.5283790144624,6.0,10.76847699433417,0.0669593771095992,-0.3186698737950264,-10.054303079845038,15.640070988027967,1.5574729000000002e-19,2.435898671792978e-18,9.145368958357029,1.0213805389499957,-1.55804487049873,-9.66833364606786
7780,7780,7.944946000000073,0.0,2500.0,-2500.0,2500.0,-2500.0,10.285350910989104,64.79542739622329,98.38787628742487,102.0,12.0,2.8231435430622485,3.5508989845389998,8.818165540716196,0.010968208586875085,-0.2653375766340434,-0.019085084297462262,0.19832996215380674,-0.07282014342897036,0.03188009834465317,0.281438422043669,14.305842387059492,0.05049798144689556,-7.360204835238711,-258.5533933072188,74.05126568552335,9.305771390777084,0.20759869437979053,-1.773881504300331,177.54748999999995,177.31530703873787,6.0,10.579819987070582,0.2593210739511955,-1.0886499331849917,-10.639773043694726,15.638630551171337,1.5574729000000002e-19,2.435674327656142e-18,9.2040604052324,0.9617022001830741,-1.7122467125872325,-10.53836172040378
7781,7781,8.031199000000015,0.0,2500.0,-2500.0,2500.0,-2500.0,10.282409164976917,64.75836696313307,98.24638373647288,102.0,12.0,2.825910304053928,3.554228834254012,8.748339805499526,0.01732538243116464,-0.2521323901539517,-0.01770074646805618,0.20508226667295296,0.17595190563915633,0.006648842697821596,0.2648274673455696,14.625120806023553,-0.22740910588312696,-6.047146022765049,-257.73643202185747,74.05385373351612,9.38158575634937,0.37239974252010544,-1.6829615819671988,177.54748999999995,177.1657533140057,6.0,10.474093758672335,0.7645817802988177,-1.0064157024434326,-9.661566880005216,15.637600215470126,1.5574729000000002e-19,2.435513855662888e-18,9.28339835760499,0.9243927563780928,-1.6587039978366922,-10.130379292375638
