,Unnamed: 0,timestamp,thrustinput,Position state,Position state2,PA-ON,PA-ON2,Airspeed[m/s],Differential Pressure[Pa],GPS Altitude[m],GPS Noise Magitude/ms,GPS Satellite Num.,Horizontal accuracy[m],Vertical accuracy[m],Groundspeed[m/s],Roll control,Pitch control,Yaw control,Thrust control,Roll Angular Rate[deg/s],Pitch Angular Rate[deg/s],Yaw Angular Rate[deg/s],Roll angle[deg],Pitch angle[deg],Yaw angle[deg],Local X[m],Local Y[m],X-velocity[m/s],Y-Velocity[m/s],Z-Velocity[m/s],altitude set position,altitude(Tecs),airspeed set position,airspeed(Tecs),X-acceleration[m/s^2],Y-acceleration[m/s^2],Z-acceleration[m/s^2],Battery Voltage[V],Battery Current[A],Inst. power[Ws],Body_Uvelocity[m/s],Body_Vvelocity[m/s],Body_Wvelocity[m/s],A.O.A.[deg]
4556,4556,0.0,0.0,2500.0,-2500.0,0.0,0.0,13.751335876231618,115.8232832657268,127.03861330636549,106.0,12.0,2.2437148799284734,3.0654298456009417,13.36748648437765,0.22764504053058096,-0.2316933544120501,-0.137570954301017,0.15423792638139822,0.1509038596163589,0.4792537091337989,-0.332588167634562,-35.91246752046186,-6.1812599858855855,0.410525010439891,-382.01647365158476,153.20071731567052,14.054621138856538,2.016116329466947,-0.9015267958888464,204.21815,205.9528437526039,6.387999309319332,13.998896156184909,0.6348630237058284,-4.21690337536185,-10.838162804164783,15.826581178174608,1.5574729000000002e-19,2.4649471284657023e-18,13.889842433382732,3.3184686705309967,-1.7465662761723983,-7.166992576256128
4557,4557,0.09712999999999283,0.0,2500.0,-2500.0,0.0,0.0,13.704693730026234,115.03891272597185,127.02167374298037,106.0,11.954150507064258,2.242045849492936,3.0621834071416414,13.188704647048635,0.29801582259876963,-0.2405561205937946,-0.11717107376087972,0.13143387430604814,0.7031807006098354,0.35476479980860953,-0.5563460644094081,-33.05614502915296,-5.867924250825754,-3.0751735295038145,-380.7071329985503,153.2453822445389,14.13015323295177,1.10634290863274,-0.7390240335285991,204.21815,205.95160380293117,6.003612087610183,14.034382229138501,0.8667353003119347,-1.1785198021439045,-11.457305249837635,15.829564516112182,1.5574729000000002e-19,2.465411775264634e-18,13.9012788369305,3.037544634914509,-1.629662541473044,-6.6863297000916395
4558,4558,0.1920289999999909,0.0,2500.0,-2500.0,0.0,0.0,13.752514029129932,115.84312598466845,126.99758709515116,106.0,11.46537595863128,2.2425346240413693,3.0641386030902833,13.046960028003072,0.3318248986695758,-0.2674998296622628,-0.10706903093089022,0.11098289062262401,0.646347998821813,0.3870209438225413,-0.4460341986846496,-29.443537703386426,-5.329173355600147,-6.410258972015603,-379.42586492508883,153.21365700240406,14.09972561569381,0.3618587810798087,-0.704262677188188,204.21815,205.9537186729636,6.0,14.029638001122219,-0.8989082085837913,-1.2338486765212549,-11.278682314087856,15.832479329114738,1.5574729000000002e-19,2.4658657494906388e-18,13.845372859371919,2.9079825981593315,-1.5610542716483742,-6.432884193124353
4559,4559,0.29115600000000086,0.0,2500.0,-2500.0,0.0,0.0,13.6975670086971,114.91931625553572,126.9696990570527,106.0,11.0,2.2430873462211784,3.0661748837081704,12.909773782720823,0.4560937652518999,-0.30346882910720857,-0.09285515560360376,0.10058562009894584,0.11355589228708254,0.4233128382026519,-0.5697745878720473,-26.794592099697102,-4.5655990317618205,-10.110340885475663,-378.09361742611685,153.11918978720217,14.027359610730992,-0.343523298762974,-0.6535849086160006,204.21815,205.93931520805165,6.00002334384858,13.991145640528787,0.6101630552929396,-3.708468263985506,-12.935648220640127,15.834802773721295,1.5574729000000002e-19,2.466227619691575e-18,13.773802829029165,2.908888103255236,-1.397969218097074,-5.795377682935643
4560,4560,0.38676299999997354,0.0,2500.0,-2500.0,0.0,0.0,13.548546698113231,112.43244449685578,126.95414030032516,106.0,11.0,2.2440394509034416,3.06807899786699,12.885496327195881,0.4926330734786289,-0.3004550684202403,-0.09015471588101062,0.10239623958080292,-0.10254052279898096,0.2469548635557021,-0.6159086049903746,-27.01518652477811,-4.2317079962875175,-14.140864681033882,-376.81714894875626,152.9673327218546,13.922152976579175,-1.1048845302014312,-0.4793285668123353,204.21815,205.93113263551032,6.00000061023828,13.911826726240607,-0.17873243350082935,-1.3320208033224423,-12.921356117933323,15.834564036761064,1.5574729000000002e-19,2.466190437056996e-18,13.697304655418005,3.0021915085760313,-1.1591760679971712,-4.837303480691752
4561,4561,0.5075289999999768,0.0,2500.0,-2500.0,0.0,0.0,13.325197405934091,108.75608793661782,126.9411331527112,106.0,11.0,2.2451179078208634,3.0709427332586663,12.866774160538347,0.47539922255989703,-0.2704399012906832,-0.1280011421976917,0.09682901807472634,0.7964218217479109,0.282948112962575,-0.5217345668442238,-23.699392764451307,-4.630073825039519,-18.418721674553844,-375.2192403881828,152.69368786208824,13.733097857666841,-1.979527974546568,-0.3957162408743682,204.21815,205.9230014241625,6.0,13.747572771939874,0.055327852608429984,-2.6723256398018926,-12.616704944308252,15.834262476124929,1.5574729000000002e-19,2.4661434698051473e-18,13.578535533084874,3.0545195451826794,-1.1718129981151468,-4.932343761460675
4562,4562,0.6010519999999815,0.0,2500.0,-2500.0,0.0,0.0,13.15551371988549,106.00389116915537,126.96221570125802,106.0,11.0,2.245571294135443,3.074570095834302,12.888992311767893,0.474551945017432,-0.2824074019425822,-0.15597898615372224,0.08564753073041657,0.9990976501669244,0.3217096298578052,-0.5605834681119012,-18.57747908875333,-4.1308937869805735,-21.755411323447053,-374.00668986921005,152.41720407747496,13.570369716548118,-2.5758482385315604,-0.27898762051258463,204.21815,205.9292986529737,6.0,13.583980616032871,0.12099000081129525,-1.0071091018896547,-13.560358794152785,15.834573923743589,1.5574729000000002e-19,2.4661919769277307e-18,13.503218865508629,3.0303700173886297,-0.9995781173253402,-4.233608273538428
4563,4563,0.6989749999999617,0.0,2500.0,-2500.0,0.0,0.0,13.070267857142838,104.63454914285677,126.99246856169843,106.0,11.0,2.246047081950155,3.0783765896996917,12.902375202152493,0.5004326692152461,-0.3229216584496295,-0.1507560957553986,0.0782118436455631,0.3460304801773844,0.3655647133853688,-0.6201423192853005,-14.340393672511661,-3.144080679437196,-25.527864978998213,-372.7480328426834,152.08369748480706,13.391891529259903,-3.1347281066086103,-0.08549762598631812,204.21815,205.9593728643929,6.0,13.404180971678036,0.6000432948056635,-2.6995361189935427,-11.472045162174187,15.83605875788414,1.5574729000000002e-19,2.466423235821221e-18,13.410517275106134,3.141763393218221,-0.6352525320997696,-2.7120580819265103
4564,4564,0.8170440000000099,0.0,2500.0,-2500.0,0.0,0.0,12.99615615931918,103.45129722686504,127.0696702707178,106.0,11.0,2.24663278617235,3.083061403655301,12.80750950559207,0.5172350041633882,-0.36606811330665,-0.14760697031080475,0.07476107425999692,0.2307299678833227,0.29134160610138177,-0.5747763813956637,-11.958204600656734,-1.8116179969413944,-30.06529016210441,-371.2715193136113,151.61075541926834,13.123375237518154,-3.777256916457265,0.231327950406556,204.21815,206.03663749921756,6.0,13.201553784194065,-0.0871615636102453,-3.712784296895206,-14.25868810100667,15.83784907151976,1.5574729000000002e-19,2.4667020723182194e-18,13.250736896781724,3.3428201571938634,-0.0790935597564271,-0.3419940624462614
4565,4565,0.9151060000000371,0.0,2500.0,-2500.0,0.0,0.0,12.945938484272272,102.65336694330924,127.14601779016718,106.0,11.0,2.247242356895456,3.0870899907929394,12.718938266371966,0.5180985402273458,-0.3889473758093243,-0.14951058654919205,0.07311271457838972,0.3237817476765821,0.20027920960565126,-0.4539001730662803,-10.508570126968287,-1.0182623663176835,-33.19803066381957,-370.0615624727678,151.17750036159768,12.869295007902165,-4.208181779850511,0.3237374685064866,204.21815,206.121131335608,6.0,13.047177514117514,0.7584490671941941,-2.9868034924920566,-8.652922825643573,15.83956277871002,1.5574729000000002e-19,2.4669689775689556e-18,13.076622263815525,3.5078267506986167,0.15247751771138035,0.6680564868445003
4566,4566,1.011033999999995,0.0,2500.0,-2500.0,0.0,0.0,12.87077719477438,101.4648710926371,127.2253104612578,106.0,11.0,2.2482103790093557,3.091446429147112,12.602763995276911,0.5210688014121913,-0.42148308488602704,-0.14588339022501806,0.07265583768501849,0.4519081623100612,0.20773172163574374,-0.3861501384734488,-8.376075862065088,-0.2308722352525341,-35.610045594384644,-368.92146274625253,150.7123094276309,12.595096938699891,-4.5483400521225485,0.2719121678415624,204.21815,206.20206487375248,6.0,12.900332097954085,0.9544956795221099,-3.113654543582648,-8.771872137592645,15.841501712538276,1.5574729000000002e-19,2.4672709612581957e-18,12.889129879378444,3.603822557418317,0.23228188122838986,1.0324460276719027
4567,4567,1.1085630000000037,0.0,2500.0,-2500.0,0.0,0.0,12.75667718069211,99.67386069662693,127.30709922960449,106.0,11.0,2.249292567451365,3.0960727668261687,12.455727948689454,0.5373688249630761,-0.4556659494158864,-0.14214922799513488,0.07306340886988502,0.17367710595902433,0.17671557882834826,-0.3195021314217258,-6.507735326704039,0.6904948005947851,-37.672278963140705,-367.77555725686125,150.2241805126459,12.322714915231572,-4.883062195097197,0.3438845138799122,204.21815,206.2872696371153,6.0,12.748794614147954,1.0538596931022457,-2.8782199060996176,-9.415048485404132,15.843473006397591,1.5574729000000002e-19,2.4675779849345773e-18,12.732852563278616,3.609280860467441,0.4499825770518285,2.024006563643189
4568,4568,1.200839999999971,0.0,2500.0,-2500.0,0.0,0.0,12.573569230291142,96.83306424447608,127.40618296704704,106.0,11.0,2.250692839583607,3.1012071913291983,12.205545994395552,0.4294846224311509,-0.4759405639251242,-0.14487723340975642,0.07315750392593179,0.2012101494169076,0.08350137407321934,-0.21263722213138653,-5.909751833715617,1.3961506421545158,-39.23207609055558,-366.7368720506303,149.73374735968622,12.043132919800676,-5.189974705948809,0.4996395416921309,204.21815,206.3849949260392,6.0,12.60055027262704,0.08149305500355686,-2.99212029152156,-11.399000020549762,15.84644300043781,1.5574729000000002e-19,2.4680405534576582e-18,12.595046428962696,3.512598207139535,0.7148354542218657,3.24835348249388
4569,4569,1.3209529999999745,0.0,2500.0,-2500.0,0.0,0.0,12.262365189362345,92.09903566965654,127.54615228499712,106.0,11.0,2.2528482905745943,3.1080359820161227,11.933828620656545,0.17632534051821436,-0.4943476387348722,-0.14238417355500596,0.07380774138906432,0.2854106605241993,0.023509012978758938,-0.058393023681171774,-3.935320526703728,1.5594276159642242,-40.157786816952,-365.4076624240496,149.07933555568346,11.705034240039856,-5.500316548619564,0.4837802835634625,204.21815,206.5246424778055,6.0,12.366909612369113,0.2018917520969886,-2.263599082500383,-9.25528489376501,15.853217134606965,1.5574729000000002e-19,2.469095606496601e-18,12.475155529696947,3.287019575308213,0.7306154950482747,3.3517355430978584
4570,4570,1.4169849999999542,0.0,2500.0,-2500.0,0.0,0.0,12.031911996355104,88.66973162621065,127.65816729856225,106.0,11.0,2.255246237132328,3.1137907276469963,11.825925821259814,0.046131182331236725,-0.5192451852839838,-0.1375709214169876,0.07716759416288038,0.08907848412875788,0.036073583327344776,-0.018742561310653445,-2.977225091211241,1.7381135700394852,-40.40599059143168,-364.3855757853236,148.54681964240666,11.455982044964163,-5.681943232277512,0.4071393587749021,204.21815,206.6360182201228,6.0,12.144050099473093,0.4360549673388681,-2.0066025800351133,-8.26915045830707,15.858633148298509,1.5574729000000002e-19,2.469939135951661e-18,12.388368556763485,3.0570224109226745,0.6881958567277693,3.1796141489781684
4571,4571,1.5059019999999919,0.0,2500.0,-2500.0,0.0,0.0,11.941957874959279,87.34886354825619,127.76190526802178,106.0,11.0,2.2575604341261686,3.1191205056025235,11.7370097316687,0.03951563133222148,-0.5360306002396007,-0.1348675252927952,0.08073889807614143,-0.22200199951088828,-0.0024092162734477376,0.022894480485581955,-3.4641285302842926,1.9034991004467368,-40.375080655212976,-363.4495869909512,148.04489463613766,11.247811042119016,-5.827821868296278,0.3792484680627414,204.21815,206.7413171344239,6.0,11.939809710790973,-0.2645563680427955,-1.6117731191299145,-10.156548247192553,15.863969973349464,1.5574729000000002e-19,2.4707703319905516e-18,12.324596723131624,2.797203549977225,0.6930702216189821,3.2186220656912297
4572,4572,1.618208999999979,0.0,2500.0,-2500.0,0.0,0.0,11.824966074163111,85.645784356149,127.89015785460323,106.0,11.0,2.2609295486647416,3.1258589592947934,11.676924624708152,0.06923951529626217,-0.5411903372837027,-0.14129236349394966,0.08463618839380742,-0.20305638425443895,-0.08475992855876803,0.1139204943118245,-5.347799342129519,1.6849638042057211,-39.96186539832987,-362.30131701047316,147.4001044611647,10.967304903216018,-6.020113786229598,0.35799080201008704,204.21815,206.86760073393108,6.0,11.716928883515465,-0.11306126981077845,-2.1601973216919648,-9.928294792265627,15.871364788482435,1.5574729000000002e-19,2.471922054407563e-18,12.256884538952011,2.361770571894607,0.6441279899072536,3.0082600921889835
4573,4573,1.7142579999999725,0.0,2500.0,-2500.0,0.0,0.0,11.70929401891448,83.97842312294418,127.99880495947887,106.0,11.134167828905019,2.2638050069734303,3.1310733694648056,11.63530419307224,0.05954383744897815,-0.5339524200732112,-0.14477477988764342,0.0877759473339712,0.11688968223969508,-0.16224540087611153,0.1726739592751357,-5.574260376931519,1.0729979054266106,-39.11871671096288,-361.33278030244867,146.83238846969792,10.743903630683038,-6.155888310326197,0.17768835766700045,204.21815,206.9679828366032,6.0,11.541861795117748,-0.026177225644088448,-1.0618181272364533,-6.559179683257966,15.877689101292026,1.5574729000000002e-19,2.472907048988768e-18,12.214013945335855,1.9628217628169582,0.3670578777976268,1.7213456219926582
4574,4574,1.8227229999999963,0.0,2500.0,-2500.0,0.0,0.0,11.668456761855929,83.3936467674954,128.0785207895585,106.0,11.672511775420489,2.267035070652523,3.1353802287057184,11.616462424116174,0.017573737857157483,-0.5360878244961375,-0.1406225550395931,0.0911933798768884,0.33512578792088565,-0.09013416773940283,0.1450464483139328,-4.2532242208761435,0.4227260934533464,-38.09418544022225,-360.2703377802361,146.1824086740672,10.514596964457047,-6.2572200027525176,-0.09216847301007093,204.21815,207.06552775820137,6.0,11.353294643158558,-0.3321194156292611,-1.2021871324119329,-6.134538171058947,15.88498701162659,1.5574729000000002e-19,2.47404367874604e-18,12.13574217621124,1.5627791430692932,-0.014153955222156291,-0.06682422205124472
4575,4575,1.918692999999962,0.0,2500.0,-2500.0,0.0,0.0,11.773511894490944,84.90204572763625,128.13478371867978,106.0,12.0,2.2694536991275407,3.1390588312975956,11.542843643910407,-0.02901327119381155,-0.5387546362011916,-0.13232660554632156,0.09235274549718828,0.3884888952861184,-0.062357072522554714,0.05206752031361341,-2.2548282096481955,0.155584315424938,-37.5550170335429,-359.3412549783015,145.59877964564666,10.3520428537395,-6.321260304821501,-0.24179885349330515,204.21815,207.1277815083017,6.0,11.247727653030578,-0.4732436484377806,-1.2807490289737695,-6.7282202012392816,15.891600260238269,1.5574729000000002e-19,2.4750736742954057e-18,12.060338056424484,1.306732203213589,-0.21241450509684132,-1.0090261466688777
4576,4576,2.0143060000000332,0.0,2500.0,-2500.0,0.0,0.0,11.827632338118454,85.68438897462221,128.1543817811193,106.0,12.0,2.2709002622421703,3.142434145231732,11.34466425611225,-0.04986676380338274,-0.5279317158327894,-0.12573203629959334,0.0928947093220254,0.14095781623653947,-0.11542118555205776,-0.02095306734420573,-0.8568282510172338,-0.27423296769837313,-37.54469713441244,-358.42375229323324,145.0097082105264,10.200571359398523,-6.378795711879689,-0.4113951459022257,204.21815,207.16559316104718,6.0,11.200335532132078,-0.4505129934360981,-1.7507910166916367,-7.913330969924593,15.898188908143947,1.5574729000000002e-19,2.476099838351479e-18,11.972815899333394,1.1654133591814233,-0.4631085186127104,-2.2150964902525128
4577,4577,2.1125999999999863,0.0,2500.0,-2500.0,0.0,0.0,11.87633178552485,86.39145319249758,128.15799365982875,106.0,12.0,2.272377833195609,3.1456298968038023,11.179642464511252,-0.06950057283055038,-0.526207230250099,-0.11932026657014125,0.09293803964623024,0.12794871829093002,-0.03296997130245926,-0.03131741398913645,0.008549155404273062,-0.5658239496370989,-37.802559399496474,-357.48970183943453,144.40459788079082,10.057072588457055,-6.456351523984831,-0.5623126711610811,204.21815,207.1696288440349,6.0,11.198466734598822,-0.3444721636228863,-1.8951264068793783,-9.322140578717773,15.90429695396085,1.5574729000000002e-19,2.477051149934657e-18,11.897608753541887,1.0629106740905083,-0.6693405236183454,-3.219975101540049
4578,4578,2.2305039999999963,0.0,2500.0,-2500.0,0.0,0.0,12.01832255448206,88.46956040440236,128.14210011717458,106.0,12.0,2.27411765139889,3.1485294778213904,11.11352995272597,-0.09441510872737284,-0.5161993651299206,-0.11391607753213215,0.0917057856537761,0.10533424861744196,-0.024123159586972108,-0.03484538377851446,0.9912755819461264,-0.6954493304833895,-38.08069612349196,-356.38329823880343,143.67967240014556,9.926135446132317,-6.545922323129194,-0.5529749731158775,204.21815,207.13982411620583,6.0,11.271085343017091,0.21674709811369086,-1.4397852836628795,-9.60393939938762,15.910498796150222,1.5574729000000002e-19,2.4780170700486598e-18,11.843035128579311,0.9574478432356692,-0.6848995591638638,-3.309809816939836
4579,4579,2.324386000000004,0.0,2500.0,-2500.0,0.0,0.0,12.143931056902366,90.32849260606072,128.12230804168595,106.0,12.0,2.275702625544304,3.1503513479034293,11.0573411505398,-0.08666995589549806,-0.4900869608345314,-0.11331213201866952,0.08882018058711108,-0.046358641536737015,-0.1269915660540022,-0.05252986886140264,0.9826121202266346,-1.1619385873579993,-38.43589601309811,-355.50718491020103,143.09905228208802,9.828989242217421,-6.616962987045028,-0.5258792513409928,204.21815,207.11164862977176,6.0,11.376704760415587,-0.10604602062984003,-1.6881560847342352,-8.856615623563115,15.915437062438246,1.5574729000000002e-19,2.478786191640317e-18,11.799355137126348,0.9136701288589272,-0.7463968687309788,-3.6195609462852927
4580,4580,2.4203679999999395,0.0,2500.0,-2500.0,0.0,0.0,12.206260217549234,91.25807930295264,128.1011998707595,106.0,12.0,2.277681074952977,3.151340671530237,10.993535662497738,-0.08032173245172815,-0.4722696623131637,-0.11423423872716272,0.08480052794770895,-0.0445700717660212,-0.08072441878592433,-0.023554523662448708,0.951579544036856,-1.6410621586987464,-38.6538357797743,-354.6150022306191,142.50219843528862,9.74864985451808,-6.6726463720642615,-0.5027271900104012,204.21815,207.08813537,6.0,11.505637570500006,-0.2347891592863151,-1.345269734567662,-10.447289595038342,15.918337017536173,1.5574729000000002e-19,2.4792378517879413e-18,11.76164829404384,0.8639350000432178,-0.8146350202117237,-3.9620914028570886
4581,4581,2.540314999999964,0.0,2500.0,-2500.0,0.0,0.0,12.281021635330731,92.3793919693384,128.07442966405713,106.0,12.0,2.280109099467361,3.1525546942787077,10.924381751420775,-0.09015012199906693,-0.4463723173358414,-0.11602517369245095,0.07799892754083555,0.039673298633164066,-0.10898784602489936,-0.012706663627767515,0.9375675490540636,-2.239023966643497,-38.842174827251256,-353.510572352547,141.75294572693105,9.671342575527378,-6.740947405098754,-0.4426292721139776,204.21815,207.0633285589454,6.0,11.684104840964807,-0.030784177518152545,-1.1290652766730092,-10.323955206562216,15.91915819727152,1.5574729000000002e-19,2.4793657483063247e-18,11.734279304451848,0.7999031182781379,-0.8697847398176926,-4.239205831050226
4582,4582,2.6382839999999987,0.0,2500.0,-2500.0,0.0,0.0,12.166424136681199,90.66345203700294,128.0365494166354,106.0,12.0,2.282050761798587,3.1535254283612035,10.877782098179138,-0.0864673789448912,-0.42309773350033775,-0.11534075787616635,0.07240638861788554,-0.015918505210184244,-0.1104339823212656,-0.03229572278520331,0.9534425027989952,-2.8360671037604868,-39.00416743541854,-352.6074887219297,141.1336727681912,9.610052658189254,-6.781474427055937,-0.5230100796948655,204.21815,207.03130697350068,6.0,11.818817382147818,-0.4617465389110185,-1.2086264498747508,-6.456479132492047,15.919828911482735,1.5574729000000002e-19,2.479470210227086e-18,11.6958249309585,0.7591520592596557,-1.0643831983041243,-5.199901598870174
4583,4583,2.7344190000000026,0.0,2500.0,-2500.0,0.0,0.0,11.976563730049778,87.85584730772811,127.99691226695893,106.0,12.0,2.2839476158458427,3.1544738079229213,10.86187048983485,-0.08751790724359622,-0.4184564601946282,-0.11553652912374447,0.07138956919928895,-0.032882318544747366,-0.015935615161536985,-0.05210433219589685,0.8520672509981284,-3.119383468809572,-39.24803791329607,-351.72990887411765,140.52383709150317,9.549931845500787,-6.804304949331273,-0.6802552446087468,204.21815,206.9677478785456,6.0,11.894313771185804,-0.6373114245302418,-0.1234544381655862,-9.087271216125957,15.922568824169192,1.5574729000000002e-19,2.4798969442028387e-18,11.646189763236865,0.7519742136675985,-1.2737587468653042,-6.2417040443024465
4584,4584,2.8302909999999883,0.0,2500.0,-2500.0,0.0,0.0,11.941452624085837,87.34145605185644,127.93958861701763,106.0,12.0,2.2858309041205667,3.1554154520602835,10.875523882567999,-0.0795358936549935,-0.42023945585078093,-0.1159044338026084,0.07244879622307678,-0.032250812153308384,0.028923282260442974,-0.04766005742089695,0.3580404213296709,-3.0130264442172066,-39.61980674468215,-350.8540501073864,139.90945807055104,9.50608946165,-6.851588879423655,-0.7025036382440271,204.21815,206.8957555911824,6.0,11.927672756012,-0.5168538490854785,-1.218061561663853,-11.846156361441984,15.92650131384005,1.5574729000000002e-19,2.480509418812028e-18,11.638576403566859,0.7749030738729658,-1.274835248167824,-6.2509915409275445
4585,4585,2.9397469999999544,0.0,2500.0,-2500.0,0.0,0.0,12.040589772357675,88.79771058019148,127.8691098435136,106.0,12.0,2.2879867443947193,3.1567400514584354,10.95281394521916,-0.1337363515372033,-0.4041367863642884,-0.11685095550865444,0.07114992772702293,0.4649234860293789,-0.06916328499380223,-0.0032989593983505264,1.7738881762501115,-3.1392586353595897,-39.81332344998519,-349.8627058973481,139.19953103223557,9.495993849418117,-6.9353800817556595,-0.5328160299358091,204.21815,206.82847102686569,6.0,11.972803993731349,0.479544092342425,-1.0479156292797196,-10.804155467637694,15.930990993719616,1.5574729000000002e-19,2.4812086742862372e-18,11.688056797411368,0.7153769445532832,-1.1328594238206688,-5.536073811218566
4586,4586,3.0357480000000123,0.0,2500.0,-2500.0,0.0,0.0,12.073241825365946,89.279941863948,127.8339581807954,106.0,12.0,2.289883546950994,3.158162736362828,11.085118756938996,-0.19618230382629467,-0.3807816897285883,-0.11424159515372193,0.06833062783876627,0.4831666294104775,-0.11506697811159786,0.011880858207125016,4.596427745946679,-3.7021728830801455,-39.867805558164,-348.9879124929496,138.562681729346,9.506521447862617,-6.9756151541991755,-0.4413605579374516,204.21815,206.78580567042252,6.0,12.040558013216055,-0.31120069477525497,0.028550695435970663,-10.761013738875107,15.932759022688627,1.5574729000000002e-19,2.4814840400068027e-18,11.714938821801534,0.6421612458416716,-1.1486654221417063,-5.600027261802347
4587,4587,3.131725999999958,0.0,2500.0,-2500.0,0.0,0.0,12.05858021347302,89.06324407759666,127.80387746145551,105.79816509069686,12.0,2.2918074194537215,3.1579909850865024,11.148669923274383,-0.11111466876595737,-0.3748291883277535,-0.0937459709170683,0.0664463341854676,-0.1098700066816966,0.0061876949986240425,-0.043596861519792134,5.764591588983704,-4.061689588249138,-40.07941035888687,-348.1159217389305,137.92804407408877,9.519954209558827,-6.975431564328242,-0.4793755956529815,204.21815,206.74229782487282,6.0,12.099480053854618,-0.7707677476179366,-1.4695262607580428,-9.861177562559796,15.933263664791784,1.5574729000000002e-19,2.481562636646789e-18,11.711812670570364,0.6583477395355728,-1.2494813699415364,-6.089598852702207
4588,4588,3.250242999999955,0.0,2500.0,-2500.0,0.0,0.0,11.986647634041665,88.00383817327308,127.7611690486008,105.19206713681521,12.0,2.2942317506594527,3.1549603740975027,11.105637574646742,0.16621254080455408,-0.3885269970310743,-0.09172460691692226,0.06421907802464888,-0.43068931190651377,0.0653412095069361,-0.09569478266674482,3.907463292397293,-3.6448747204980863,-40.708323004746774,-347.02687630666674,137.13309590957292,9.512811828793305,-7.042129019434398,-0.4806773983403689,204.21815,206.69304073350605,6.0,12.132952967111828,0.4746206626363004,-1.1014854113982302,-9.348056803754703,15.933886814556729,1.5574729000000002e-19,2.481659690533944e-18,11.74959031782267,0.7805460264090548,-1.1721916208578134,-5.697231419377884
4589,4589,3.3453969999999345,0.0,2500.0,-2500.0,0.0,0.0,11.991561658204136,88.07601943516802,127.72553518083824,105.0,12.0,2.2958745457490206,3.1516679071541365,11.101621003239226,0.30446053566326803,-0.3910720677799927,-0.10261153856779807,0.0620184854183851,0.08291269331184006,0.022141360568505145,-0.02039191862317141,2.3962968318405347,-3.375528441000662,-41.099528174959886,-346.15879657186133,136.49688830234456,9.468437814444338,-7.125252409493338,-0.4590938686881078,204.21815,206.66604804221691,6.0,12.139251112595039,-0.4967479706234872,-0.9491543116020408,-9.635936237514489,15.935086974533672,1.5574729000000002e-19,2.481846612197919e-18,11.771503021762578,0.8051483007182296,-1.1028573178207008,-5.352345817364268
4590,4590,3.44154599999996,0.0,2500.0,-2500.0,0.0,0.0,12.108188866877574,89.7976016013627,127.70457431725731,105.0,12.0,2.297334460314408,3.1477748503102565,11.117680063458486,0.2096990404105464,-0.3972644801760894,-0.08627105425897721,0.06147845372114224,0.8130634271131267,0.0664803073680098,-0.024016932221161816,5.363908529382552,-3.0592246877864704,-41.187410125155736,-345.27438921976056,135.83992308395105,9.434643358268367,-7.197256538404814,-0.4109568787857029,204.21815,206.64269179026212,6.0,12.157904829962552,-0.013662050110168631,-1.7601257163337016,-10.846877437429304,15.936548419847734,1.5574729000000002e-19,2.4820742283450674e-18,11.800893933471029,0.698010953072799,-0.9951586887193002,-4.8202963944197075
4591,4591,3.5402729999999565,0.0,2500.0,-2500.0,0.0,0.0,12.242419883685825,91.79958210876164,127.68652601955506,105.0,12.0,2.2985265577386045,3.1444205584104594,11.158434073094062,0.11043413031032916,-0.3965771363387621,-0.059221463991790575,0.06217403857823901,0.8246884417052037,0.07189985865331533,-0.08509493479771288,10.28204703481075,-2.442947430725815,-41.44581904211103,-344.37098917884134,135.17516044757778,9.493385056211876,-7.198519864827888,-0.22135372840708128,204.21815,206.62635010053748,6.0,12.216499646526009,0.3349343979805489,-1.2424230589079928,-10.419705676309807,15.938049050239329,1.5574729000000002e-19,2.48230794746185e-18,11.860620675948534,0.7572265197641229,-0.6780383282380242,-3.2718774214704163
4592,4592,3.637393999999972,0.0,2500.0,-2500.0,0.0,0.0,12.266795851185936,92.16548967029604,127.68472327899048,105.0,12.0,2.2994581510372805,3.1416260113894667,11.217584332534072,0.04266400696848716,-0.39121366849953493,-0.03939341896464263,0.063116935720054,0.3317356347934009,0.04063073695792719,-0.1569662642459234,13.486406139090073,-2.05305286599968,-42.10646174612044,-343.46700908870656,134.51994100083763,9.570329275358283,-7.131029663478342,-0.1317082450909018,204.21815,206.62911054878958,6.0,12.274011265347688,-0.3617632544269758,-0.7950462880689304,-11.002547431334827,15.940150184700348,1.5574729000000002e-19,2.482635193460079e-18,11.869312788226335,0.9958022130221532,-0.5015591746700072,-2.419696737976451
4593,4593,3.7573390000000018,0.0,2500.0,-2500.0,0.0,0.0,12.33564977827166,93.20306899182027,127.68858609161362,105.0,12.0,2.300983226070427,3.1383616887510266,11.325072276893033,-0.06520460853950133,-0.4029138791939056,-0.029714361608319126,0.06169315621987745,0.12171235433205002,0.09614804713385863,-0.17186151735811878,14.747929835028376,-1.26901852960053,-43.11306181287673,-342.33628822065333,133.7330407205092,9.654465039026,-7.019275225327443,-0.06726915911647177,204.21815,206.648282657758,6.0,12.32771733479336,0.22989009903441704,-1.6601310392396718,-10.125558074397276,15.943174783396925,1.5574729000000002e-19,2.4831062665104084e-18,11.840682066881694,1.38987076806322,-0.2860772164993659,-1.384027442573281
4594,4594,3.851699999999994,0.0,2500.0,-2500.0,0.0,0.0,12.376327876183437,93.81877523833073,127.7035521664716,105.0,12.0,2.3024454996265318,3.135924663642421,11.433767457139027,-0.18857785168988267,-0.4277488803277079,-0.05376329491788849,0.05834117298022545,-0.1732671957850681,0.09184419490752617,-0.13720914106937732,14.639580215545823,-0.588756340641198,-43.804083512061126,-341.4334755611788,133.12139746728138,9.719288440807427,-6.9293390011280165,0.0033644933867974514,204.21815,206.65879524427365,6.0,12.37168537521832,-0.009145827762440885,-2.337480197683249,-9.405102917432586,15.945554241962164,1.5574729000000002e-19,2.4834768607336118e-18,11.810378513748347,1.6967454281926857,-0.0964266618443483,-0.4677850072594643
4595,4595,3.9472659999999564,0.0,2500.0,-2500.0,0.0,0.0,12.41418047460088,94.39353360667648,127.7203732279643,105.0,11.700749989986882,2.3047956402100764,3.135598640170024,11.4815837994703,-0.2715217632095307,-0.4467930594464008,-0.08303212131608717,0.05280908661155758,-0.3599128477921649,0.050777153671698286,-0.03272128029723003,13.14165628390493,-0.0750690119127348,-44.14810117946056,-340.5110373488142,132.510902764642,9.770283272293854,-6.836569450461839,0.09797601262903942,204.21815,206.67446228965798,6.0,12.406484665178105,-0.3353783753816063,-2.297278268515577,-11.351126990223735,15.946762565093925,1.5574729000000002e-19,2.4836650537868275e-18,11.77248114866565,1.9183959823867485,0.08287870748018639,0.4033577664929734
4596,4596,4.043044000000009,0.0,2500.0,-2500.0,0.0,0.0,12.469406496793873,95.2352408946562,127.75439671670664,105.0,11.22122701966588,2.3076726821274094,3.1365575902060723,11.492133784340329,-0.2428192233152621,-0.4477695121443371,-0.09776047646054466,0.04369898872204982,-0.5220594365359567,-0.0045340807602287725,0.07727041181387491,10.53994651048779,0.019112744515660567,-43.99541168755744,-339.57818133910143,131.89860001868212,9.812348952825744,-6.769190819694918,0.2252044123903315,204.21815,206.7130883145777,6.0,12.436372575831092,0.1645451715569181,-1.5667775602259109,-9.908596443226006,15.947547552168464,1.5574729000000002e-19,2.4837873133963717e-18,11.7607682934601,1.987852285403676,0.224612529604254,1.0941279761919245
4597,4597,4.165569000000005,0.0,2500.0,-2500.0,0.0,0.0,12.501600193441705,95.72763539266994,127.804248295141,105.0,11.387403381582885,2.31209930453334,3.1381622101447486,11.500875033815827,-0.14457307626684435,-0.4346304913957441,-0.10735354347533414,0.032262198755888594,-0.6834539636779556,-0.05337139486598744,0.14329418227669755,6.342918422694933,-0.4720985804832912,-43.298483670652374,-338.3790283525608,131.12028444363278,9.813264829928057,-6.7236394092032405,0.3385805467786783,204.21815,206.7726862642619,6.0,12.477654943101996,-0.7137076673585971,-0.9639520642935792,-10.839653994006886,15.948551755026195,1.5574729000000002e-19,2.483943715270074e-18,11.755461512912564,1.8631680413247973,0.2553811162127418,1.2445244154649604
4598,4598,4.261353999999983,0.0,2500.0,-2500.0,0.0,0.0,12.496173429789994,95.64454845914015,127.83791535397414,105.0,11.861087071553182,2.31588886878984,3.13958326121466,11.50561187071553,-0.08156533202333191,-0.4240912823192633,-0.11527185200508992,0.027445316256525912,-0.6507402713704032,-0.06478650735949422,0.1322978401674318,2.7162534068242947,-0.9705067763580636,-42.65752793487636,-337.44162136229124,130.51046206193922,9.73908457248798,-6.730373750591125,0.2322615526539025,204.21815,206.81529372144178,6.0,12.497537315152723,-0.3544672514795008,-0.990375556623038,-6.690621399447884,15.950276591746313,1.5574729000000002e-19,2.484212353914925e-18,11.725141845905108,1.6510739347829737,0.06157370841759044,0.30088174948227325
4599,4599,4.359475999999972,0.0,2500.0,-2500.0,0.0,0.0,12.47535229311332,95.32609806014128,127.87221843861269,105.0,12.0,2.319452928311968,3.1414015790579684,11.487028498423955,-0.04621263549781428,-0.4234078019204143,-0.1251031885592444,0.0271352707073982,-0.2789152714033981,0.008835306487277667,0.12233089941863945,-0.3946358638638516,-1.2739049226640988,-42.00922661019096,-336.4890468819805,129.88815423411046,9.621294180546066,-6.7514677399696525,-0.09614784844867186,204.21815,206.83812197673257,6.0,12.494122218943485,-0.6991764457449019,-0.3783957341525563,-6.907242672031689,15.952170123964471,1.5574729000000002e-19,2.4845072664264307e-18,11.662378480961216,1.4245600415121111,-0.32388112190361273,-1.5907778044388472
4600,4600,4.452969999999993,0.0,2500.0,-2500.0,0.0,0.0,12.38392759986542,93.93403771079336,127.87115323209171,105.0,12.0,2.322727365437844,3.1432727127175206,11.460364843775325,-0.04791927547425257,-0.4302757083969988,-0.12489306533491235,0.02897157229165768,-0.017110833929902314,0.047130658813111716,0.0972497499396216,-1.1198416077437616,-1.1465981288642473,-41.40132884864561,-335.5898265954661,129.29117440254407,9.514473546820476,-6.79186419433694,-0.29995124242710736,204.21815,206.83485563965667,6.0,12.473301187356533,-0.5070605557777872,-0.8451325273976091,-8.560825367833505,15.953974346271448,1.5574729000000002e-19,2.4847882691613e-18,11.620093958916886,1.207820245928076,-0.5085152484695614,-2.5057628458258097
4601,4601,4.573432999999966,0.0,2500.0,-2500.0,0.0,0.0,12.156636294165375,90.51761678687288,127.8615806833759,105.0,12.0,2.326546559209948,3.1465464167696684,11.231857963398397,0.01614612742151061,-0.4350238973057503,-0.13056070752465934,0.033199372346525216,-0.0963069843899922,0.008221659926775489,0.025535079819263926,-1.9938408283960969,-0.9658002391659491,-40.984796895862644,-334.4477534873609,128.51596855679855,9.381348999225645,-6.860367288565318,-0.5198642118748997,204.21815,206.811172982685,6.0,12.394682875683827,-0.5275018793985854,-1.4736478484666098,-6.810666183883453,15.953753931656172,1.5574729000000002e-19,2.4847539401822944e-18,11.570850816030385,0.9987987362480021,-0.6981481182427958,-3.452858005504276
4602,4602,4.668956999999978,0.0,2500.0,-2500.0,0.0,0.0,12.03923100761812,88.77765405112635,127.819107157464,105.0,12.0,2.329438134279442,3.1494379436470474,10.984150494236244,0.19959757092588412,-0.4334190793525967,-0.1322990707193372,0.037496965372851465,0.022442982602196727,-0.03624280730063762,-0.011136284456739195,-2.384034669463711,-1.05946906732867,-40.98715939834564,-333.55119517202917,127.88726955369604,9.270465132833179,-6.933529061795786,-0.6523291841965891,204.21815,206.78324952234055,6.0,12.29520679301427,-0.3909124759151801,-1.6751667751493058,-9.156549430307996,15.953043401255036,1.5574729000000002e-19,2.4846432769978542e-18,11.531467739946926,0.8824499361931801,-0.8492931999050001,-4.212231953145427
4603,4603,4.764733999999976,0.0,2500.0,-2500.0,0.0,0.0,11.935508681442919,87.2545239496598,127.77616420769115,105.0,12.0,2.332655282307482,3.150758681642799,10.925380519048913,0.3136091859637225,-0.4493146526348173,-0.11762427292745675,0.04159857531425473,0.7998845758786459,0.07173911767712184,0.004542961884951036,-0.08168655366471711,-0.9500691102237556,-40.98929595358403,-332.6754603153229,127.25804282147736,9.175191030313362,-7.000636183028908,-0.7816386630310806,204.21815,206.73310529466158,6.0,12.193592563093155,-0.12090640989990264,-1.3451765075175408,-7.454976861956345,15.952330988979273,1.5574729000000002e-19,2.4845323207165416e-18,11.503028658077529,0.7351536235717379,-0.9603356221982808,-4.772297603122854
4604,4604,4.863532999999961,0.0,2500.0,-2500.0,0.0,0.0,11.741720670994265,84.44417180407017,127.71926244009968,105.0,12.0,2.336052806908209,3.1517295138984562,10.911790226498967,0.2303105715570677,-0.4667156474056182,-0.07974111087489319,0.0483938021952534,0.9170880583664895,0.11161760612439196,-0.08244675142207163,5.262274340856951,-0.36451410564644493,-41.125357180088464,-331.7752219151966,126.60084789621028,9.158417572922284,-6.998747466841251,-0.7830251414411111,204.21815,206.6754530580027,6.0,12.0644195597086,-0.08376157564719335,-0.96910747596272,-10.883345369106655,15.950852844313125,1.5574729000000002e-19,2.4843021036905607e-18,11.496705723534275,0.6730675048475938,-0.8477934582227029,-4.217488498958201
4605,4605,4.98293799999999,0.0,2500.0,-2500.0,0.0,0.0,11.726517443031574,84.22561836350769,127.6482350048965,105.0,12.0,2.339324407381109,3.152464977799483,10.908001,0.10392189773775637,-0.4519687949948811,-0.036206390928582376,0.05772089648234779,0.7323897210561022,-0.03980268626024108,-0.1797480763928443,10.820876372837002,-0.09805225755760326,-42.07570833897553,-330.6958221061934,125.81169203966641,9.215696032115511,-6.930495305766955,-0.6496650245013538,204.21815,206.6119803755964,6.0,11.915050012080036,0.3498304270580343,-1.3396472333375156,-9.969189665606644,15.948923304114684,1.5574729000000002e-19,2.4840015830337086e-18,11.483522017880265,0.9056600311148749,-0.6556520087734851,-3.2677564150521063
4606,4606,5.077093999999988,0.0,2500.0,-2500.0,0.0,0.0,11.840461177263427,85.8703683223118,127.6223619919434,105.0,12.0,2.341706861666808,3.1529413828865533,10.908001,0.09467418529615433,-0.4343942292837131,-0.016329899375937606,0.06429170347938261,0.26881283841843123,-0.07851765160076865,-0.2681072321469114,13.58797750265522,-0.2388784456374269,-43.42524452760835,-329.83223675004507,125.19382943276993,9.306690663817301,-6.8430141381483045,-0.4810173021873361,204.21815,206.5700172408453,6.0,11.850542366988067,-0.2956743616579556,-0.8794768994978048,-11.813427276877706,15.947401778324945,1.5574729000000002e-19,2.4837646095152913e-18,11.46102228211592,1.3033520350194676,-0.5080521820587938,-2.538185569954187
4607,4607,5.170102000000043,0.0,2500.0,-2500.0,0.0,0.0,11.990369391383009,88.05853294523949,127.5968044365168,105.0,12.0,2.3436477959183057,3.1534119283831568,11.045172739662972,0.09045687625819412,-0.4283544410245873,-0.012868245374999188,0.06637217091803373,0.165226488805653,-0.0649082811597715,-0.25453691477999274,14.70953452286324,-0.3112499937135265,-44.95083421790205,-328.9803906445294,124.59337507814163,9.357331605243406,-6.768231417386116,-0.4112051962179373,204.21815,206.5446544223565,6.0,11.833952892562811,-0.2877581287017797,-1.879446683150205,-10.721524335413665,15.949094056459813,1.5574729000000002e-19,2.4840281772487237e-18,11.401659695773466,1.7008166126090822,-0.4477501427679863,-2.2488846824256576
4608,4608,5.285873999999978,0.0,2500.0,-2500.0,0.0,0.0,12.179390563004885,90.85678853796504,127.57254358986488,105.0,12.0,2.3459907288617505,3.1539976323338212,11.240211569530034,0.09449335542263317,-0.43445745464078944,-0.016778837483434256,0.06564543148161102,0.04015755587177497,0.010514122974295765,-0.16915826257282685,15.295750847735135,-0.03655624731921638,-46.38779001652525,-327.9096737422996,123.85004731969971,9.388302255680012,-6.6942226747699705,-0.4138119000813066,204.21815,206.52731174783955,6.0,11.866139792547115,0.007709900252404922,-2.3195446220301026,-9.4088680823095,15.951322660031133,1.5574729000000002e-19,2.484375276215441e-18,11.322322881474086,2.068794328633092,-0.4047307573516391,-2.047238447038314
4609,4609,5.374363999999957,0.0,2500.0,-2500.0,0.0,0.0,12.234552394257213,91.68161963720756,127.55478067440414,105.0,12.0,2.34862741260192,3.1544379709397714,11.147731281543317,0.07130778843735464,-0.4383993557482591,-0.01881959541475422,0.06468936711686141,0.10842106123351423,0.03919797468941267,-0.07297757212424423,15.72944501983488,0.30313776149682425,-46.95228380521764,-327.0860893789462,123.28169972181551,9.367244782419515,-6.65613584968907,-0.5310464415624128,204.21815,206.51469325131282,6.0,11.91693304426108,-0.4703050579716384,-2.5918438573907823,-6.778982973239138,15.953026086853043,1.5574729000000002e-19,2.4846405803266662e-18,11.26100817603207,2.174073635352745,-0.4659974472376387,-2.3696334977670563
4610,4610,5.471036999999967,0.0,2500.0,-2500.0,0.0,0.0,12.12789710897289,90.09011052599777,127.51069390898748,105.0,12.0,2.351512833563332,3.154918986647896,11.0452959038041,0.052355285870384974,-0.43890742191878207,-0.01740216949800091,0.06642956447942865,0.19908510094661624,0.048020414515820585,0.04844671842606802,16.538478274849947,0.5140165642432586,-46.96108430691333,-326.1852887449122,122.66367435935615,9.346986803631957,-6.610005690558076,-0.6801015776666848,204.21815,206.47714120095958,6.0,11.957624252136535,-0.5291690815511654,-1.5339558517169385,-9.12734581662324,15.955047690500562,1.5574729000000002e-19,2.4849554396162214e-18,11.216110541989188,2.1552723335654105,-0.5763446273705874,-2.9415808610464667
4611,4611,5.590375999999992,0.0,2500.0,-2500.0,0.0,0.0,12.110770695326623,89.83585527670202,127.4512257183516,105.0,12.0,2.3550677320892373,3.1565340660446184,10.986586361150955,0.052323925551811167,-0.4414929877929365,-0.01636495827897304,0.06988856892206267,0.08683454553469414,0.10076546178729856,0.15257750104826678,17.426185063471536,0.8743985810729765,-46.15495276627379,-325.0727052831622,121.91111517495224,9.379826719374954,-6.519104859544295,-0.7097500278530039,204.21815,206.40374523028458,6.0,11.98217401670249,-0.09654446712957047,-2.817644140587237,-10.47324213904874,15.9575552487005,1.5574729000000002e-19,2.485345985010379e-18,11.208712381456575,2.087419014794912,-0.5483558768955238,-2.800807686129721
4612,4612,5.689963999999918,0.0,2500.0,-2500.0,0.0,0.0,12.154402028233779,90.4843140725398,127.41323794363122,105.0,12.0,2.358039921176046,3.158017309645752,10.946259103879065,0.06430293147714704,-0.4330605997357255,-0.018484218156039213,0.07138281111780376,0.030695443340812895,0.04277197147488235,0.2193053620026541,17.836143903686303,0.8726856857848113,-45.07691268956867,-324.1346219350512,121.29455553305374,9.435491075766393,-6.420099720194313,-0.6883361937846071,204.21815,206.34999552922352,6.0,12.008189999600035,0.2877885762617729,-2.0085359628331916,-9.559583078225398,15.95951183316375,1.5574729000000002e-19,2.4856507177381862e-18,11.21790711712898,1.9884824691596867,-0.5253693886183453,-2.6813798412633187
4613,4613,5.7864139999999225,0.0,2500.0,-2500.0,0.0,0.0,12.19476512753001,91.08629330497213,127.37663693548565,105.0,12.0,2.361477776023873,3.159490725121317,10.882412982572651,0.0934971113555316,-0.4321793171812348,-0.02302504063069476,0.07033789766298422,-0.12278230538458405,0.06632093153846225,0.239876788461532,17.641222580160807,0.8220493221735009,-43.798601308167065,-323.2202009307728,120.71435471348755,9.510072677392829,-6.310261102387968,-0.6119591158689098,204.21815,206.31607014928352,6.0,12.032656155025228,0.2631908970594238,-1.7465077878842823,-9.514675295377616,15.960249622711046,1.5574729000000002e-19,2.4857656264607685e-18,11.239269637842376,1.8907493988141288,-0.458647614289778,-2.3368066697640937
4614,4614,5.882213999999976,0.0,2500.0,-2500.0,0.0,0.0,12.267641302136132,92.1782078744986,127.35206984127359,105.0,12.0,2.3648924623320284,3.160954210891759,10.81899713580074,0.1171131274233787,-0.4230799947654767,-0.030925669169239924,0.0658468326494289,-0.06619385756456041,-0.003249090997008353,0.2699529450470756,17.004874922506026,0.6272247330712829,-42.39103345848686,-322.30274976867815,120.14521295914936,9.589859017748656,-6.194580538697632,-0.5216164614855711,204.21815,206.30066146668685,6.0,12.072579230140695,-0.03808799437465499,-2.2626226146600503,-9.395008134388817,15.960982440115206,1.5574729000000002e-19,2.4858797607855307e-18,11.264034474924346,1.773674562776332,-0.4016114206603539,-2.041976725471815
4615,4615,6.000161999999989,0.0,2500.0,-2500.0,0.0,0.0,12.299280747647607,92.65428914397549,127.32318796488752,105.0,12.0,2.3700955885612958,3.167228184957265,10.970433833345666,0.12099021054126292,-0.4032306207819894,-0.03187332623559822,0.0614880709688883,0.16711020235739688,0.0018043404144835323,0.2517290905660613,17.444659793861167,0.04850933284706628,-40.66951723282806,-321.1696625407561,119.46669322400764,9.678677205532958,-6.047504425570903,-0.4432429937908156,204.21815,206.28857168874507,6.0,12.136969783294578,-0.4566816039861027,-1.0521096395322609,-11.395108158981113,15.961989647682149,1.5574729000000002e-19,2.486036630634549e-18,11.282593741175196,1.5906126422624358,-0.4152007722130849,-2.1075403677001505
4616,4616,6.096969000000001,0.0,2500.0,-2500.0,0.0,0.0,12.353265187288704,93.46943215179172,127.306918439215,105.0,12.0,2.374432494199937,3.1723894447799434,11.08497258384986,0.1195474756163032,-0.3932966851851621,-0.029943447160864167,0.059448762040808865,0.04540122053896342,0.06509009159125219,0.2441127762376881,18.138280835701607,-0.2353517976685912,-39.3537040191797,-320.2262176798696,118.9124254955818,9.761126462743732,-5.9292878105907825,-0.4086523428055739,204.21815,206.2807352223634,6.0,12.193804233261675,0.16770177034799275,-1.5070951857769646,-10.838636679108463,15.963274980577571,1.5574729000000002e-19,2.4862368177497597e-18,11.305776419028088,1.463098638263202,-0.4258897923521577,-2.157318016458661
4617,4617,6.192040999999961,0.0,2500.0,-2500.0,0.0,0.0,12.356892485629489,93.52433580599808,127.29094050017406,105.0,12.0,2.3791354667009625,3.176622120030866,11.052052246639931,0.11897143242933418,-0.3868088747385249,-0.02825310641973857,0.056117100660184834,0.020014281590704147,0.045010909747631736,0.213469210034284,18.441495271237454,-0.2913329285558492,-38.15769422831967,-319.296218832123,118.37815857917612,9.869284231834422,-5.7926585340898225,-0.31045622954037105,204.21815,206.27340996845902,6.0,12.252980708471036,-0.13952676700192962,-2.7602772204393755,-11.469892176362032,15.964537277405634,1.5574729000000002e-19,2.486433417059905e-18,11.337490717508302,1.4262093822660358,-0.3413612287179422,-1.7246012444444725
4618,4618,6.2909009999999626,0.0,2500.0,-2500.0,0.0,0.0,12.358488461794519,93.54849913269777,127.27553309570936,105.0,12.0,2.384020896612393,3.18102109582879,11.017713678762622,0.06998661983747972,-0.3735807910877537,-0.02538509777887782,0.05359037045968359,0.17826510249617186,0.01715597878207046,0.20232127482487094,19.232984399604305,-0.4863520967091903,-37.00179607993866,-318.31546671661863,117.83121972526415,9.993936286455336,-5.638037568242068,-0.2450172362920245,204.21815,206.2606574916523,6.0,12.316419500303555,0.1656877122305624,-1.2931815240729372,-9.25746342728136,15.965805030207985,1.5574729000000002e-19,2.4866308661232622e-18,11.372031141372547,1.3995529560897375,-0.3096603652609933,-1.5597784260699594
4619,4619,6.386111000000028,0.0,2500.0,-2500.0,0.0,0.0,12.306565451459507,92.76410137586711,127.26081727936494,105.0,12.0,2.3878323266235,3.1848323829148453,10.965307826256213,0.03882455314924756,-0.3629562122286035,-0.021285916112191355,0.053383461645219836,0.09733912270844017,0.035981584628716014,0.18826109401157415,19.969068736455174,-0.6421056288666522,-35.985689587671864,-317.36223266575297,117.32630443731694,10.102485619276802,-5.466517248152149,-0.2875941683103744,204.21815,206.23546280696067,6.0,12.362437038268805,-0.1647968405670525,-1.417896355535578,-7.5018533412934545,15.96661883675885,1.5574729000000002e-19,2.4867576142881435e-18,11.382660960702054,1.370858025935528,-0.3732667885585911,-1.878203223294496
4620,4620,6.505173000000013,0.0,2500.0,-2500.0,0.0,0.0,12.110000708780932,89.82446076723909,127.21972141337929,105.0,12.0,2.3926811113153685,3.189832335869456,10.919501015447533,0.0076521501442089355,-0.35469572156462376,-0.011660656891153441,0.05765836219047767,0.09976046176352672,0.08985554857945427,0.16712917316224926,20.86302810854545,-0.7306144483576961,-34.7711101824029,-316.15644702855815,116.71227490299749,10.233125041391297,-5.2366927308856885,-0.4475136821592236,204.21815,206.18612825969345,6.0,12.354146500450874,-0.8028961952766245,-0.5610467505282677,-9.393014286242787,15.967636518048199,1.5574729000000002e-19,2.4869161153910435e-18,11.385716637882126,1.323111309634433,-0.5343160488663055,-2.686841014215496
4621,4621,6.597687999999948,0.0,2500.0,-2500.0,0.0,0.0,11.933296943023972,87.22219459505865,127.18513981830222,105.0,12.0,2.3968953547152445,3.1949831454401454,10.990676017396217,0.0013923435938202903,-0.3545320796347449,-0.00013810662645862871,0.06527012701520915,0.07747304992161946,0.07733923513499684,0.12041442683789777,21.51551275586453,-0.5646667798284519,-33.97447838115571,-315.2195730121264,116.26277869374776,10.33323783075124,-5.037794655424325,-0.5568978501946159,204.21815,206.14241747400956,6.0,12.2836440955324,-0.6482877630246241,-1.64142453173182,-9.676607422088372,15.968318320491235,1.5574729000000002e-19,2.4870223042738616e-18,11.37841261053265,1.351221689014206,-0.6067089611198084,-3.0521809954667263
4622,4622,6.69471800000008,0.0,2500.0,-2500.0,0.0,0.0,11.732325155384569,84.30905811012082,127.12181588539543,105.0,11.965639304544515,2.4013779745221493,3.200618499390338,11.064673054581947,-0.03993039757626881,-0.3609000424740025,0.011916032247744516,0.0730928134179094,0.06513468820016438,0.08120835715546626,0.08452802415615719,21.991466838584238,-0.3032260395056109,-33.333076926222034,-314.222993612167,115.80463508783258,10.430650591064666,-4.833998712205268,-0.6658275290665693,204.21815,206.0878536230796,6.0,12.16163031957158,-0.4110940590569672,-1.769834532566529,-9.396949271482793,15.968426355507257,1.5574729000000002e-19,2.4870391304348317e-18,11.367331723397108,1.4210516645319673,-0.6642133975164308,-3.3440918162026745
4623,4623,6.789961000000005,0.0,2500.0,-2500.0,0.0,0.0,11.765923108418278,84.79262555236822,127.05681655065563,105.0,11.492786289481652,2.406579452258444,3.2091299482320723,11.128981064630496,-0.10259653304318077,-0.37502742131563865,0.010547178504198278,0.08046189714133943,0.08340105827777733,0.11766023625019592,0.08986054812416476,22.375942266619568,0.08667216653597387,-32.742892834455446,-313.2412739979838,115.37670619913564,10.519681535556384,-4.633198747179929,-0.7608569372190734,204.21815,206.0230094964245,6.0,12.03898131634747,0.058956867941307826,-1.0311399648996846,-8.44759510589555,15.968532400844063,1.5574729000000002e-19,2.4870556467086566e-18,11.355265255215235,1.5096619242113785,-0.6903977546815333,-3.479288443529237
4624,4624,6.912600999999995,0.0,2500.0,-2500.0,0.0,0.0,11.860201455289975,86.15695422196205,126.95845700004415,105.0,11.117411936026334,2.4135265551683425,3.2203484387205266,11.178623033468103,-0.13578286542796605,-0.3924516446961641,0.006079392805916024,0.08894132427208758,-0.0009397233445364168,0.16406208659149746,0.1323538702678425,22.900595713281174,0.6501118687632934,-31.72615471313652,-311.95659160433917,114.84333584354479,10.64545596249251,-4.366053276679625,-0.8309289717694436,204.21815,205.92446066435588,6.0,11.925809246730735,-0.294390555847534,-2.0187296822772534,-9.856022825269848,15.968936785331874,1.5574729000000002e-19,2.487118628496752e-18,11.359347758826905,1.61105338834455,-0.6681303315511293,-3.366125918725419
4625,4625,7.008524999999963,0.0,2500.0,-2500.0,0.0,0.0,11.977551939869794,87.8703375871316,126.87966179874216,105.0,11.599091114514675,2.4197883844886907,3.2299820222902937,11.107334515051827,-0.1314282533724785,-0.4001729441997237,0.0015756200786295124,0.09088719074719137,-0.08477687119657165,0.12178747681691465,0.15676448281013725,22.7785797971029,1.0245455559975254,-30.773948680444807,-310.941378449952,114.45157548901823,10.770068622074533,-4.119668549177866,-0.7664397251080165,204.21815,205.8431106782034,6.0,11.897484819945976,-0.5214002411146811,-1.1277777424357789,-11.6231198736198,15.969911730664554,1.5574729000000002e-19,2.487270473590214e-18,11.37328937017046,1.7525841503650987,-0.5544862756448268,-2.791152772956233
4626,4626,7.1025679999999625,0.0,2500.0,-2500.0,0.0,0.0,12.012992410727179,88.39109787893865,126.81739213573671,105.0,12.0,2.4257936472255297,3.239322627470948,11.051041664512878,-0.13277809919267589,-0.4037768962770088,-0.006747655472548663,0.08921963200705403,-0.15679100021188264,0.06597766378290656,0.1922374837786721,21.99081814751161,1.2076204936436092,-29.686985275087505,-309.93341062773516,114.0882225455419,10.8839522281581,-3.886693282161021,-0.7125073464407984,204.21815,205.76563705351745,6.0,11.904615688419677,-0.018803374024702783,-0.7122887122072424,-11.492979339260517,15.970867558027056,1.5574729000000002e-19,2.4874193411116317e-18,11.392786212416038,1.836478704909238,-0.4805700987780822,-2.4154165942937658
4627,4627,7.1950539999999705,0.0,2500.0,-2500.0,0.0,0.0,11.943997394809266,87.37868278914642,126.75656668039535,105.0,12.0,2.430959991924251,3.2479333024271937,11.070846746471396,-0.14594878129422842,-0.3984965337105764,-0.017125049172788703,0.08759913514244677,-0.1818551394366484,0.003789719708331942,0.2413726158650608,21.06116145793905,0.9928318182143149,-28.550162564844193,-308.93830457232707,113.75308308780106,10.982932110965463,-3.668413903705848,-0.6737727548472449,204.21815,205.69366738644302,6.0,11.906548061345715,-0.0857134321341721,-1.849718605023452,-11.208335486023524,15.971751622369368,1.5574729000000002e-19,2.4875570317371326e-18,11.410597595206067,1.8553112973130488,-0.4794401110389786,-2.4059867433346143
4628,4628,7.3160839999999325,0.0,2500.0,-2500.0,0.0,0.0,11.756116722693019,84.65136152486681,126.69055115362056,105.0,12.0,2.4379688033891798,3.2595224904974414,11.079399888307293,-0.135047495852119,-0.3825412341819064,-0.02207979925159711,0.08699658844680838,-0.1413120849660716,-0.017728988194238977,0.27403720405436377,20.077068640392167,0.2812406484360063,-26.987834601381284,-307.61809802064585,113.33812127913559,11.121743751996881,-3.3917325150875484,-0.6198612071325049,204.21815,205.62200224304598,6.0,11.857866566581185,0.3542225468884164,-0.9261951903795088,-9.144422560779534,15.972329881118135,1.5574729000000002e-19,2.4876470939701718e-18,11.452695420737422,1.8311622253908104,-0.5393379042181347,-2.6962187532652555
4629,4629,7.413566999999944,0.0,2500.0,-2500.0,0.0,0.0,11.608527426860311,82.53922994341205,126.63976135581987,105.0,12.0,2.4452876084718684,3.2710233578921697,10.969096093272043,-0.11650659197760713,-0.3694201308946397,-0.0223332450430851,0.08772150579408552,-0.09605565663561844,-0.03873821955884129,0.2733971869854389,19.32393139640635,-0.3936141727187434,-25.675385251722407,-306.56231419187884,113.020475035079,11.214505933865142,-3.188947539089368,-0.6176202204275548,204.21815,205.57893484433038,6.0,11.771836347006758,0.3420507355776157,-1.1003225575576654,-9.232133553559525,15.97279563669614,1.5574729000000002e-19,2.4877196341392487e-18,11.484389399721985,1.7543141613543678,-0.6436560225682364,-3.2078529105907334
4630,4630,7.509657000000004,0.0,2500.0,-2500.0,0.0,0.0,11.583138324495994,82.17858185307927,126.5955924702402,105.0,12.0,2.4524885712844164,3.282183153811577,10.924377273403747,-0.09596726433255492,-0.3615207774681689,-0.0235892332744121,0.08813842675959697,-0.2489332839880816,-0.01677229971423751,0.2377510394784608,18.653412282085085,-0.8995821759782037,-24.371282057783326,-305.5120843555967,112.72313797165675,11.295490707425197,-2.9990987760524765,-0.6383415713136177,204.21815,205.54289455227658,6.0,11.683743815800334,-0.52158058304524,-1.2202700646431954,-8.971990987539693,15.972866316927966,1.5574729000000002e-19,2.487730642393812e-18,11.515085571084962,1.66694746675225,-0.7459074432010451,-3.7062445491036313
4631,4631,7.605666999999983,0.0,2500.0,-2500.0,0.0,0.0,11.612227387762678,82.59184998791126,126.55166832736977,105.0,12.0,2.459633140406805,3.292661899646772,11.122998943295107,-0.049927519577413634,-0.35895462987784554,-0.027758615182147558,0.08517398225892214,-0.3054977998958465,0.004778603464876026,0.20016855865079214,16.833433895256373,-1.3337728203475678,-23.344111761374286,-304.4690412538736,112.43659539164804,11.35952254913725,-2.8399218001768918,-0.6831460669716074,204.21815,205.50389666565854,6.0,11.620625080876033,-0.6409908003642928,-0.9622254310787856,-9.705474683182752,15.971836978045006,1.5574729000000002e-19,2.4875703256522997e-18,11.535944070863069,1.6176083452958696,-0.8670516005744718,-4.2983188734382685
4632,4632,7.723295000000007,0.0,2500.0,-2500.0,0.0,0.0,11.64947322864172,83.12252031687449,126.48446177851862,105.0,12.0,2.4682418595361137,3.305362821330736,11.328984201278296,0.0022022203705626686,-0.3583968410693987,-0.041059751729851,0.08030062412570274,-0.2185884943910976,-0.01839297202373134,0.2050152824259857,14.772711874511193,-1.7107816023914288,-22.122854727115477,-303.17650692991106,112.10131296706385,11.442654582800348,-2.673339922871604,-0.6903942864889292,204.21815,205.45007705914267,6.0,11.591947232365715,-0.7215326964295251,-0.5314233788134473,-10.337469437884486,15.970575869055061,1.5574729000000002e-19,2.4873739113447207e-18,11.581207337423505,1.5675723123590533,-0.9476262383888536,-4.677776172037255
4633,4633,7.819274999999948,0.0,2500.0,-2500.0,0.0,0.0,11.625975162867439,82.7875242538994,126.42802343796205,105.0,12.0,2.474951569170853,3.31542748163584,11.415731640820976,0.03336964805815456,-0.3492728933195797,-0.043958789335033485,0.07947473441923973,0.06671304776014582,-0.0009458088088101848,0.1925921484868021,14.553404585157098,-2.076335029415049,-21.119261780434687,-302.1159942552679,111.83716962955832,11.490881106032912,-2.5614821032858552,-0.7528902408048748,204.21815,205.39581753826943,6.0,11.58188105410905,-0.11435772646958366,-0.988741126166696,-9.62417078288264,15.96989284488297,1.5574729000000002e-19,2.487267532180913e-18,11.607074024711034,1.4546463400465734,-1.0730860642585445,-5.2820396736931325
4634,4634,7.908788999999956,0.0,2500.0,-2500.0,0.0,0.0,11.671128862501028,83.43184765580817,126.3477887207346,105.0,12.0,2.4813368973892946,3.3249609786784236,11.500965201252132,0.07073127392571257,-0.34201949703631584,-0.03978516851364165,0.08284242219682429,0.18027676897510356,0.04612443763133052,0.1780834866333822,15.421510675451398,-2.194688189151289,-20.173170524875776,-301.11769713338487,111.59959779510109,11.524645237172956,-2.441697284892673,-0.8785630990482177,204.21815,205.33056761769643,6.0,11.583490944934852,-0.6985851917482766,-1.3488189524309568,-8.711613417223262,15.970304408278613,1.5574729000000002e-19,2.487331632064448e-18,11.617504481496216,1.3290400725023803,-1.2123134486516551,-5.9573853521528255
4635,4635,8.024721,0.0,2500.0,-2500.0,0.0,0.0,11.6443193673749,83.04898621144605,126.24158440382406,105.0,12.0,2.4902968458304326,3.3381022085168834,11.634766205966418,0.053589194386175126,-0.3371519205250914,-0.028514654938896013,0.09002492490622087,0.2860839014978693,0.07450903241580867,0.10207628566148423,16.834180097530865,-2.0488226423468894,-19.19992938964545,-299.8224550322348,111.30074756184591,11.564029287699784,-2.2683146283186804,-1.0998543925725048,204.21815,205.2139519814149,6.0,11.59110125464628,-0.5468942501999821,-1.3040079203874084,-9.182996259588048,15.970837435152434,1.5574729000000002e-19,2.487414649555543e-18,11.619991827288285,1.2206940895338,-1.3918971405927023,-6.830611976284285
4636,4636,8.110973000000001,0.0,2500.0,-2500.0,0.0,0.0,11.608786273359833,82.54290478131203,126.1362980470342,105.0,12.0,2.496843627286761,3.3477040851248026,11.637651252121985,0.019906995544614826,-0.3356345676667005,-0.015851185718011158,0.0970026459520631,0.28271923467417537,0.09619692233294312,0.0644140124172256,18.42145803659733,-1.7321338035802478,-18.653796512231605,-298.850811292105,111.0947436526614,11.608362864761512,-2.105119907181378,-1.2218854624785438,204.21815,205.1074449057829,6.0,11.588201630529316,-0.2985743031712371,-1.13078250911192,-9.695173774302388,15.971221563995162,1.5574729000000002e-19,2.487474476581808e-18,11.629611891776893,1.2201715337375554,-1.4415275690540437,-7.0659540723585685
