,Unnamed: 0,timestamp,thrustinput,Position state,Position state2,PA-ON,PA-ON2,Airspeed[m/s],Differential Pressure[Pa],GPS Altitude[m],GPS Noise Magitude/ms,GPS Satellite Num.,Horizontal accuracy[m],Vertical accuracy[m],Groundspeed[m/s],Roll control,Pitch control,Yaw control,Thrust control,Roll Angular Rate[deg/s],Pitch Angular Rate[deg/s],Yaw Angular Rate[deg/s],Roll angle[deg],Pitch angle[deg],Yaw angle[deg],Local X[m],Local Y[m],X-velocity[m/s],Y-Velocity[m/s],Z-Velocity[m/s],altitude set position,altitude(Tecs),airspeed set position,airspeed(Tecs),X-acceleration[m/s^2],Y-acceleration[m/s^2],Z-acceleration[m/s^2],Battery Voltage[V],Battery Current[A],Inst. power[Ws],Body_Uvelocity[m/s],Body_Vvelocity[m/s],Body_Wvelocity[m/s],A.O.A.[deg]
6830,6830,0.0,0.0,2500.0,-2500.0,0.0,0.0,8.902390249647134,48.54221018005249,109.73100107365907,105.0,12.0,2.607967681968613,3.2801456473018704,12.211968678736485,-0.4270914054720152,-0.03721968620400692,-0.15351510780000008,0.3227418500960058,-0.5607216489951411,0.34463827385522866,0.19704843090777052,13.097620188831625,-1.3946222184307495,32.53684022013232,-333.872935697246,69.40778441613736,12.118710753677027,4.060343762435343,0.8720069477207941,189.46216,188.70825638712242,6.0,9.422696418223437,5.344034940234213,3.6758177914420376,-6.9097322729161785,15.51254654208955,1.5574729000000002e-19,2.4160370849293187e-18,12.418000624312096,-2.964821408178897,0.4797907678542601,2.2126202227324647
6831,6831,0.0989350000000968,0.0,2500.0,-2500.0,0.0,0.0,8.615139474370265,45.46022214142664,109.80617263931543,105.0,12.0,2.6069737794397794,3.28461870568259,12.21097467680746,-0.34065443681825325,-0.12638465611309524,-0.1241900567719384,0.3140809728426246,-0.6213035772334113,0.470962609664677,0.04222364093127416,10.03446013365568,0.9292614242379482,33.69275323670155,-332.7500826275646,69.87368037530885,11.945122929923706,4.529095413400375,0.9452374448808846,189.46216,188.78198557819059,6.0051455,9.258990902935864,2.730792607665726,3.6423265557891,-9.792479467568462,15.51767612464585,1.5574729000000002e-19,2.4168360035112937e-18,12.434131816300859,-2.6578730428377684,1.1758510995052165,5.402190327057018
6832,6832,0.21833800000001702,0.0,2500.0,-2500.0,0.0,0.0,8.558134225061789,44.86052078592864,109.89402911823835,105.0,12.0,2.6060002,3.2898874903458486,12.192589560920922,-0.2924032064695935,-0.2377883769812225,-0.10125261464655062,0.31491985790689503,-0.18927239979919136,0.27340222121929353,-0.14862353156343985,7.427493383754466,4.028463261973239,33.902574621131365,-331.4033867049875,70.4704039429798,11.715827469533643,4.945728013813027,0.9608614824787336,189.46216,188.87770171914642,6.0001050000000005,9.008251167338212,1.7079523317320782,0.6909030630189306,-3.9648193765824153,15.526673396879518,1.5574729000000002e-19,2.4182373042790798e-18,12.384283531973846,-2.1867204921440786,1.9907286841908431,9.131968758303481
6833,6833,0.3126839999999902,0.0,2500.0,-2500.0,0.0,0.0,8.428220351390335,43.50887881495804,109.95573500358984,105.0,12.0,2.6060002,3.2936091061197006,12.11955147318102,-0.26691007020035923,-0.2826553144702641,-0.08667036632698281,0.3234966417410101,0.05209557944425902,0.1303191233316569,-0.310730975102925,6.69752385072005,5.424334460235912,33.463084197349446,-330.3789629455679,70.97275863718204,11.492215216099778,5.193078527379297,0.6108645589388535,189.46216,188.9348760553633,6.00000083160323,8.768778242214577,-0.2664634128020178,2.4221291622930843,-10.12168570917805,15.533782570402439,1.5574729000000002e-19,2.419344538789414e-18,12.337240223786461,-1.7873523096184474,1.9624194254059053,9.038018243067354
6834,6834,0.4086620000000494,0.0,2500.0,-2500.0,0.0,0.0,8.370518630311725,42.91517169624488,109.98734672299273,105.0,11.950867945640754,2.605901926064871,3.2972949923261554,12.046023248280989,-0.2757334926080028,-0.32319959627107925,-0.04727806990457183,0.3335489108961777,-0.09154159054143488,0.07380544263275954,-0.4292516914882119,4.756835392884826,6.544920530731013,32.162395311206204,-329.344248031083,71.49751414665543,11.307130978743215,5.395870972933892,0.3398943192891801,189.46216,188.95248251135854,6.0,8.502030200659068,-0.6749785301120171,-1.1023523013911696,-7.155712603235765,15.539873263358777,1.5574729000000002e-19,2.4202931477115857e-18,12.324459793659342,-1.296098924036105,1.915468192736056,8.834234097004094
6835,6835,0.5039649999999938,0.0,2500.0,-2500.0,0.0,0.0,8.336247575171353,42.56447865793371,110.01617651961395,105.0,11.483139229572366,2.6049663750869905,3.3001013646225656,11.979605770599274,-0.2850942022285529,-0.3498261744387682,-0.057093350816957586,0.3433679557457719,-0.8689644820390755,0.05774650135895978,-0.2966588933529644,1.8961656957357165,7.183246314029321,30.39577829276132,-328.3500198510554,72.03583142157899,11.138788992432644,5.561013983342859,0.16709971920120956,189.46216,188.96759388155257,6.0,8.244347929571825,1.0926967755090673,3.2759614545095044,-9.474499811774798,15.543554078716813,1.5574729000000002e-19,2.42086642472859e-18,12.303093418104648,-0.7757715093673933,1.8230085724036116,8.428464014395294
6836,6836,0.6238630000000285,0.0,2500.0,-2500.0,0.0,0.0,8.380241271084246,43.01494689156537,110.00735253294451,105.0,11.110816701789467,2.603778388759761,3.303443466807158,11.892050454810702,-0.10114411184455063,-0.3441476611684245,-0.1157982359344518,0.353486209963593,-0.6264111125934239,-0.01690696620582529,-0.23565520050570074,-1.6435905551256218,7.153849225341955,28.09324701505028,-327.1046075900491,72.72318673495244,10.991145101485607,5.659315568908791,-0.02484353091440256,189.46216,188.96242442390798,6.0,7.988599140136403,-0.7195646766428567,0.6821396355781708,-12.516573353622187,15.548184808072634,1.5574729000000002e-19,2.4215876482764834e-18,12.26807689903336,-0.2252880465472737,1.536941677631761,7.1407980325101805
6837,6837,0.7200920000000224,0.0,2500.0,-2500.0,0.0,0.0,8.711631344712949,46.48438211634885,109.9932995189537,105.0,11.60784678319093,2.6027844280029746,3.305431587132764,11.807058807921136,0.0514181146638565,-0.3195058694480877,-0.11316325606681805,0.3575743922383869,0.09245992711326304,-0.13035779573904388,-0.31627529407443805,-3.0623253434210516,6.7387997390826175,26.655932736511012,-326.13552617643836,73.28870360178689,10.908657196602276,5.6837011723512685,-0.05968338566487672,189.46216,188.9703503579284,6.0,7.880363067036597,-0.8897235615710345,-1.6027750153334055,-7.3942038200671485,15.552033522111644,1.5574729000000002e-19,2.422187075058044e-18,12.221171791021959,0.11043238587848024,1.3601891187676127,6.350755647973847
6838,6838,0.8159890000000587,0.0,2500.0,-2500.0,0.0,0.0,9.101486477515571,50.73783708419557,109.95415980503631,105.0,12.0,2.6020002,3.307095835624968,11.73053117916407,0.008084645770884843,-0.283422088603657,-0.11178370759758567,0.3613734010004929,0.09402791595644144,-0.0842458482589671,-0.13499943274944204,-2.3785917497330744,6.165351321625174,25.51457546820613,-325.15939354013824,73.84357094778301,10.841804999865394,5.704620678662279,-0.12146550011165938,189.46216,188.95373802100772,6.0,7.874135941086941,0.018699979480902074,0.28234411760397915,-9.919188389207873,15.556046750343178,1.5574729000000002e-19,2.4228121244792566e-18,12.183918659001614,0.4259563093977686,1.1415759307652893,5.352718332028965
6839,6839,0.9100909999998521,0.0,2500.0,-2500.0,0.0,0.0,9.423836389748844,54.39534922103323,109.91243582254862,105.0,12.0,2.6020002,3.30754641909168,11.68591449262225,-0.042720370278067486,-0.2541772683137347,-0.1080707697557782,0.3665551274914897,0.13560973453289338,-0.09438900915188828,-0.2020592627927076,-0.9753180796067188,5.5080060594940425,24.331053857628106,-324.213054650282,74.38438792698628,10.782036536911715,5.741245702799727,-0.2891734705419474,189.46216,188.8990749124331,6.0,7.948639976624642,0.5875132717358728,0.8793525856811278,-9.538576050126073,15.559984858970596,1.5574729000000002e-19,2.423425474225703e-18,12.161291297300824,0.7703610330909036,0.8063375967480957,3.7933651461444304
6840,6840,1.0304660000000467,0.0,2500.0,-2500.0,0.0,0.0,9.784725615737832,58.64135967493646,109.80492421840778,105.0,12.0,2.6021304036796358,3.3082604334000085,11.666520921208715,-0.05918979498066401,-0.22949415711061935,-0.10231540708161346,0.3726128483927953,-0.14372383955248194,-0.030861995245540563,-0.21244269219941095,-0.14480277791146326,5.088187599827699,22.640048643032756,-322.9948058658795,75.0727409139148,10.732391306489989,5.797290122692564,-0.5239558775204802,189.46216,188.7936474206896,6.0,8.137685664827664,2.360459086652635,1.9308513612143552,-7.570923269545162,15.564356460038484,1.5574729000000002e-19,2.424106339244988e-18,12.135621728234485,1.2130205169356076,0.4463911158245164,2.106591793009424
6841,6841,1.1255850000001146,0.0,2500.0,-2500.0,0.0,0.0,9.834950927843066,59.244839150881404,109.71208515665931,105.0,12.0,2.6026133000731053,3.3092263227662255,11.761168614328612,-0.14678733670616892,-0.2240018931796059,-0.10737464707120767,0.37327613439236657,0.02522251286257331,0.057642521288444375,-0.21853364777000292,-0.3742512788002837,5.1447399439469566,21.311899214096826,-322.0343492985512,75.61568050488097,10.708250577730157,5.810803531150952,-0.7201897115171859,189.46216,188.689900896476,6.0,8.368873849855245,-1.265002537864385,-0.7873172982656116,-8.643675102561069,15.56709939896157,1.5574729000000002e-19,2.424533544548894e-18,12.1037639327314,1.51305422635764,0.2302056758612643,1.0895968937539875
6842,6842,1.224078999999847,0.0,2500.0,-2500.0,0.0,0.0,9.829258408093787,59.17627609417535,109.58170556865251,105.0,11.893391252763292,2.603213396172724,3.3097869611837774,11.811414794054446,-0.2867634363782753,-0.22132063233500945,-0.11666694780103637,0.371470718129531,-0.10829388641659936,0.08527058007591519,-0.19995622617846234,-0.9052010078472736,5.464802535724735,20.19338089763289,-321.02701723149085,76.17789116212009,10.709566444588825,5.815046594224483,-0.8369271751406508,189.46216,188.54922842447,6.0,8.649671824388554,0.4849833579146483,-0.724758343373487,-10.64621595617809,15.569939662487162,1.5574729000000002e-19,2.4249759078958898e-18,12.083471745788104,1.747796192746487,0.14754024216119188,0.699551693649434
6843,6843,1.3198620000000574,0.0,2500.0,-2500.0,0.0,0.0,10.051417993438204,61.8817234360234,109.460588366052,105.0,11.435156392027789,2.6041297742472227,3.3088703998153344,11.701437969243061,-0.2794278014906901,-0.21047044992763805,-0.14240429084837455,0.3675734218205848,-0.4112837666435409,0.06257829761711423,-0.1292890982369344,-3.166596707748836,5.8498366088175775,19.33225047545437,-320.0405984696928,76.72054496566089,10.805469498821044,5.747823219153088,-0.5692458438959205,189.46216,188.4072141550248,6.0,8.96226022397477,4.371717915186542,0.4252888687581609,-14.334099110053229,15.571724053076489,1.5574729000000002e-19,2.42525382189448e-18,12.094004176194554,1.8001740839385838,0.47763788044749,2.2616512399666435
6844,6844,1.4344670000000406,0.0,2500.0,-2500.0,0.0,0.0,10.690543826427088,70.00125734167571,109.3844563078685,105.0,11.121285173520969,2.6051213094305563,3.307757453909993,11.638964791323431,0.07277421356579017,-0.16043270154524605,-0.1403217647674508,0.35800582585838875,-0.6201749587643625,-0.14473095827614196,0.12556774724230546,-6.268390447802363,5.575619456301724,19.400979811311032,-318.82688697374493,77.35878374383155,10.995333949832318,5.555344513445497,0.06948907452202946,189.46216,188.3104425826404,6.0,9.424984096937703,0.886524608738446,-2.7805158140947275,-17.603499871771554,15.572276067985241,1.5574729000000002e-19,2.425339796720557e-18,12.151795705283488,1.4428369372745613,1.0943432071634815,5.1459524377206485
6845,6845,1.5311870000000454,0.0,2500.0,-2500.0,0.0,0.0,11.098629590728331,75.44754140649549,109.33601685738104,105.0,11.617381848770735,2.6056175053251405,3.3067653597788285,11.810614737056525,0.11316147603912785,-0.11716900656227795,-0.13504034893132966,0.34116782090476866,0.20917430423004002,-0.19481559650200653,0.1223918131729461,-6.935521665437503,4.696234189383432,20.383578361118133,-317.80111418361736,77.87204334149634,11.145071917437155,5.388859051801688,0.455608939907043,189.46216,188.29446121645802,6.0,9.886449264758744,0.4727834994552446,-2.27760931919636,-14.431979039032422,15.572741936681846,1.5574729000000002e-19,2.425412354507549e-18,12.245469047340045,0.9889538484600132,1.3566335135262737,6.321823021338823
6846,6846,1.6265009999998483,0.0,2500.0,-2500.0,0.0,0.0,11.26856049603272,77.77554605236755,109.35153782873564,105.0,11.690783811348169,2.6066186323773035,3.306412488251536,11.943413236715505,0.08588400702707824,-0.1143904840195048,-0.12991886064252184,0.32744811788686384,0.06355745877345204,0.055655186497364256,0.19979220190519895,-5.871076584942224,4.4221754701394715,21.278495177633797,-316.7666423759331,78.3695632764585,11.273509976796706,5.275435554511674,0.7720919976323478,189.46216,188.3069955264473,6.0,10.32732832086763,0.10280482078666107,-3.8126494587155344,-11.123910054568915,15.57500692303574,1.5574729000000002e-19,2.4257651199940552e-18,12.322925251379829,0.6454715259154998,1.6547492801325363,7.648052079463557
6847,6847,1.7249709999999823,0.0,2500.0,-2500.0,0.0,0.0,11.348052245945961,78.87670551801821,109.37266049915004,105.0,10.221118877639817,2.6095579622447205,3.3083720414964803,11.945372545016294,0.036062429876091866,-0.12457206704969817,-0.12572367195391626,0.3128075063868789,-0.0006982608456389433,0.14178124169816544,0.0936840989219538,-4.344819012850035,4.844732065742956,21.69269385238371,-315.68954107378033,78.87602800932473,11.344713464571022,5.1907632026185935,1.014128894951137,189.46216,188.3217704167522,6.0,10.735221358037332,0.00035690404454245117,-3.9201045872415152,-9.450482770458908,15.579304448864123,1.5574729000000002e-19,2.4264344479955313e-18,12.329764866284552,0.47129819962413705,2.0036985026896525,9.230392007173077
6848,6848,1.8225160000000642,0.0,2500.0,-2500.0,0.0,0.0,11.153904655927407,76.2009808137021,109.44394630620384,105.0,9.240742063533746,2.6120002,3.309117487125112,11.995550189602984,-0.014057746327398129,-0.15139849833229702,-0.12316119301340855,0.29527804490075155,0.18709362328990295,0.26687311236619404,0.05376495519606463,-2.285266140054313,5.6974528920208405,21.707691520687447,-314.61443821613085,79.36931162108978,11.3603430454041,5.141437317729651,1.2132201317720706,189.46216,188.37507051380712,6.0,11.066144900014796,0.16717271816791868,0.6617709746932006,-14.599473218488637,15.583561604921098,1.5574729000000002e-19,2.427097488514512e-18,12.274394093933784,0.47466670133291106,2.3848169673021045,10.995126148175457
6849,6849,1.9407569999998486,0.0,2500.0,-2500.0,0.0,0.0,10.787877870139956,71.2818480889052,109.5381921920763,105.0,11.050608692102065,2.6120002,3.3024813698159154,12.360540261342035,-0.038893844668416125,-0.1840828966117611,-0.11868317944494168,0.2804727326476336,0.5256119199384536,0.07334264959261187,-0.21214437278408674,-0.7753765836069879,7.111432676431103,21.29230543425535,-313.31439399730687,79.95620746171592,11.340085185725286,5.111707532635634,1.488754468834107,189.46216,188.48054728905115,6.0,11.265534338118314,2.7647760532455927,-0.9815445925233028,-8.116580323295626,15.589027948875316,1.5574729000000002e-19,2.427948856771589e-18,12.142337551834506,0.5991377624686357,2.9350499058442665,13.588896487040836
6850,6850,2.035146999999938,0.0,2500.0,-2500.0,0.0,0.0,10.451215025803501,66.90213043958641,109.64303118601966,105.0,12.0,2.6121670978604694,3.2984995897288067,12.506437717194087,-0.061370098381716025,-0.19994451679801006,-0.1159223042502387,0.2740867569632868,0.3469544451036595,0.07842024810734162,-0.1463568134429643,-0.16334857760678426,7.7129471536497975,20.765616199072088,-312.26672977377086,80.42103903438365,11.282108988878234,5.097135037498501,1.6788134694241592,189.46216,188.59275104270264,6.0,11.27776688153718,1.1734898198472992,3.7376058691090788,-11.747502803610438,15.593739130400596,1.5574729000000002e-19,2.4286826105268497e-18,12.019272704025045,0.7495917299853323,3.219158241517817,14.993790110285321
6851,6851,2.1305869999999913,0.0,2500.0,-2500.0,0.0,0.0,10.411189245157392,66.39062915859574,109.75280189141148,105.0,12.0,2.6126592570386906,3.297023062978224,12.372077769380406,-0.09121654181050984,-0.22071541813398235,-0.1112163800046925,0.27038563061608323,-0.018315903165942296,0.1155151858654892,-0.03076778517954096,0.8144649291171746,8.205789763422393,20.315305222798337,-311.20318063511314,80.89065914188436,11.213318100192687,5.089486783709467,1.8298016759438849,189.46216,188.71676731924137,6.0,11.203225733010683,0.344995010046262,-1.6491595478965353,-10.910838732970523,15.598502719390659,1.5574729000000002e-19,2.4294245266027262e-18,11.895887490069175,0.9214484529849768,3.4382479939651045,16.12078970977184
6852,6852,2.251182999999969,0.0,2500.0,-2500.0,0.0,0.0,10.18498984619443,63.53714658523465,109.93063514478467,105.0,10.928181469424107,2.6146079277958645,3.294660400041317,12.183608150778749,-0.07903105483442939,-0.2532954019754875,-0.10630734731953946,0.2679566439656427,-0.12920793161339172,0.10677497027616692,-0.15327991455757498,1.1867345270466956,8.849239719816929,19.5887884851903,-309.8585417397126,81.46696809424031,11.083897580462567,5.103343797221309,1.9324734165604167,189.46216,188.8917856925311,6.0,11.052989853078255,1.64243565030708,-1.8345618542963635,-8.990564161955676,15.603954035434976,1.5574729000000002e-19,2.430273554303561e-18,11.711430165656346,1.1571813152709842,3.610301465496201,17.133045131337713
6853,6853,2.346277999999984,0.0,2500.0,-2500.0,0.0,0.0,9.939437905063356,60.5103782848109,110.06288504498644,105.0,9.057319076521756,2.6174142213852174,3.292321775278629,12.017101397810436,-0.023073688994201744,-0.2891806521067406,-0.11180210256247354,0.2694793292252962,-0.08763822045790515,0.09009037988283244,-0.2467892607709525,-0.2283042208104423,9.523551141556583,18.713649267832675,-308.8002502476076,81.91294880378817,10.977381273611504,5.0480227588556685,1.868716525729496,189.46216,189.03635254123452,6.0,10.848978297910225,-0.5365055310647457,-0.23386993962766026,-9.759216587491485,15.607786725694005,1.5574729000000002e-19,2.430870485424815e-18,11.541848227991604,1.2265650737807832,3.6227857034882285,17.42616724292293
6854,6854,2.4424360000000434,0.0,2500.0,-2500.0,0.0,0.0,10.062097771853262,62.01309936015479,110.16743992722185,105.0,8.82859194069089,2.619621643955518,3.2899644015037337,11.989080414418087,0.04125621935384366,-0.3149724064339733,-0.11867716012871063,0.2741046735357233,-0.12633778133351808,0.06554603493414136,-0.21758101822803272,-2.470926892253827,10.099607432720092,17.790146445138653,-307.7439065129853,82.36370269270462,10.879046229421963,4.960632291358909,1.6462603543374503,189.46216,189.15857009250092,6.0,10.62729784262762,-0.03310067715961407,2.5709550900399067,-8.176312096582597,15.611662258896885,1.5574729000000002e-19,2.4314740892184687e-18,11.401770865182044,1.218198203881876,3.454190797869308,16.854296526989764
6855,6855,2.536563000000001,0.0,2500.0,-2500.0,0.0,0.0,10.290966649756372,64.86622513428135,110.26352240150206,105.0,10.66739598646164,2.6210007469898455,3.2876659883867214,12.135725496769311,0.0504631899915461,-0.33435800504941626,-0.12429537076036053,0.27908026652816537,0.09482954488702586,0.08444708354778398,-0.14973544953459522,-3.5728566174201126,10.643661053968053,17.059738210051588,-306.7185061110057,82.79936352372188,10.79988659713238,4.854660364660605,1.3807496470769065,189.46216,189.24585152045222,6.0,10.476608050610674,1.2387093800797382,-0.27046319742298275,-6.450070937092347,15.614863799068985,1.5574729000000002e-19,2.4319727204240994e-18,11.291724231308867,1.227570928471427,3.248153227565341,16.04829713940995
6856,6856,2.656090000000063,0.0,2500.0,-2500.0,0.0,0.0,10.285855056699699,64.80178899824993,110.32433358708765,105.0,12.0,2.6220002,3.2849536465555733,12.078735307596405,-0.011757263990111184,-0.3487791323549773,-0.12504473749807665,0.28336304075819346,0.4590573720132881,0.015101816070475955,-0.11378128273253613,-2.1752516958562804,11.164934738942966,16.465366225422542,-305.4166913219751,83.34279165578658,10.689887433992519,4.722403545413421,1.1658372606185226,189.46216,189.31673048105802,6.0,10.352670740133807,-0.08722786140310879,1.8587468356982897,-10.837935397459825,15.618034160311627,1.5574729000000002e-19,2.432466495595962e-18,11.144906250310886,1.3418851244483496,3.0953221018181654,15.521795295907197
6857,6857,2.75281700000005,0.0,2500.0,-2500.0,0.0,0.0,9.998559514906805,61.23238428944067,110.37044253395521,105.0,12.0,2.6220002,3.2829806256692518,11.770967131943454,-0.06583980830779562,-0.35632557377461704,-0.12243316086077642,0.2869021092709882,0.5021037175489589,-0.04027369841732751,-0.07559680476178053,-0.3845482752630373,11.19149367561722,16.180879894784535,-304.36622372678613,83.77678200807492,10.60957527555424,4.651816102017066,1.0550794523612226,189.46216,189.35411685502862,6.0,10.221818947719967,1.0391160673290247,2.280927337920585,-8.6007013496937,15.620599769185915,1.5574729000000002e-19,2.432866082225332e-18,11.062430104796636,1.4603246251942599,2.970910369042982,15.032570755429385
6858,6858,2.850261000000046,0.0,2500.0,-2500.0,0.0,0.0,9.797132927540318,58.79012296801565,110.40885797541144,105.24212596494348,12.0,2.6215159238575163,3.280789418600476,11.500569664876444,-0.10047214996909404,-0.33324109140075225,-0.1099409601593845,0.2915201194701212,0.2667274183104706,-0.1844416075154479,-0.10631166979746932,1.3964221141235014,10.682524556440317,16.021365135502773,-303.32154060513193,84.19810287973237,10.528235623965172,4.587570736678622,0.891231358892062,189.46216,189.3849052510231,6.0,10.049450026449602,-0.43866618314782135,-0.5554209643003962,-8.60555081355285,15.622455322981448,1.5574729000000002e-19,2.4331550797004356e-18,11.022935154729085,1.5503513421282331,2.706661546638649,13.79592621413578
6859,6859,2.9464020000000346,0.0,2500.0,-2500.0,0.0,0.0,9.759494296116136,58.33923491576764,110.43902876694472,105.7136411342926,12.0,2.6205728463673013,3.2784319370567636,11.271884336226954,-0.05326275658557197,-0.31456604316579634,-0.1133136327460906,0.2965731785901514,-0.4191860906344986,-0.0905469113472809,-0.005353401514999551,0.36497592939448,9.824198322063053,15.609153731036887,-302.29990491222253,84.61068861457063,10.465078885054352,4.536419058128009,0.6475711364622471,189.46216,189.40131812953803,6.0,9.87889178101646,0.3219796189461125,2.2354340729869167,-7.634745804609183,15.623766259795485,1.5574729000000002e-19,2.433359254556583e-18,11.02356083830102,1.5468058951934565,2.301028936364105,11.790472973251752
6860,6860,3.044336000000044,0.0,2500.0,-2500.0,0.0,0.0,9.84956965347548,59.421097065245206,110.43245210341921,106.0,11.189975573910838,2.619797614144088,3.274570086220512,11.087638632139006,-0.05472989307054703,-0.3011694377709407,-0.11909434541058896,0.3019566886953039,0.11775721375310155,-0.09594219742876292,-0.02919068626206928,0.08531819139159141,9.124500152607306,15.446478330488931,-301.2749984126977,85.01969805555584,10.411034412698378,4.454765917063433,0.285630110039428,189.46216,189.3933411037861,6.0,9.759843020281012,-0.6757823265485454,-2.29902395436912,-6.715860563491478,15.625101645176807,1.5574729000000002e-19,2.4335672372108296e-18,11.034167639192072,1.5048262546098945,1.8203143755237452,9.367750897279679
6861,6861,3.1618459999999686,0.0,2500.0,-2500.0,0.0,0.0,9.82506327885714,59.125799611428526,110.41345161205153,106.0,8.78300722541184,2.6191959322311718,3.2673490608265965,10.952848404623065,-0.05986267406269598,-0.3000390783630203,-0.11940195843285464,0.3091102897086089,-0.2580553007338746,0.009362125385803348,0.08101545930515397,0.20933415050487547,8.862176620012004,15.534723929287937,-300.0624049534805,85.50596209459711,10.337162984277072,4.4056231770954115,-0.04423929335638024,189.46216,189.3563681354925,6.0,9.647785225375156,1.3619397150400805,2.18071932337522,-6.505369300864532,15.626573391249854,1.5574729000000002e-19,2.4337964576732747e-18,11.0132834952872,1.464642848817676,1.4449875837565196,7.4747430833683035
6862,6862,3.2581570000000966,0.0,2500.0,-2500.0,0.0,0.0,10.019051292767148,61.483613636632064,110.37198884153715,106.0,8.286398958620994,2.617568147927104,3.261849668734961,10.818497929075766,-0.06378612847732147,-0.2946843250550441,-0.12026957247007647,0.3113865446805503,-0.02662139892744847,-0.009451674599962745,0.05773121994643084,0.17295789809304105,8.831411403419551,15.65067591286678,-299.08145493620185,85.89530542655733,10.275921119931061,4.351498958013549,-0.1908773494823192,189.46216,189.31365206041832,6.0,9.62996397763674,1.6817873258495513,2.0117535817349714,-5.99661745447463,15.627698001436693,1.5574729000000002e-19,2.4339716126621813e-18,10.966922094564467,1.4057616816300424,1.2930478552275793,6.724376996051338
6863,6863,3.3540219999999863,0.0,2500.0,-2500.0,0.0,0.0,10.118489030095759,62.71009403670769,110.3249700689128,106.0,8.759087412725375,2.6152046111188905,3.256650190277504,10.66912837757878,-0.049777146905028234,-0.2866137005627744,-0.1185454671404706,0.3124314079073561,-0.05850704913712329,-0.026094649202232974,-0.03686893285244442,0.286991282858478,8.682246059764276,15.757161857720751,-298.1114474109379,86.28328468141095,10.226467354982542,4.282363916798015,-0.3285021575142311,189.46216,189.2615906981176,6.0,9.666294720102249,2.408652121512917,-1.6109243532526172,-5.429317339553021,15.628817403743394,1.5574729000000002e-19,2.4341459565378697e-18,10.928570309183524,1.3356205699276795,1.1335809398912542,5.9219056406187445
6864,6864,3.4518679999999904,0.0,2500.0,-2500.0,0.0,0.0,10.129641820683744,62.84841439748593,110.25286514001681,106.0,9.248487123429497,2.6147454613702883,3.2540002,10.522181418309717,-0.04921431111926247,-0.28233507467821073,-0.12486876577887734,0.3129859573702515,-0.002837233087660429,0.020142250541201515,0.05330030609418096,-0.3336132426092064,8.717908563124588,15.753381969870455,-297.13715850163237,86.6657002212609,10.176185712580873,4.1987204838109395,-0.4591565495480037,189.46216,189.19474104893695,6.0,9.726624896490117,2.52978447265975,0.5251123484775042,-5.4084291464327405,15.628632989909091,1.5574729000000002e-19,2.434117234582938e-18,10.877171354370603,1.2564320949142893,1.009639388935704,5.303105909081762
6865,6865,3.5718850000000657,0.0,2500.0,-2500.0,0.0,0.0,10.0853999788116,62.30061410594189,110.16396570459835,106.0,9.857274742443716,2.6165718242273317,3.2540002,10.348677555678282,-0.07808787370640248,-0.2705017874025201,-0.12157380939385938,0.3136161388500274,0.07542068324283932,-0.03700910664882557,0.0763840505953367,0.6013106626799405,8.653321534615085,16.234341005755528,-295.950019094972,87.13019871121817,10.121268706921052,4.117853132192597,-0.5903233498043545,189.46216,189.0988560234589,6.0,9.806800541652132,1.939754674244556,-3.618057405007405,-6.463927865371227,15.627225063785742,1.5574729000000002e-19,2.433897953904706e-18,10.834004794708925,1.1223314847206678,0.8824998488660697,4.656830833519983
6866,6866,3.6684169999999767,0.0,2500.0,-2500.0,0.0,0.0,9.971380755622418,60.8999396961264,110.09147928462265,106.0,9.313268738390539,2.6118495842110554,3.2457594591972496,10.299416859229881,-0.085723867394651,-0.2542921452653768,-0.1205953737011106,0.3139262251146855,0.16388190599001878,-0.10149522312832984,0.029435282938268293,0.9968919246890332,8.408498633803465,16.65008918630753,-295.0145840795056,87.48008279535446,10.070101943361884,4.075035498588553,-0.6492567518599867,189.46216,189.02401263879003,6.0,9.85480483575382,2.5464628876469506,-1.6867896042736883,-5.212340513859632,15.626092641507736,1.5574729000000002e-19,2.4337215822037717e-18,10.794172279554507,1.0242225597852128,0.7901432048776044,4.186635850542356
6867,6867,3.758008000000018,0.0,2500.0,-2500.0,0.0,0.0,9.796639951674523,58.78429393790541,110.02322168364249,106.0,8.413715547969117,2.605103025238213,3.2349648658898515,10.288172444349613,-0.06805699552609533,-0.2451447741642236,-0.12062344062003807,0.3148768724911982,-0.04909632778505102,-0.06612740624015423,0.04149140944587706,0.7744239042856278,8.099533877769744,16.954752506478254,-294.14291685642115,87.81002884652817,10.038645508107745,4.036002723664375,-0.6769436477263843,189.46216,188.956601213694,6.0,9.86176508279269,2.8817258299685333,-2.11885717953035,-5.3441745730728,15.625808802038472,1.5574729000000002e-19,2.4336773749756382e-18,10.767135151024227,0.9353059515428871,0.7169852030550116,3.8097104374124666
6868,6868,3.873739999999998,0.0,2500.0,-2500.0,0.0,0.0,9.672571224497103,57.304688774435256,109.92859861351884,106.0,9.444516050878136,2.6688090673531137,3.3116153485359106,10.279750477756512,-0.05069973490827979,-0.23052638481695276,-0.12550983745243566,0.3172794005421652,-0.3893063179121371,0.001363872732832624,0.17816068902782564,0.13183147019173408,7.818111877040815,17.45545678158535,-293.0157964298084,88.23398310421041,10.004526939886574,3.9967198338202117,-0.6860468361330894,189.46216,188.86820740574288,6.0,9.822007745368307,2.8458158370505213,0.6277331949874211,-6.726996766928169,15.625863675151447,1.5574729000000002e-19,2.433685921314278e-18,10.736163542400208,0.8059259744167829,0.6712327734834261,3.5775174477703477
6869,6869,3.9686080000000175,0.0,2500.0,-2500.0,0.0,0.0,9.488325263071497,55.14237912446446,109.84983566866676,106.0,11.283265899455314,2.7538512478498083,3.4155045770742833,10.27561283090975,-0.07634780311797705,-0.21312734711512005,-0.1256835249808079,0.31846260100818696,0.17595282668928722,-0.09396722134884217,0.11037305422670368,0.4247818118284136,7.390465533841857,18.023672014387017,-292.09071800701525,88.58171641531722,9.995363285504254,3.958957772358638,-0.6865319956479121,189.4599183279535,188.79538280925652,6.0,9.771694907235423,1.2843921003745051,-3.6323269854438687,-7.69291544323218,15.625908655817824,1.5574729000000002e-19,2.433692926931169e-18,10.728991084883727,0.6716245312517988,0.612892249424327,3.269460840529545
6870,6870,4.065491999999949,0.0,2500.0,-2500.0,0.0,0.0,9.34295917426427,53.4656767905365,109.7657321483259,106.0,11.379849374983275,2.8114961496881605,3.4857673230233965,10.280201816325482,-0.11323878049056545,-0.3042625928562934,-0.12190959269131862,0.051359201143606266,0.13027866552874945,-0.12995499605196478,0.12361753531884652,1.4591903733033895,6.795124668278585,18.718196136190862,-291.14927824531236,88.93661847429337,9.973594643945148,3.958295935297645,-0.6816823374925038,189.32774444816468,188.71985251118164,6.0,9.690274543089878,1.382605940224087,0.4200772999071001,-8.038909361047258,15.629865401688384,1.5574729000000002e-19,2.4343091793777274e-18,10.72172728137353,0.5594712655846715,0.5259958168438458,2.8086143680112796
6871,6871,4.183508999999958,0.0,2500.0,-2500.0,0.0,0.0,9.141364032490864,51.18331309602764,109.65916147754056,106.0,10.15810968192732,2.859754867563871,3.5444110115510363,10.292419824125886,-0.14867240456414876,-0.4251697371416805,-0.11356700233180678,0.02789972224123517,0.08356255400396995,-0.2154889276384428,0.12152676466477501,2.5184487875777193,5.629894711686503,19.39202419112991,-290.00168710642447,89.37419334282524,9.929740197535349,3.9709829549095335,-0.7152424842474093,189.08962085301903,188.6181451465814,6.0,9.563746265344847,0.8396626907221423,0.9650285973750916,-9.761139043800632,15.636635672812293,1.5574729000000002e-19,2.4353636307578407e-18,10.703526381850326,0.4613528259294298,0.2920725299706296,1.5630709902441655
6872,6872,4.2789280000000645,0.0,2500.0,-2500.0,0.0,0.0,9.09396235335526,50.65385470287056,109.5661532646359,106.0,9.593301702483783,2.797674886017276,3.464153427066668,10.159383456823836,-0.18953041232084133,-0.27561723328243715,-0.1142548009847138,0.21106110462421354,0.20071701403674125,-0.21058443108895894,0.08058238906216196,3.686686311994252,4.411308086101741,19.83923519823257,-289.0783602269321,89.7194138436645,9.884300506781997,3.99233536914441,-0.779491272084941,188.97719650911273,188.52790560835166,6.0,9.442120631183624,-0.17364862795103564,1.3193871526183167,-9.450004962704003,15.642109566407044,1.5574729000000002e-19,2.4362161748509723e-18,10.680978523892476,0.4023536712453039,0.011252352206271854,0.06036076667138976
6873,6873,4.375519000000054,0.0,2500.0,-2500.0,0.0,0.0,8.963175214360389,49.20733995829581,109.46672605489536,106.0,9.103153781746908,2.715330035333481,3.3582814271727104,9.997144004912007,-0.20055596068708725,-0.18996886368252056,-0.11543614486207475,0.31361241681671737,0.08483189053512256,-0.14604575294953964,0.03419280137986793,4.2787543135568304,3.416501143954993,20.071892828943557,-288.1438117563431,90.07642413442514,9.8437696014936,4.030490571081529,-0.8754195518445467,188.90829917160056,188.42607432907104,6.0,9.320549799691474,0.5804327380423434,-0.3952490116704624,-9.517825075310444,15.640845422466311,1.5574729000000002e-19,2.436019287858033e-18,10.66242459360165,0.3886556953972381,-0.2640353313276745,-1.4185346752017072
6874,6874,4.473569999999995,0.0,2500.0,-2500.0,0.0,0.0,8.666165947511129,46.00032361801688,109.3517196229,106.0,10.149516123465844,2.7029814365350187,3.3405981878594555,9.952271182847653,-0.19727659711049492,-0.15062815053228276,-0.11706430760517425,0.3780405362538805,-0.0902352507383022,-0.026597668155443226,0.03123857078754983,4.270600833770619,3.0385089171330617,20.24045106804207,-287.19985637087143,90.45010321957822,9.821223453879824,4.089747504130525,-0.9525915413848036,188.8663797644453,188.31326494564118,6.0,9.164364069055745,1.1117784771349288,1.0656176960526396,-9.892038778909694,15.637993456325296,1.5574729000000002e-19,2.435575101860398e-18,10.665195318460787,0.40994774242563736,-0.4100222700415432,-2.2016457328894865
6875,6875,4.568279999999959,0.0,2500.0,-2500.0,0.0,0.0,8.672129381007904,46.06358458839275,109.24109109173891,106.0,11.550268436855063,2.709051363226372,3.3462011037295247,9.93919749458935,-0.20392972070910592,-0.12604585131350252,-0.12234679060900497,0.4176928509941396,-0.18460979750449646,0.03193803307772418,0.15004693149886614,4.198496672490064,2.9543177031835137,20.567694574397578,-286.28663293397005,90.82137885608536,9.847206946364887,4.160589890560527,-0.9932830207781046,188.84197099865116,188.1944740585501,6.0,9.002652678747959,2.7883862459793614,2.5180236445214055,-9.084876305694698,15.635238668376006,1.5574729000000002e-19,2.4351460511027724e-18,10.718194313892672,0.4030255029365246,-0.4627396960885146,-2.4721120353213655
6876,6876,4.688195000000064,0.0,2500.0,-2500.0,0.0,0.0,8.849548660646088,47.9677228839706,109.10341702479151,106.0,10.637910306940343,2.6519762224947687,3.272631127790012,10.18244652125412,-0.19289024722582815,-0.10673588020442963,-0.1271574979062161,0.4488154033368529,-0.0692718233889058,0.011611385018406284,0.1177066528956032,4.200935710208223,3.0067306782016368,21.23726252921438,-285.14259959722386,91.29579262460264,9.921109784572943,4.261711195208311,-0.9757029555968568,188.8243388124157,188.0314103868646,6.0,8.924005544309493,4.6493248679203365,0.2543594495572914,-7.835345890606271,15.627344629432649,1.5574729000000002e-19,2.4339165759301897e-18,10.827398342147786,0.34812645334032044,-0.4270922767436558,-2.2588903009081616
6877,6877,4.783833000000072,0.0,2500.0,-2500.0,0.0,0.0,9.088384383259662,50.591810400302045,109.0006963596888,106.0,9.182520962366034,2.5889092538705927,3.192099681082857,10.446842494750012,-0.17773443473004927,-0.08882817352737378,-0.13015664370335012,0.4605037577181635,0.11993894802788167,0.016369803111510654,0.12301598028140998,3.911578906235656,3.030923415710676,21.944735081982532,-284.21650566049703,91.68921486193935,9.992649128791893,4.343394599490418,-0.8882256113991547,188.81640073141548,187.93131638530176,6.0,8.939426286084734,-1.1502489777997384,-1.5764001957604832,-13.287868230316407,15.619906419499502,1.5574729000000002e-19,2.4327580948906508e-18,10.923537148596429,0.2726863809791406,-0.3259170048859452,-1.7089822149115794
6878,6878,4.880225999999993,0.0,2500.0,-2500.0,0.0,0.0,9.264956632882768,52.576710962461156,108.91273000358841,106.0,9.861108843814806,2.5797083367342784,3.1794167873576717,10.651360944641937,-0.15175887693147466,-0.0778406853723509,-0.13202145980621724,0.4653978088191992,0.07497469169705526,-0.05818603530123453,0.16011825568949406,3.43029209691496,2.9901577913460264,22.809259198461728,-283.2638990435254,92.1039837511645,10.086097812163846,4.461806973970828,-0.8102335168342903,188.81158922321384,187.83782890561906,6.0,9.02733146073684,4.311508939999165,1.9896808437103743,-9.686194225804076,15.612409489721744,1.5574729000000002e-19,2.431590468394445e-18,11.05430672452378,0.18860127616627456,-0.2440742517424327,-1.2648602054995255
6879,6879,4.97615600000006,0.0,2500.0,-2500.0,0.0,0.0,9.482736283741783,55.07743988936716,108.83124204132372,106.0,10.839866546954047,2.578240200179569,3.176480416372484,10.846133482877221,-0.1258235181366142,-0.07469316722924495,-0.13212431543461145,0.4658847211895154,-0.23565999796627274,-0.03428470216411842,0.20579076450412165,2.568458432347174,3.0696731868847986,23.74826647673504,-282.30358342752135,92.52932809424213,10.161590880505887,4.569934698746434,-0.7029493269719558,188.8086815471132,187.7625371432142,6.0,9.163847196450927,-2.3048689407871747,1.9937336928331424,-19.61013010784354,15.605343657445145,1.5574729000000002e-19,2.43048998416577e-18,11.163200849686367,0.08585437836026412,-0.1100593418149961,-0.5648676899885526
6880,6880,5.0965589999999565,0.0,2500.0,-2500.0,0.0,0.0,9.644955398215645,56.977925367193755,108.76100068339295,106.0,11.0,2.5769866428320465,3.1734664550613383,11.087786419086935,-0.1159199561815884,-0.07864639186093994,-0.13291696638401113,0.4624320053443259,0.2877513059985993,-0.012752633747396276,0.212384872699007,2.0495810692237337,3.4310717936784902,25.01675639189333,-281.06689767038483,93.08282942886906,10.311182186542672,4.7225855659403235,-0.5671391017659152,188.80662760191848,187.69407741306952,6.0,9.376333366406977,8.698580076892151,0.19099737680323114,-3.1167617786095287,15.596584934205652,1.5574729000000002e-19,2.4291258367573587e-18,11.354546012549866,-0.07672223430926035,0.11737569398127234,0.5922643089715697
6881,6881,5.192492000000016,0.0,2500.0,-2500.0,0.0,0.0,9.603122751991998,56.484750288844225,108.71574760718646,106.0,11.0,2.5760582095395264,3.171145232551116,11.279991795392867,-0.12442071637526805,-0.07791902178943154,-0.1316731158197981,0.4580319718195981,0.18857439821011795,-0.05033572438724681,0.18473875163736786,2.264315872164118,3.7322130290503415,26.009628820702485,-280.0711501005188,93.53903744796705,10.382227175437881,4.850435417355909,-0.42330728277139096,188.80569036377318,187.6567767335675,6.0,9.532421872553897,4.36123497849854,2.3292180439276766,-9.592874192360512,15.589606282539716,1.5574729000000002e-19,2.4280389306725355e-18,11.460997194388789,-0.18046329414258955,0.3357662430757417,1.6780815206584638
6882,6882,5.288082000000031,0.0,2500.0,-2500.0,0.0,0.0,9.451971142051619,54.72066775172117,108.68936855048004,106.0,11.434303774151964,2.5742628980426376,3.1679599867201813,11.338037200060107,-0.11349312077369272,-0.08494644434008422,-0.12734340606828853,0.4547907325875911,-0.12595326722326186,0.16145409497323526,0.09661007069670664,2.057917011418206,4.036895725061823,26.76047314540811,-279.05879162079884,94.01252678022615,10.437919031535015,4.984835284976357,-0.2891110927361037,188.8051197243033,187.63252692238538,6.0,9.628551278993122,-0.2946669182095745,3.0445481001973764,-16.344769659673922,15.585604927441391,1.5574729000000002e-19,2.427415730459644e-18,11.55612397386573,-0.2293557527726461,0.5429108554157795,2.689798533052491
6883,6883,5.384198999999853,0.0,2500.0,-2500.0,0.0,0.0,9.427673290659088,54.43964689466629,108.67117445953913,106.0,11.900217161581349,2.5723991513102424,3.164698499825498,11.38742401912762,-0.11562488552171478,-0.09517128905142064,-0.12484372771818288,0.450114172694033,-0.14602927556392326,0.06659947939186282,0.11773996888106952,2.0437273871563484,4.513504185952669,27.381823081950635,-278.03889345250514,94.4999334284778,10.530458807480818,5.11655202002837,-0.10081852714385113,188.8047906042526,187.60704455018657,6.0,9.7167241008888,6.603938341867287,0.6233843317934338,-5.841318601629633,15.5817506264328,1.5574729000000002e-19,2.426815433522711e-18,11.675473242477064,-0.26965696899495784,0.8435907820277676,4.132624252537071
6884,6884,5.501115000000027,0.0,2500.0,-2500.0,0.0,0.0,9.48499929346493,55.10372665400825,108.68219146382636,106.0,11.017035627369168,2.572491580482753,3.164,11.409796572471569,-0.08681492784937897,-0.1013971576871548,-0.12008293601568887,0.4464903633908607,-0.3376771296398673,0.1612836470913451,0.040880600379597634,1.2787961614638976,4.891908692675208,27.746370692663387,-276.7910947845898,95.10335482071336,10.606530870389891,5.270586947225841,0.1260808680955699,188.80455717254472,187.63479091717454,6.0,9.750796079528431,7.4887397995194975,0.9611968479817772,-5.224769873880609,15.577105580700538,1.5574729000000002e-19,2.4260919802379853e-18,11.786844510972251,-0.2470664643302494,1.1583858771042372,5.612882269889925
6885,6885,5.590261000000055,0.0,2500.0,-2500.0,0.0,0.0,9.592506344267829,56.3599238154817,108.69721838256493,106.0,10.107387207207344,2.572946495657676,3.164,11.420712353513512,-0.10108039091773263,-0.10550495048979013,-0.12076072851803588,0.4433722748047976,0.1859575227154168,0.0722704728087254,0.0322913469670747,1.2552767895355181,5.05054473833482,27.984593681104432,-275.83586621063967,95.57525573996892,10.633147652162183,5.3578340938793465,0.27988411427611304,188.80445571299998,187.66303845050004,6.0,9.776980706550011,-2.4634953576046303,2.1922413481500107,-18.517509797640262,15.57549707898386,1.5574729000000002e-19,2.4258414604546524e-18,11.833075306113319,-0.2280057330023501,1.3491554101936734,6.50452550873491
6886,6886,5.6856820000000425,0.0,2500.0,-2500.0,0.0,0.0,9.72074995245208,57.87695597211853,108.7295972988176,106.0,10.0,2.57342456828705,3.1631512634259,11.691077401629839,-0.09864693006024683,-0.11956513257027003,-0.11875178918985127,0.44016657187179664,-0.13914569777294794,0.17707962831744278,0.0020759281108884385,1.3793069616291709,5.417989656785625,28.17731496067254,-274.8157550632397,96.08566880768132,10.656022953508524,5.457405278509985,0.3837469302223717,188.80438038138982,187.70032221146167,6.0,9.817238733027184,-2.8448561982035807,3.273464034178692,-19.049568532485907,15.573775354595696,1.5574729000000002e-19,2.4255733065470685e-18,11.880467257342012,-0.18375240664806566,1.5327098031720696,7.351175811990071
6887,6887,5.806349000000068,0.0,2500.0,-2500.0,0.0,0.0,9.795638454042852,58.772152024879134,108.78093031045157,106.0,10.027210850874427,2.573972891870211,3.1618913565965023,12.050259483254646,-0.08942482979057223,-0.14288525051152967,-0.11751995382087115,0.436159411163298,-0.06632276030515946,0.18062432379340526,-0.0030870959176914647,1.214173422631621,6.006091977551218,28.27319325615206,-273.52689300256344,96.74180946702516,10.700740943718797,5.560839294510669,0.43188439280241575,188.80435,187.75400437229763,6.0,9.865257935942633,2.881952649666045,-1.5463242505098558,-6.111710985105934,15.571445460949633,1.5574729000000002e-19,2.425210431925706e-18,11.94678997675176,-0.13448405758606166,1.7087506805706798,8.139814181852383
6888,6888,5.90165300000001,0.0,2500.0,-2500.0,0.0,0.0,9.805091017319276,58.885633399096385,108.83627966617462,106.0,10.496247373161175,2.573503902251576,3.1600152105073547,11.951292308015619,-0.08583285971279381,-0.1615588726638286,-0.11605401067753095,0.4332076789148278,0.06415719658862458,0.010264000088174545,0.00017983386753705425,1.1059106030819108,6.579972900929122,28.283867106001647,-272.4901277015574,97.26442327661863,10.70281018595563,5.639274011020238,0.5232216917100303,188.80435,187.80375034689598,6.0,9.894778201539538,1.8005025983329332,3.5064095083795825,-13.285846414928232,15.567705066220336,1.5574729000000002e-19,2.424627875583088e-18,11.957484315284796,-0.06793585495681434,1.917708494404124,9.111351185481679
6889,6889,5.998170999999957,0.0,2500.0,-2500.0,0.0,0.0,9.786793773454404,58.66606798697581,108.89671627833462,106.0,10.971258569523638,2.5730289385563334,3.158115165721905,11.851064470571945,-0.06938000060147426,-0.1788477540717412,-0.1151810623449054,0.43051333673349695,-0.04122529298090585,0.02759789237091637,-0.006215435309121227,0.5636963826620752,7.069570217013244,28.16720961871661,-271.4451053798498,97.80080615328524,10.70480743978374,5.7007509605610664,0.6269964156473935,188.80435,187.87386784020416,6.0,9.899112059935954,-1.2437879864126005,2.977624514834061,-16.620568105070394,15.563917025650339,1.5574729000000002e-19,2.424037898529901e-18,11.958723949342158,-0.006516528546528754,2.1181743293457385,10.044270300624516
6890,6890,6.094349999999849,0.0,2500.0,-2500.0,0.0,0.0,9.73419176801901,58.037121602305724,108.96619529643093,106.0,11.466107029347349,2.5730002,3.1570679393306023,11.947077439427071,-0.07313962716181749,-0.1892457362259683,-0.1149121117152812,0.4279362497714453,0.07679821818645094,0.1104629471538099,-0.033499447280009684,0.4619834928371291,7.485525895349532,28.09574639756178,-270.41050934972617,98.34418635053541,10.712579330241066,5.7639969522230645,0.6634564226923421,188.80435,187.94967918187226,6.0,9.883066291947651,5.3476614319179125,-0.4396466873933296,-3.6173149351247598,15.56014228980852,1.5574729000000002e-19,2.4234499936520717e-18,11.974659399599338,0.05747095193471687,2.2373271374009267,10.583035729407827
6891,6891,6.191481000000067,0.0,2500.0,-2500.0,0.0,0.0,9.782136877774967,58.610257966658274,109.03138586705757,106.0,11.967257605151818,2.5730002,3.156065588063936,12.056829415528247,-0.06939887147731456,-0.19768055327014794,-0.1138021458453613,0.4270849858659442,-0.11668330494532027,0.1441243453505312,-0.054080409015937934,0.4056563007407107,7.69140736685306,27.89492630431991,-269.3678719128997,98.89978387620096,10.670084250669396,5.815386872042841,0.6521980287809106,188.80435,188.024699279856,6.0,9.847064270053998,-1.7817910140965803,1.7673961983461532,-13.997687378535796,15.559967214421675,1.5574729000000002e-19,2.423422726135025e-18,11.954425587012661,0.16242593889364496,2.252775136600514,10.672060289724893
6892,6892,6.311758000000054,0.0,2500.0,-2500.0,0.0,0.0,9.88307213366299,59.82601129137734,109.08742960032654,106.0,12.0,2.5730002,3.1554305048134754,12.257681731591461,-0.1246898971727968,-0.21471424289531846,-0.1140839571470357,0.4263097212875509,0.13879790769907074,0.09733943152012206,-0.013073986166465405,1.5132039837718474,8.135342841866803,27.71993049064859,-268.0770307389232,99.58973832071008,10.659537636193768,5.876037070326168,0.6559737387275961,188.80435,188.09020635622468,6.0,9.83357150022508,6.966439335308523,0.1544377924564908,-4.205259127984069,15.559988353435472,1.5574729000000002e-19,2.4234260184791366e-18,11.954106968246865,0.30354681946348944,2.3362205055084173,11.058077399521661
6893,6893,6.408564000000069,0.0,2500.0,-2500.0,0.0,0.0,9.988025284196073,61.10340220100796,109.14060404984127,106.0,12.0,2.573053577585736,3.1548934234753587,12.382166437455425,-0.11643799287102476,-0.2090755340103104,-0.1113997429630102,0.4246114081951167,0.02355380128490825,0.047515330351214906,-0.0694736444441004,2.001134199582054,8.189508377868478,27.443910495065623,-267.03475801613104,100.15287859692236,10.617173972779646,5.9288109018307775,0.8366643405484224,188.80435,188.1416186148597,6.0,9.843103712430619,0.7553623809642058,2.813858211135848,-15.009731380699826,15.559966688027625,1.5574729000000002e-19,2.423422644150578e-18,11.911682106525523,0.4539747867709072,2.5055254114834216,11.878537848305704
6894,6894,6.503673000000049,0.0,2500.0,-2500.0,0.0,0.0,10.092995882644844,62.394504612605026,109.2064795054693,106.0,12.0,2.573526443532244,3.1539475024170485,12.188745396095598,-0.1161501150991409,-0.20930532891996986,-0.11351323761356436,0.4214373178236625,-0.047087964712884095,-0.04292715096110345,-0.008554769422356015,1.8692985470816201,8.168706660735685,27.222910225760607,-266.0069202549373,100.70962241861595,10.611307037646538,5.97553992710654,0.9230778557271206,188.80435,188.2041967397931,6.0,9.878086795012742,6.370346833282765,-1.0326828152414191,-3.53112170677705,15.559510556359127,1.5574729000000002e-19,2.423351602879327e-18,11.91483168086157,0.5410175782846061,2.5761589078477014,12.20037264342774
6895,6895,6.599762000000055,0.0,2500.0,-2500.0,0.0,0.0,10.049599140003211,61.85909777831465,109.27990292614622,106.0,11.99589175448561,2.5740001,3.1529958925761346,11.996060923234468,-0.12140175900155498,-0.2127887847683322,-0.11533438172137628,0.4179684254081357,-0.12279459338686664,0.08902808330102102,0.035066267629083686,2.1012216486736164,8.221702480549611,27.20245226355445,-264.97254176022756,101.27859303824593,10.56914143099116,6.024794338745241,1.017555727626852,188.80435,188.27227421406673,6.0,9.913673054011289,1.9160251102956203,2.508920343029483,-12.467323490904635,15.55904972472496,1.5574729000000002e-19,2.423279829601159e-18,11.883876270764567,0.6221356873100472,2.668016197862828,12.653507722170112
6896,6896,6.719782000000009,0.0,2500.0,-2500.0,0.0,0.0,9.980642687150883,61.013098648045215,109.39928915755772,106.0,11.395317300667632,2.5740001,3.152395438237208,12.15100853174505,-0.1126799707952438,-0.2196850282681628,-0.11623569386907752,0.41414771834383257,-0.06117890239103721,0.12131199316866224,0.013741022395288068,1.9789613637479049,8.27867409105362,27.266382642408782,-263.69724059760966,101.9934327104613,10.542755532296876,6.087322537031816,1.0455277164335135,188.80435,188.37075884121032,6.0,9.927743434258565,5.207694063933358,1.6270308957365949,-5.776939579589588,15.559188285996099,1.5574729000000002e-19,2.423301410143638e-18,11.88282514840344,0.6711416607832944,2.700218413867129,12.802323584365563
6897,6897,6.817691999999852,0.0,2500.0,-2500.0,0.0,0.0,9.954580099161404,60.69490073641878,109.499668486242,106.0,11.09427067234298,2.5740943612452756,3.152094451818209,12.232543264101574,-0.10286297431035003,-0.22694731774375035,-0.11609040823190934,0.4114352903996927,0.039903105651730116,0.014679325056156241,0.004718699079812046,1.743841579604575,8.372178314121461,27.365481788103384,-262.65914080037254,102.58374097846644,10.509831947983306,6.1285714995344875,1.0466859300928009,188.80435,188.4662359353164,6.0,9.912542788979854,5.605599146499635,-0.7577963672249286,-2.1939301891226526,15.562408821743539,1.5574729000000002e-19,2.4238029998586497e-18,11.868902062492975,0.690569518629469,2.7143492355901464,12.881687203557851
6898,6898,6.908603000000085,0.0,2500.0,-2500.0,0.0,0.0,10.12395618358886,62.77790777095936,109.59749460164706,106.0,11.547506755341615,2.5745475520046663,3.1525475972539905,12.134191034090867,-0.0925285765003395,-0.23235323236524266,-0.11713932752066288,0.4081185775436797,-0.14996799436091834,0.10806619132018658,0.03231428065568459,1.3605801272795293,8.50837863314924,27.462702734334048,-261.68766072961535,103.12541996572529,10.468207509853947,6.147131106428446,1.0571200244836627,188.80435,188.56304973175853,6.0,9.919816836552886,0.1553684212697597,-1.3958330238994754,-8.145857152946743,15.565399140662295,1.5574729000000002e-19,2.424268733926481e-18,11.833604443841574,0.6873003088956698,2.745661475542848,13.062769741375115
6899,6899,7.020970000000034,0.0,2500.0,-2500.0,0.0,0.0,10.161787964341107,63.247938275969254,109.71736426203293,106.0,12.0,2.575108905872333,3.1528911376813054,12.007581359955022,-0.08317018049508942,-0.24282745249732435,-0.11758903938971013,0.4028371137199245,0.08302312644467448,0.008977489168534795,0.0060302537096968535,1.0422104714622322,8.653125984207925,27.611264478341546,-260.4983896191653,103.80147304292696,10.41781740187965,6.18212303493529,1.0382014175771823,188.80435,188.68834869019767,6.0,9.95846394603975,2.10735067414006,2.1045143256132333,-10.423329408251421,15.568733177192485,1.5574729000000002e-19,2.42478800108082e-18,11.802696775236141,0.6940845268704314,2.7481199172639377,13.107120830474145
6900,6900,7.117615000000001,0.0,2500.0,-2500.0,0.0,0.0,10.261009615805847,64.48910416463013,109.81874149458281,106.0,12.0,2.57559607125218,3.1524041671286454,11.88045710783084,-0.0906765850589789,-0.2527945814074388,-0.11765694994286052,0.3981618768224319,-0.12225391621175305,0.0590531504176953,0.058844111035234785,1.0780726815986297,8.926442523163509,27.74856193320655,-259.48132162064724,104.38232009090382,10.364322066115356,6.205952536962144,1.0982788390905842,188.80435,188.7938801315593,6.0,10.00169158484078,1.8729687590652004,2.7454195004166246,-13.24419730142456,15.570022980106351,1.5574729000000002e-19,2.4249888843892883e-18,11.745356970568373,0.7142674797420214,2.8525965184676902,13.651122462135104
6901,6901,7.214142000000038,0.0,2500.0,-2500.0,0.0,0.0,10.35207490452493,65.63884916792709,109.92494408827869,106.0,12.0,2.57608235129054,3.152082343074589,11.782231036571146,-0.10045864442825092,-0.25675765432404063,-0.11562866202983105,0.3919390105646921,-0.03408170075873024,0.01684874467714835,0.014563136476615366,1.469705654063569,9.118505902235096,27.8404482858939,-258.4805402042459,104.96528944979137,10.290246376300184,6.230491396146458,1.2300934178447174,188.80435,188.90468167838446,6.0,10.066443572774897,-0.7648280612166789,2.005872387635035,-16.68150972744056,15.571311208218171,1.5574729000000002e-19,2.425189522426606e-18,11.662172300101561,0.7747341709801239,3.0051383708688326,14.449773979482744
6902,6902,7.309266999999977,0.0,2500.0,-2500.0,0.0,0.0,10.424989535586873,66.56674354340052,110.04170258528616,106.0,12.0,2.576560164895712,3.1525601088936224,11.824282839006536,-0.11507744796374253,-0.26440409665707226,-0.1146476955388382,0.3845189618739975,0.13309496899834042,0.025940392702828045,-0.0065744377618863715,1.8995948876208009,9.266800764698576,27.835641575486232,-257.5069387966431,105.53867949340805,10.218960969807693,6.2593115484841,1.2825384052347304,188.80435,189.0235664499289,6.0,10.141589291810217,3.4506314215458365,1.3593539150396912,-8.616150953017463,15.572649318905079,1.5574729000000002e-19,2.4253979295398118e-18,11.596627569719727,0.859274416218856,3.066926965539654,14.813696174275332
6903,6903,7.429565000000025,0.0,2500.0,-2500.0,0.0,0.0,10.478390719145805,67.25047187401756,110.19052001796972,106.0,11.83638827901092,2.5770001,3.1528364210013557,11.852693297965967,-0.1124541150783517,-0.2815525703597378,-0.11306727195983285,0.3757155076407003,-0.03887692667918493,0.10424401257106987,-0.015310833685871888,1.959973013528256,9.617968068602014,27.757283349691214,-256.2895640700804,106.26669161832909,10.105539662803194,6.273396759326148,1.3408359291374878,188.80435,189.17856767721943,6.0,10.226542704330214,-0.7085391008756341,0.6374509022746784,-15.035553804505088,15.575455377924905,1.5574729000000002e-19,2.42583496562773e-18,11.473576434270349,0.9462157692135048,3.1611352145747387,15.403646958921197
6904,6904,7.525327000000061,0.0,2500.0,-2500.0,0.0,0.0,10.604691778687894,68.88145675104599,110.31090084449863,106.0,11.35745615131832,2.5770001,3.1523575846600878,11.822520094989205,-0.11782116444453775,-0.2916806546430152,-0.11460600052973224,0.37008928372774,-0.04876312598078805,0.049101492486980036,0.035049046736455335,1.982535586347137,9.958083775233467,27.751164823838486,-255.32726826002457,106.84810003949863,10.02014865498936,6.275486553149662,1.3750195551005584,188.80435,189.30696498751624,6.0,10.28938624218518,0.7042659890796621,-1.147128126992262,-9.07661798255243,15.577689112682394,1.5574729000000002e-19,2.426182863762788e-18,11.374287309203973,0.9919667614426416,3.2374825461647236,15.888032380538151
6905,6905,7.6191499999999905,0.0,2500.0,-2500.0,0.0,0.0,10.775332971788707,71.11605563711187,110.43654723052957,106.0,11.0,2.5771107412636645,3.151889558736336,11.80807762000949,-0.137581214845685,-0.2896247560853404,-0.11496176313587092,0.3614754402889829,0.16471251479517432,0.015308012815774638,0.029705432596946874,2.6255720447419435,10.121475974103793,27.874423718858555,-254.39570784679177,107.4152709330438,9.926558661701863,6.2807451395331215,1.4858534847263212,188.80435,189.42479458913468,6.0,10.406332910029832,3.2401307500250622,1.7371512461675995,-9.439670198510504,15.579686748267093,1.5574729000000002e-19,2.4264939900915126e-18,11.26791780235496,1.0581090530298147,3.3570308418724952,16.590279940919824
6906,6906,7.714875000000006,0.0,2500.0,-2500.0,0.0,0.0,10.818454439536307,71.68635218450859,110.58265123529834,106.0,11.0,2.57758461754842,3.1514156824515807,11.842674048439465,-0.1525049534163675,-0.2814441515804765,-0.11420069409793555,0.3535475396780106,0.12189533922673305,-0.01281917933723396,0.03011268848733876,3.290413373222421,9.945499153627617,28.053992281139326,-253.4505185506914,107.99517407118415,9.824645751259485,6.285036426161921,1.5564321427789634,188.80435,189.5434399609512,6.0,10.5437806221777,0.3588745559625792,-0.2917678339855736,-12.0657205519136,15.580831344602053,1.5574729000000002e-19,2.4266722578688263e-18,11.182645044798262,1.115338468357407,3.375244188699368,16.795325850022554
6907,6907,7.834902000000056,0.0,2500.0,-2500.0,0.0,0.0,10.622982296811145,69.11928032542961,110.76630221800005,106.0,11.180591805918054,2.577638852506525,3.150639098328983,11.804555705557055,-0.11919363760443608,-0.2862229091012694,-0.11229348437273072,0.34655752925885,-0.20306135420206,-0.03176644489521896,-0.05184820835655533,2.6906960927614314,9.749293197260425,28.085378326758946,-252.26881733177413,108.72192497900915,9.713785494562405,6.298853626182478,1.5575784276278457,188.80435,189.72870085867626,6.0,10.60420333452594,1.1097694542399057,1.5472066883227806,-11.673655718184149,15.582266523126956,1.5574729000000002e-19,2.4268957830347456e-18,11.105026928841829,1.133575168169021,3.317976049620663,16.63516977666215
6908,6908,7.9310500000000275,0.0,2500.0,-2500.0,0.0,0.0,10.41475293530388,66.43609470224102,110.91417784200004,106.0,11.661336613366133,2.5766774590405905,3.1496775606396064,11.622353423534234,-0.07478303344040604,-0.2940409411363888,-0.114671158449569,0.33945805589852696,-0.4328314325806512,0.02213554890098129,0.07499547985745511,1.1202477413079697,9.718730408617507,27.995035219855023,-251.3168386322134,109.295596684307,9.66570799914365,6.257450803909494,1.5175291150577026,188.80435,189.88753087428603,6.0,10.596493003087527,2.7474650452945317,0.3209328996131744,-7.777112310789117,15.583925983816869,1.5574729000000002e-19,2.427154239540061e-18,11.051105519266134,1.0411424975170045,3.2648647429144435,16.458896073670193
6909,6909,8.026848000000086,0.0,2500.0,-2500.0,0.0,0.0,10.355399923222588,65.68102030211743,111.0596714480034,106.0,11.859671403286159,2.5757195287737127,3.148298528950712,11.488667513324875,-0.0777936019040127,-0.30044238047686683,-0.1202911653164976,0.3321952464456639,0.06018849869962765,-0.04706506447941142,0.020801851729101425,0.5696747355200779,9.615672822333345,28.149155731577558,-250.38041087483558,109.86752722330999,9.620585039440046,6.189016411756103,1.4837588468663985,188.80435,190.05150940734143,6.0,10.565189577223713,2.3436951567751656,3.1526977874154967,-12.227683040894199,15.586878410325994,1.5574729000000002e-19,2.4276140719677813e-18,10.994423716717924,0.9388858959777412,3.2140045438396685,16.29524734086621
6910,6910,8.123115999999982,0.0,2500.0,-2500.0,0.0,0.0,10.279511254312974,64.72189037662054,111.20197024517277,106.0,11.37833621663808,2.574756810266898,3.1458917567504336,11.470376776232245,-0.09747804302376208,-0.30290414954643663,-0.12238148772570223,0.3276565670680339,0.05106613577226285,-0.0738756722613082,0.09292550281262156,1.2007209755092605,9.56407399781664,28.808426836392922,-249.4501681705055,110.44081846077694,9.544454819539446,6.155562487048713,1.4950144155751366,188.80435,190.22098705620843,6.0,10.498436491108894,-0.6699408847858042,-1.1010715595657543,-11.252731118748855,15.589845321902231,1.5574729000000002e-19,2.4280761604054503e-18,10.923579269382527,0.8537141247370068,3.2238979855898275,16.443017446765854
