,Unnamed: 0,timestamp,thrustinput,Position state,Position state2,PA-ON,PA-ON2,Airspeed[m/s],Differential Pressure[Pa],GPS Altitude[m],GPS Noise Magitude/ms,GPS Satellite Num.,Horizontal accuracy[m],Vertical accuracy[m],Groundspeed[m/s],Roll control,Pitch control,Yaw control,Thrust control,Roll Angular Rate[deg/s],Pitch Angular Rate[deg/s],Yaw Angular Rate[deg/s],Roll angle[deg],Pitch angle[deg],Yaw angle[deg],Local X[m],Local Y[m],X-velocity[m/s],Y-Velocity[m/s],Z-Velocity[m/s],altitude set position,altitude(Tecs),airspeed set position,airspeed(Tecs),X-acceleration[m/s^2],Y-acceleration[m/s^2],Z-acceleration[m/s^2],Battery Voltage[V],Battery Current[A],Inst. power[Ws],Body_Uvelocity[m/s],Body_Vvelocity[m/s],Body_Wvelocity[m/s],A.O.A.[deg]
5947,5947,0.0,0.0,2500.0,-2500.0,2500.0,-2500.0,12.521959168446035,96.03968696505169,113.68548063921655,105.0,12.0,2.646027331744895,3.2021634836617707,14.058975202794704,-0.2880321099199826,-0.23188828025496394,-0.11015345323483293,0.1821338100087923,-0.7551783023685429,0.29726105828668165,0.1824706369725379,6.147170488315599,-2.912343375998491,17.401492226136977,-410.2420194577677,70.44165974023434,13.647894400969069,3.852168744420609,-1.0124012896573793,189.46216,192.6202376930377,6.000248225591848,12.761934187393894,0.7805186310218062,3.3375556420879002,-9.427515398964562,15.646032487245865,1.5574729000000002e-19,2.436827159140503e-18,14.105569738382831,-0.5906212722311948,-1.7419751481238408,-7.040128411140508
5948,5948,0.09294699999998102,0.0,2500.0,-2500.0,2500.0,-2500.0,12.485819373769575,95.48611060618956,113.59301202923244,105.0,12.0,2.6469654744404814,3.207792105311344,14.126987147627506,-0.3316979532571565,-0.2736155996525623,-0.10813895755491912,0.18612842072688732,-0.5144403765146726,0.3137653626083812,0.09692060957994356,4.046540735514343,-1.3973007698968372,17.80426070073002,-408.952952543737,70.74979782603026,13.616940696499071,4.050195197124589,-0.7819851885537237,189.46216,192.5377231408429,6.0,12.613638601619884,-0.0545896709315411,3.979266651342873,-12.54269416464226,15.653784412536009,1.5574729000000002e-19,2.4380345004967256e-18,14.179900075205955,-0.3868960076120884,-1.1327818932393339,-4.567456698742708
5949,5949,0.1891560000001391,0.0,2500.0,-2500.0,2500.0,-2500.0,12.510922230987436,95.87044627178172,113.54191263107435,105.0,12.0,2.6479365415066543,3.2136182649537504,14.1973859899829,-0.1093091858105006,-0.3063100514456642,-0.11640388421441494,0.18898151224927054,-0.4812705228105917,0.23451048045246284,0.038670190549012384,1.971463931881751,0.07274649720469029,18.032383102219104,-407.6279115349978,71.10132612825991,13.570345580212585,4.214459311783131,-0.4776539349273648,189.46216,192.47955548138896,6.000006636657506,12.487379763502364,0.06698312908177084,2.542193941449026,-12.834400760283108,15.661635999341051,1.5574729000000002e-19,2.439257363863811e-18,14.208993163075599,-0.20912026906609535,-0.4590961461969893,-1.8505972609287724
5950,5950,0.285673000000088,0.0,2500.0,-2500.0,2500.0,-2500.0,12.471868073889205,95.2728528140087,113.49813760578195,105.0,12.0,2.648442191386533,3.217094139705733,14.14498411113721,-0.048326247197042836,-0.3328599963149913,-0.11980489473623095,0.19087930571502584,-0.17223664601318234,0.18023350004615893,-0.01883080411780494,0.14893971346011414,1.1631140191703364,18.063935804855657,-406.29803734396035,71.45225288951087,13.51583229458796,4.302709882354726,-0.19423264629345652,189.46216,192.44885862930653,6.0000005,12.38141514520175,-0.31926561712474066,3.4543435055074196,-13.558276694268427,15.669058562748909,1.5574729000000002e-19,2.440413407999438e-18,14.184847956578107,-0.10006495565757068,0.09575794519218334,0.38678192314951376
5951,5951,0.4082580000000462,0.0,2500.0,-2500.0,2500.0,-2500.0,12.467224428166736,95.2019043221368,113.51417584911846,105.0,12.0,2.648956220391649,3.22108815042078,14.06636007913903,-0.07554019945156526,-0.3543549353863369,-0.1156443979549276,0.19225854281914886,0.25096052341650393,0.09027873355535808,-0.06190263828988962,0.6500423944940223,2.160566017845632,17.820546733711996,-404.63119116777875,71.92876472117322,13.413555192264807,4.379101545408482,0.13209195808223104,189.46216,192.45333918811883,6.0,12.259011244306958,-0.7347471349657482,3.6734995536243833,-12.41487591375543,15.678485865041266,1.5574729000000002e-19,2.441881684783483e-18,14.095124017305551,0.07143759628382726,0.6614972386843819,2.6869725163451057
5952,5952,0.5044550000000072,0.0,2500.0,-2500.0,2500.0,-2500.0,12.480732774378245,95.40833094692738,113.54121914453677,105.0,12.0,2.6484697086179,3.222061076665925,13.992896801302836,-0.0854699951519741,-0.3698541204054319,-0.11165285374779052,0.19193320237297112,0.10521717806895274,0.08907422635269878,-0.1614091044375961,1.4262085446378814,2.6478806734919997,17.204948048977617,-403.33868790120033,72.30755594893719,13.311864498647836,4.418793872251038,0.317249919126134,189.46216,192.49071518089718,6.0,12.182356607814805,-0.1965274951372762,-1.2236545350534076,-11.186836697770726,15.685426715931095,1.5574729000000002e-19,2.4429627034998684e-18,13.993604894380248,0.3072511030795025,0.951355689525942,3.889270800200431
5953,5953,0.5994610000000193,0.0,2500.0,-2500.0,2500.0,-2500.0,12.50467722344861,95.77476189453022,113.59938690132809,105.0,12.0,2.6479891009813845,3.223022194708192,13.919803833747382,-0.08552223347617771,-0.3840898185559628,-0.10971963794185713,0.1905323413350814,0.02059191346633807,0.076091420423125,-0.17829791360123556,1.5527623789401297,3.168988304770239,16.351685010744074,-402.0825265083032,72.6997724978462,13.199054094543117,4.4568768954164115,0.4901498751280224,189.46216,192.55148949895093,6.0,12.12394818944814,-0.3735844504766984,1.466135874234241,-12.081297474041891,15.69128404325009,1.5574729000000002e-19,2.4438749663564444e-18,13.871548410098555,0.5938983581986776,1.2274540040378314,5.056770451810783
5954,5954,0.7152700000000323,0.0,2500.0,-2500.0,2500.0,-2500.0,12.572915574638838,96.82290804631955,113.67484494482576,105.0,12.0,2.6473970391449693,3.224206140797988,13.802599031097643,-0.08391290407509379,-0.4017804954540855,-0.10948710114354797,0.1870473640551684,-0.030321157037819818,0.08709881603737515,-0.1905243934644051,1.4676010235679122,3.7725370726153873,15.203519492856731,-400.556874677692,73.16857611382702,13.067566064634589,4.4467002049999955,0.6186351108204192,189.46216,192.6430798565072,6.0,12.08931258497075,-0.3556985417600382,-1.2683474496109448,-10.21095619749084,15.698423920936609,1.5574729000000002e-19,2.444986982957051e-18,13.705791399494009,0.9012709158679832,1.4663629367756643,6.106763394776777
5955,5955,0.8106350000000475,0.0,2500.0,-2500.0,2500.0,-2500.0,12.602273200120766,97.27559897351853,113.74925799984301,105.0,12.0,2.647,3.225168803225145,13.670271709255726,-0.07210277054277636,-0.4152481245960134,-0.10947712966536742,0.1833008700535809,-0.08426118733544997,0.076921303782412,-0.18630412484117845,1.0195148219986676,4.294340635242195,14.227977018559494,-399.31514902,73.5645737745,12.9544356655,4.4338259299999985,0.7562757454300012,189.46216,192.72192405497756,6.0,12.087850774757989,-0.12507172288749793,0.32758753095501403,-12.028747892250015,15.703509981926901,1.5574729000000002e-19,2.445779123173064e-18,13.55187012741418,1.142343345059843,1.6923410597416648,7.118177919176422
5956,5956,0.9090370000000121,0.0,2500.0,-2500.0,2500.0,-2500.0,12.605787864630404,97.32987407735412,113.82620373589823,105.0,12.0,2.647,3.226106538906147,13.371617827550864,-0.07201940022693952,-0.4219777119570667,-0.11011917776753426,0.17894405990633094,0.010448860951680005,0.035319443954186035,-0.19082497114551453,0.9679974509762038,4.582365954615317,13.284131216948929,-398.04327473683134,73.95790826393824,12.843058284631748,4.375510436725606,0.8693097145776977,189.46216,192.8099975893869,6.0,12.095725714454794,0.2440002869204112,-1.915467415429388,-11.209966414031504,15.70789803519768,1.5574729000000002e-19,2.4464625505783638e-18,13.392197474192368,1.3360400526446374,1.8407348295641448,7.826169487266789
5957,5957,1.00577700000008,0.0,2500.0,-2500.0,2500.0,-2500.0,12.572718984886196,96.81987274359872,113.92073157751456,105.0,12.0,2.6469842504042784,3.2270159511708387,13.092513894042455,-0.06173839840637412,-0.4291757807539121,-0.11079857106218333,0.17320879362686087,-0.030365110383063217,0.037909787396960375,-0.15101841024134174,0.5807093318581036,4.796133473338603,12.395788728226691,-396.81129586598166,74.35542970116178,12.730235520767195,4.319034516218518,0.9862521828669488,189.46216,192.90367146208754,6.0,12.108046061348775,-0.5669060171552872,-0.5051536897099862,-9.770990609649068,15.712211974684847,1.5574729000000002e-19,2.447134434962713e-18,13.231365009786973,1.501712674632399,1.975564815400528,8.492053952210822
5958,5958,1.1008320000000822,0.0,2500.0,-2500.0,2500.0,-2500.0,12.5506267984375,96.4799301109375,114.01605857353252,105.0,12.0,2.6464789929552985,3.2275212591506164,13.269371181656773,-0.05039507867756204,-0.430139003863928,-0.11259758395750137,0.16898423219640854,-0.12739865726015842,-0.016154672925482817,-0.12397385920841975,0.2714775650212531,4.848118439615591,11.592403966493006,-395.63044139183273,74.74454492110954,12.607500663580346,4.2531401900891765,1.016170789389276,189.46216,193.00392868219797,6.0,12.116174953305832,-0.5530371588349071,-0.7212106101782824,-8.573626947106131,15.716287265332994,1.5574729000000002e-19,2.447769150437125e-18,13.071866080181973,1.637174681712226,1.990520404641536,8.658211032043338
5959,5959,1.1950229999998783,0.0,2500.0,-2500.0,2500.0,-2500.0,12.588247478865357,97.0591921941038,114.11652198439762,105.0,12.0,2.64593949752619,3.227939595506107,13.425606734923663,-0.04750097684098774,-0.43564267571151016,-0.11498487836508015,0.16341848659983196,0.06244894390008138,0.0216119433804621,-0.1596704299198291,-0.1738214589021948,4.937039683467779,10.805821833183067,-394.4728519483703,75.12975345187672,12.499901549176336,4.161815488369282,1.1169771612918609,189.46216,193.1029110617616,6.0,12.132156676536555,-0.08615947813854337,-1.6065580969714572,-9.917122738814797,15.719862491671456,1.5574729000000002e-19,2.448325982250477e-18,12.913940722356573,1.7312655513748418,2.086516477661029,9.178012285361897
5960,5960,1.3147629999999708,0.0,2500.0,-2500.0,2500.0,-2500.0,12.504947829808627,95.77892468464987,114.24621135304797,105.0,12.0,2.6441678812629466,3.2261679201889883,13.092542877433916,-0.04882133812663226,-0.43758355796503023,-0.11506112283562996,0.1556354837754033,-0.05541187856155955,-0.03518316953718339,-0.11167923060756207,-0.04804773042097975,4.923696193637889,9.931145329284297,-392.9912224154448,75.621283831917,12.373351160561786,4.039781086020132,1.2436223797572659,189.46216,193.2390936143736,6.0,12.164563564196119,0.09665654827453897,-1.1744412615392017,-9.875782258648806,15.724407486434956,1.5574729000000002e-19,2.4490338528679558e-18,12.73037978862988,1.8365074786918876,2.1865312939243524,9.745855510260364
5961,5961,1.403320000000008,0.0,2500.0,-2500.0,2500.0,-2500.0,12.405673039025618,94.26421422111841,114.36097221073376,105.0,12.0,2.6430001,3.2252913998860486,12.891545832197869,-0.013802717817621343,-0.4320355288754691,-0.11735238921877306,0.1506797897439512,-0.2115911148020828,-0.08087237922241018,-0.15479900915043765,-1.1477393671357452,4.663080263689425,9.218285727592095,-391.90988129283437,75.97250760803362,12.28280118838584,3.93914634107714,1.3010768207686445,189.46216,193.34840559075363,6.0,12.162500684989643,-0.07045809301735728,-1.8521398806910812,-11.164112406615033,15.72775039859481,1.5574729000000002e-19,2.4495545023775616e-18,12.607214767881588,1.867511828582908,2.1771141846463,9.797661389780332
5962,5962,1.519358000000011,0.0,2500.0,-2500.0,2500.0,-2500.0,12.294191934986074,92.57766268839319,114.514272122032,105.0,12.0,2.6430001,3.2288018221705683,13.115039577820266,0.011540860147986243,-0.4337868450446197,-0.11937106473121842,0.14410187311444145,-0.07285012937293818,-0.049482369442900825,-0.14982165249574986,-2.290072443502849,4.409572541280919,8.337874456365963,-390.50529745745695,76.41328288304508,12.175878110189633,3.7713806322765575,1.3550775363904008,189.46216,193.50124204391975,6.0,12.143086196638484,-0.7446004807393364,-0.8367094374025141,-8.375153413081089,15.732073583916188,1.5574729000000002e-19,2.4502278267755342e-18,12.45260444227615,1.8673921310800448,2.166368040259536,9.86892287359095
5963,5963,1.6156590000000506,0.0,2500.0,-2500.0,2500.0,-2500.0,12.148251777984976,90.39278675739727,114.6323037483811,105.0,12.0,2.643116570189265,3.2313496455123465,13.186859125092372,0.026923778088339616,-0.4398066015038343,-0.1203418645056432,0.1400020114786482,-0.03230068028463447,-0.021857536636963312,-0.16114679122702702,-2.9596970228560333,4.291771442273866,7.611126041383665,-389.3359469190825,76.7630799639406,12.093941826337796,3.615515085734877,1.3452903167459962,189.46216,193.6270724676686,6.0,12.101661179857214,-0.7785140491360159,-1.8757817378596189,-11.201583636521272,15.735661435048005,1.5574729000000002e-19,2.4507866248662383e-18,12.330630884775395,1.8588385120950104,2.1230918429201915,9.769415092996814
5964,5964,1.7114330000000564,0.0,2500.0,-2500.0,2500.0,-2500.0,12.120183219552604,89.97553936702562,114.74911573736145,105.0,12.0,2.6435885718778653,3.2327657921928137,12.910710522401276,0.036160516553646264,-0.4472163884704538,-0.12090515597593478,0.1362506749693038,-0.07487473742821488,0.046863197534123865,-0.12494971673727745,-3.473312081116969,4.343392314445308,6.826618115221178,-388.16369072257095,77.09398061737535,12.029865477480893,3.4375835184572394,1.3878742762969545,189.46216,193.7448895944056,6.0,12.051102976423572,-0.011843399234922392,-1.6810044003199365,-11.818911141694356,15.73904104755334,1.5574729000000002e-19,2.451312990355194e-18,12.212601006559632,1.8370631819428327,2.1649815979891534,10.052638120683113
5965,5965,1.8103750000000218,0.0,2500.0,-2500.0,2500.0,-2500.0,12.119673588357047,89.96798006597666,114.87565838216621,105.0,12.0,2.643914409131381,3.2340857908686185,12.631909168690605,0.03798258106918916,-0.4473286876531367,-0.12216111381838375,0.13092895946168825,-0.010681849377886795,-0.054505105542636184,-0.11989393209773395,-3.647209751623018,4.24992769807719,6.080078087519477,-386.9558005752525,77.41896527847486,11.96437949598468,3.2589455346852327,1.4897948210918277,189.46216,193.8686866758256,6.0,12.01786547224859,0.09949249919446752,-1.287832388184178,-10.826823283626313,15.7421865233567,1.5574729000000002e-19,2.451802889687328e-18,12.098192552387287,1.8157185128716296,2.241851047309538,10.498093425503823
5966,5966,1.9297480000001315,0.0,2500.0,-2500.0,2500.0,-2500.0,12.02423251421787,88.5565947308047,115.02986398995073,105.0,12.0,2.643253484184123,3.2347467158158767,12.337767492068135,0.04733429802181047,-0.44349321959629984,-0.12069946297114598,0.1252586878742878,-0.02038252074983211,-0.0274945165975641,-0.1582556759160781,-3.98318113495246,3.847135579603405,5.1154981224943565,-385.510043233914,77.78841448165456,11.881540763903306,3.061392518805038,1.4557386263278311,189.46216,194.0197408401976,6.0,11.979158122510135,0.6667873434446062,-1.2280715499134656,-8.292553988038813,15.745981523286705,1.5574729000000002e-19,2.4523939506419766e-18,11.982226907512276,1.8279925108416544,2.1258109626531585,10.060374537895472
5967,5967,2.0257610000001023,0.0,2500.0,-2500.0,2500.0,-2500.0,11.959480248052461,87.60537062894602,115.147973937687,105.0,12.0,2.6432262668926403,3.2359048354274145,12.253952483673205,0.03031415579117719,-0.4393399078882155,-0.12018078297839062,0.12062083490609805,0.11139533719369056,-0.08534801497359151,-0.15741144928061893,-3.495178632670429,3.5243588201483114,4.289243122658809,-384.3572084447354,78.06288738097629,11.815005332065859,2.8937641200493767,1.4209779434629362,189.46216,194.14358252275684,6.0,11.937979189206748,-0.2380537517344836,-1.2450098156016784,-9.437168911905786,15.74961072426612,1.5574729000000002e-19,2.452959188859386e-18,11.888299340966935,1.8667796461794777,2.028784654014242,9.684454774804305
5968,5968,2.119638000000009,0.0,2500.0,-2500.0,2500.0,-2500.0,11.796629391198074,85.23585748166306,115.2632509387571,105.0,12.0,2.6436488084740035,3.237595128528022,12.308043637744738,0.04571461095494247,-0.43927826769410017,-0.11810010072581913,0.1175788403901087,-0.08310383150057696,-0.03749477186288164,-0.1985723616258044,-3.624785447236025,3.166073842110728,3.32734350836798,-383.237448942212,78.31290721923605,11.760488704039213,2.7437170389942698,1.3202419818296829,189.46216,194.24979821544602,6.0,11.88582935926024,-0.08820111818011399,-0.5382842488685776,-9.401085719836095,15.753704511993867,1.5574729000000002e-19,2.4535967852038168e-18,11.808828976617637,1.9284754176216787,1.85792886987448,8.941270781070163
5969,5969,2.2296740000000455,0.0,2500.0,-2500.0,2500.0,-2500.0,11.62785843924608,82.81434820262591,115.37485079523348,105.0,12.0,2.644163124387088,3.2396524160024662,12.238184231719586,0.038717989957591036,-0.4376681395056497,-0.11898516563924574,0.11548114265619555,0.15357238629952144,-0.04172779898992435,-0.1752394765662557,-3.751650321105209,2.7434559503373097,2.167563519591508,-381.9266146534945,78.58894225196231,11.69771014412424,2.5514344217293456,1.1830072377251657,189.46216,194.3641528100911,6.0,11.787749061667848,-0.45260644820443197,-0.8216623433332637,-8.963308016892622,15.75850296130957,1.5574729000000002e-19,2.454344130680941e-18,11.715709160901953,1.990532839135149,1.6411702337476217,7.974267506434335
5970,5970,2.3272850000000744,0.0,2500.0,-2500.0,2500.0,-2500.0,11.451033295509507,80.3148114812732,115.47096629596308,105.0,12.0,2.6446605388554896,3.2416418252185704,11.888073970602505,0.037158054988061226,-0.4410248550040017,-0.11852423379269444,0.1146352533418249,0.046752059364638866,-0.027760883187883268,-0.1823820668704872,-3.428371540558841,2.46390887175909,1.1974862675310962,-380.7654851135288,78.82064588560527,11.644122181990786,2.3963537113332016,1.048863685259893,189.46216,194.45411564937334,6.0,11.679172952514115,-0.10934360330976334,-1.161692310802042,-9.14297868440111,15.762877588730207,1.5574729000000002e-19,2.455025467046465e-18,11.635759788591043,2.0577729385161354,1.4552088759776538,7.128598782813059
5971,5971,2.42097699999988,0.0,2500.0,-2500.0,2500.0,-2500.0,11.349823829457982,78.90133871810401,115.52182274791865,105.0,12.0,2.6452687763295795,3.2434031644943686,11.612335664578884,0.009874404720229829,-0.4413205500520713,-0.11896324759881012,0.11491840240950082,0.2000464048472907,-0.05445317987375824,-0.1439706429262504,-2.6985547181466627,2.2076161189114183,0.3246998915610844,-379.65823384699286,79.02909424782123,11.59708728539268,2.248587442108016,0.8882692722018704,189.46216,194.51514655365253,6.0,11.563075611674336,-0.2464472129586469,-1.4346889433917085,-7.174757708348969,15.76718270718301,1.5574729000000002e-19,2.4556959775786182e-18,11.566810602605502,2.1183649129049,1.249256647437115,6.164253694391309
5972,5972,2.540888999999879,0.0,2500.0,-2500.0,2500.0,-2500.0,11.285097307758205,78.00397881532939,115.57963649745338,105.0,12.0,2.64645989715333,3.245189845729996,11.449731411711602,-0.02963356157767975,-0.43656725665516205,-0.11682132751603805,0.1173803732847175,0.21207858243234834,-0.06998386897209857,-0.16034616847075628,-1.1237021719730311,1.726914942682373,-0.6143457417504039,-378.25625161491854,79.27359421302008,11.532519615646596,2.0898695305383157,0.6540002492995604,189.46216,194.55559242632413,6.0,11.427337425826476,-0.4362696928392216,-1.4966011360900793,-9.486335541540967,15.772692626534855,1.5574729000000002e-19,2.456554132585786e-18,11.484512541959706,2.192775688646821,0.9336544654104224,4.64774398847497
5973,5973,2.6367830000000367,0.0,2500.0,-2500.0,2500.0,-2500.0,11.22791312472648,77.21545401312916,115.60091243348971,105.0,12.0,2.6476270538842566,3.247045131610688,11.399200993717518,-0.008226930364302852,-0.439781683055802,-0.11543751202062,0.11895352529072573,-0.13257645625327874,-0.013555697772623894,-0.16369137946981954,-1.2370180287286756,1.4687416228731345,-1.5349854136467307,-377.14612844637224,79.45644913300517,11.49546268149172,1.975951319252588,0.5202230797646686,189.46216,194.57639492351532,6.0,11.327935085482887,0.3222104030903655,-1.0559449625654376,-9.148478338445216,15.77554036961826,1.5574729000000002e-19,2.456997660853643e-18,11.42131496054458,2.2648686181217785,0.7545256006650531,3.7796353047000495
5974,5974,2.73584900000003,0.0,2500.0,-2500.0,2500.0,-2500.0,11.242036153724769,77.40980975616637,115.62237011105556,105.0,12.0,2.649123157545003,3.249538737452176,11.454556829165128,0.016731945006819314,-0.4350011979620972,-0.11726789099383204,0.1191413834775169,-0.13499960284633994,-0.05393247802541222,-0.14545821401243916,-2.2170689067421994,1.2072447374617643,-2.5232313348215443,-376.0074587961554,79.63176430491662,11.470745617724125,1.822090221963612,0.4830553920049359,189.46216,194.5967694016668,6.0,11.24973838741952,0.5049856003102589,-0.9707160460565176,-8.75814818340195,15.777441141281884,1.5574729000000002e-19,2.4572937008891608e-18,11.366704323685047,2.296842887307932,0.6731663358804527,3.3892491193186562
5975,5975,2.830293000000097,0.0,2500.0,-2500.0,2500.0,-2500.0,11.223349648996178,77.15269620501395,115.6359277744201,105.0,12.0,2.6501790510780068,3.251179215267792,11.407501321364741,-0.00326768442193142,-0.4170068791854809,-0.11957447220689768,0.11774336588512133,0.14771210569297696,-0.13454796752124462,-0.1107786441726869,-2.0251948185076785,0.6604281098510149,-3.2059185066774103,-374.9212461179747,79.7859277847548,11.44853593877785,1.6538516113698132,0.4254667703280641,189.46216,194.61398159948052,6.0,11.2034660903891,-0.037587513140986295,-2.1425173771408064,-7.763314104550536,15.779253230989747,1.5574729000000002e-19,2.457575928950397e-18,11.332470538603985,2.2717134365480187,0.5293658849263786,2.674474115871728
5976,5976,2.9273180000001275,0.0,2500.0,-2500.0,2500.0,-2500.0,11.162365363705952,76.3165236085004,115.64929759535177,105.0,12.0,2.650656538664068,3.251656607356335,11.19549683315378,-0.018783650702686026,-0.41660512643529796,-0.11838815327570575,0.11650904756770634,0.058120626518623875,-0.019327795188999616,-0.11054664333267107,-1.0184785694177387,0.18221007473526726,-3.764689141227533,-373.8070506789943,79.92874337775905,11.425014664885644,1.482751922830322,0.3082031421306962,189.46216,194.61994545084642,6.0,11.166809821319154,0.036856034727221626,-2.277707256722947,-7.744299543289018,15.781581138125171,1.5574729000000002e-19,2.4579384941781117e-18,11.301967657161384,2.2235783744420057,0.3370017566043185,1.7079378942037169
5977,5977,3.0427230000001373,0.0,2500.0,-2500.0,2500.0,-2500.0,11.061489202303523,74.94338589110805,115.65034081776024,105.0,12.0,2.651452405393477,3.2529048107869536,11.061322644638512,-0.01940556072042856,-0.4231328987456776,-0.12136771083237236,0.11581669687461807,0.033130713599739,-0.011354380470322972,-0.044061976198192035,-1.1961943062822074,0.21970768309387492,-4.387402420368464,-372.49464035568235,80.08007705303737,11.399304175086575,1.2743828981351657,0.17325582580902238,189.46216,194.61970990467591,6.0,11.11910309090912,0.17468459226952132,-2.2709037887236287,-8.428561715855661,15.784898693232007,1.5574729000000002e-19,2.458455194395426e-18,11.267662352332414,2.138158318835714,0.2082009704043319,1.058576230637295
5978,5978,3.1384010000000444,0.0,2500.0,-2500.0,2500.0,-2500.0,10.959814137887435,73.57199207084152,115.64874633470059,105.0,12.0,2.6524013518405565,3.2548027036811136,11.099755450218463,-0.04374495751728784,-0.42636302404835386,-0.12373141946058627,0.11549546189923335,0.1841580326570169,-0.012361353236752312,-0.012278860659501714,-0.40784123465305394,0.2266175764053551,-4.4819886125031205,-371.41299556820536,80.1887673105898,11.391493434205392,1.1207750434094892,0.1017306561164318,189.46216,194.61226287596702,6.0,11.070979117843788,0.17386089218948328,-1.0501586730466859,-8.598702375659087,15.78764915497553,1.5574729000000002e-19,2.458883571358229e-18,11.268583397814204,2.0064868245097807,0.13835747353122135,0.7034514187202261
5979,5979,3.2488400000000865,0.0,2500.0,-2500.0,2500.0,-2500.0,10.930600096829794,73.18028765204465,115.65209959825388,105.0,12.0,2.6532502098405217,3.2567506295215654,11.093975819137402,-0.04617670560856308,-0.41975922197670107,-0.12179067048270395,0.1145153596577204,0.022089618662656824,-0.05769481457947356,0.008552908442070146,-0.024966727023734786,0.02009010124385327,-4.436180917456283,-370.16726828628515,80.29642487134649,11.396234869847614,0.9537291410691836,0.07134205810391986,189.46216,194.60460885280304,6.0,11.018807586989084,0.20987107356482984,-0.8643017657007194,-8.96045663040223,15.789676168311686,1.5574729000000002e-19,2.459199273192129e-18,11.28829762230627,1.8323220753533709,0.07465767223765125,0.3789328828301023
5980,5980,3.3435320000000956,0.0,2500.0,-2500.0,2500.0,-2500.0,10.87021818702491,72.37400546180369,115.65540551326565,105.0,12.0,2.6537233102841844,3.2581699308525534,11.037203765897855,-0.04550559397918767,-0.4083420233217817,-0.12356796297873787,0.11383949155044487,0.0024887053253959397,-0.0921941831056784,0.0372942457911581,-0.03871412227093027,-0.3733193388571837,-4.275238849834775,-369.10165148317725,80.37207412098188,11.398914095665653,0.8186160819026718,0.03152294631969918,189.46216,194.60302280863425,6.0,10.977487235037794,0.4720136246565875,-1.9658436572517757,-9.382337501659887,15.790816271392716,1.5574729000000002e-19,2.45937684115732e-18,11.306135364779687,1.6660950041173377,-0.03128859396583704,-0.15855990989377686
5981,5981,3.4384830000000193,0.0,2500.0,-2500.0,2500.0,-2500.0,10.826520516078682,71.79330460974093,115.65264674382048,105.0,12.0,2.653594313162994,3.2585943131629937,11.033010306933196,-0.02559188946826189,-0.3972036429401149,-0.12712005737238394,0.113586983793488,-0.10672940240399326,-0.09055698493466803,0.05177782532481197,-0.5300936250575113,-0.8290213524153195,-4.013786772125965,-368.0329551026223,80.43463546126914,11.402625179602593,0.7032933945419522,-0.04761500766786291,189.46216,194.60072793284363,6.0,10.931317405036758,0.14080815121835355,-0.6711607234795931,-9.139742636043756,15.791959492864928,1.5574729000000002e-19,2.4595548948034874e-18,11.323554721383,1.501511867440719,-0.18976580368861865,-0.9601015072068892
5982,5982,3.5346759999998767,0.0,2500.0,-2500.0,2500.0,-2500.0,10.791936019883556,71.33535496497169,115.64952239925816,105.0,12.0,2.652608130506198,3.2576081305061986,11.103528925664651,-0.02938044280718754,-0.3855345520961718,-0.12870864464575876,0.11328801771814148,0.039651532824946635,-0.09147906481677452,0.07171451986312517,-0.7896527778278221,-1.3312070773491291,-3.6498485367041993,-366.9529897171438,80.48492785892176,11.406100021264253,0.5885333726645757,-0.16138087631111725,189.46216,194.59435387856584,6.0,10.891049566082204,-0.1504544338381679,-1.0229075943215715,-8.500807634787222,15.793038910158774,1.5574729000000002e-19,2.459723011121783e-18,11.338688664842707,1.3189398124916023,-0.3943603796906845,-1.991948262996772
5983,5983,3.633946000000037,0.0,2500.0,-2500.0,2500.0,-2500.0,10.736224090282539,70.60073977946213,115.62383416778057,105.0,12.0,2.651225822720646,3.256612972641459,11.139450015120618,-0.044723020319946204,-0.3745042443540912,-0.12575894413228292,0.11366430760466048,0.12218719587021686,-0.09654791885927122,0.04795294787258403,-0.23692157194316624,-1.8264860449695663,-3.252716664879568,-365.83649308512634,80.52520134455041,11.421779480233665,0.4923921571355341,-0.2660815246213205,189.46216,194.5766921863996,6.0,10.845930524286391,0.2672695092924576,-1.1892250098317414,-8.83889379698451,15.794090782939515,1.5574729000000002e-19,2.4598868374568083e-18,11.361180143586445,1.141692015816813,-0.5921835212903404,-2.9837515820068643
5984,5984,3.7546800000000076,0.0,2500.0,-2500.0,2500.0,-2500.0,10.54472549622651,68.1046907826707,115.58652230414795,105.0,12.0,2.648886843774248,3.2554433662193123,11.116645555137971,-0.044130610817304065,-0.3618921771921604,-0.12080126037280675,0.11485101597494607,-0.03488220124169547,-0.07758646521732004,0.013645726677646212,0.04628401862193022,-2.374232993513485,-3.0751758027340803,-364.4703873549913,80.56592142055524,11.459739996515054,0.39831782625872736,-0.3520449844790184,189.46216,194.53952659325864,6.0,10.772310887603986,0.0392561423366366,-0.7628640225872096,-9.148948470289396,15.795370089963894,1.5574729000000002e-19,2.460086086058933e-18,11.397480917738154,1.0109799517597349,-0.7829638002301648,-3.929829107786949
5985,5985,3.8512120000000323,0.0,2500.0,-2500.0,2500.0,-2500.0,10.46880450519243,67.12747880094257,115.53044626475399,105.0,12.0,2.6472158817303986,3.254738612864684,11.150615625981686,-0.06012791475154785,-0.3477934437093382,-0.11827323214803635,0.11758087349813467,0.09883559552342053,-0.108323986012598,-0.0014932052473133766,0.34464952630831275,-2.8890096671944336,-3.016628285428114,-363.3767833292386,80.59095720279453,11.490307264404445,0.3593962001581432,-0.4122976563709777,189.46216,194.49422811839324,6.0,10.690006084264553,-0.05162156964294881,-0.05337021776563089,-8.592885866396557,15.796749798735952,1.5574729000000002e-19,2.46030097196117e-18,11.42013191366505,0.9564098948339648,-0.940561208106946,-4.708249693295851
5986,5986,3.94466199999988,0.0,2500.0,-2500.0,2500.0,-2500.0,10.485107250140949,67.33670047853019,115.47616057833534,105.0,12.0,2.6457720810351497,3.2542574422196475,11.229062130423534,-0.07282307056902751,-0.3469804475306714,-0.11482008138943207,0.11992758641085385,0.058931443917007775,-0.031093934319900794,-0.035592929908454495,0.7770555687074405,-3.2439194644927336,-3.127778487381752,-362.3100404268586,80.61426862367641,11.509732482731962,0.3401114828586421,-0.5048762262815818,189.46216,194.43601145932774,6.0,10.62035821981318,-0.057132069681037775,0.18722302184778905,-9.475803676097248,15.798220132648197,1.5574729000000002e-19,2.460529972483397e-18,11.427074954385162,0.9504176539456852,-1.0984862084099851,-5.4909782040584405
5987,5987,4.040129000000093,0.0,2500.0,-2500.0,2500.0,-2500.0,10.543942764858537,68.09453528403509,115.41686052410084,105.0,12.0,2.644767960774129,3.2551611174980115,11.239654973712637,-0.06981631283046608,-0.3529640726030442,-0.11048537708166804,0.12233960073240666,-0.03356399961867353,0.026842363596184585,-0.11422017903853605,1.0420392625780517,-3.136528844397,-3.552167526928339,-361.21867614197083,80.63738024895021,11.544783309838062,0.3220309091193627,-0.5221512092461503,189.46216,194.3725466292473,6.0,10.576885956600163,-0.3915520651274746,-0.4286606764048999,-9.632503172645436,15.7997222018574,1.5574729000000002e-19,2.4607639156921234e-18,11.456850492819473,1.014215573030136,-1.09382783045258,-5.453709172186039
5988,5988,4.160174000000097,0.0,2500.0,-2500.0,2500.0,-2500.0,10.666264157627742,69.6836500089317,115.34167478096121,105.0,12.0,2.6441553262812003,3.2582235549482643,11.156965854991057,-0.08058064401488305,-0.3475895270681405,-0.1091638792397132,0.12377472751064353,0.051504063367218536,-0.015159194965846197,-0.11661431165956135,1.1333743510346916,-3.186236408502959,-4.400991326760258,-359.8406848894588,80.6676064822875,11.588355568231828,0.2775976942816454,-0.5636901104426508,189.46216,194.29189158841857,6.0,10.56682623343722,0.1362208425237535,-0.3680132703311546,-9.704087718877018,15.801622002975945,1.5574729000000002e-19,2.4610598045678753e-18,11.483725614620207,1.140412299109045,-1.1387903728221318,-5.663254151638792
5989,5989,4.2585169999999835,0.0,2500.0,-2500.0,2500.0,-2500.0,10.779960277398718,71.17711954780957,115.27576248278223,105.0,12.0,2.643334706284017,3.2603307870400413,11.165942211340363,-0.09543980529851268,-0.34169617043062955,-0.10921127226794147,0.12373867791788495,0.058458687135289074,-0.01085125802012636,-0.11640372410969972,1.6538591608914943,-3.240198701171348,-5.138450728082616,-358.71059502350676,80.68699532759828,11.617471084725425,0.2300694965184433,-0.6192868800130182,189.46216,194.22438465156173,6.0,10.597837791744492,-0.14344428792346206,0.12286192452048456,-9.941445062718877,15.8031831460328,1.5574729000000002e-19,2.461302948368283e-18,11.496708994170675,1.2309207949585643,-1.198843980663217,-5.953124927875577
5990,5990,4.354995000000031,0.0,2500.0,-2500.0,2500.0,-2500.0,10.931785536897138,73.1961550203368,115.21110016107453,105.0,12.0,2.6423894987629892,3.262221485672713,11.208480803645859,-0.11498042358047407,-0.33662799048724845,-0.11016693093514067,0.1235282325011546,0.07119191377605089,-0.0021253019403414735,-0.10852783366434786,2.360294220998723,-3.2633040554524904,-5.799517946721807,-357.5980616506359,80.7029766913298,11.644415932198825,0.16597947673708513,-0.6980799450709423,189.46216,194.1527775590395,6.0,10.660432258136543,-0.2880183676168371,-1.0979764263802327,-8.750246924665696,15.804714683202087,1.5574729000000002e-19,2.4615414811319337e-18,11.509547047023974,1.2837762738732266,-1.2779244244399433,-6.335696532386861
5991,5991,4.451385000000073,0.0,2500.0,-2500.0,2500.0,-2500.0,10.977112458710101,73.80441559373162,115.13280127310264,105.0,12.0,2.6414397209745633,3.2632804114915688,11.249818976783402,-0.10555536650304906,-0.3446110375709928,-0.11024312111043227,0.12268797567821332,-0.04382278745554321,0.07075557027996622,-0.12811777183345266,2.401044051444884,-3.020663475865309,-6.459957461292127,-356.48440645227817,80.70782039502939,11.668505614439432,0.096745286547514,-0.7765162620462664,189.46216,194.07700183351628,6.0,10.741293025102355,-0.15681389141364485,-0.7270615751460232,-8.670839171123253,15.80547589461736,1.5574729000000002e-19,2.4616600377469797e-18,11.526520798241231,1.3489246769047063,-1.3103821413063574,-6.485773893309919
5992,5992,4.569415000000049,0.0,2500.0,-2500.0,2500.0,-2500.0,11.045896662335565,74.73225191066095,115.03601464606814,105.0,12.0,2.640272048094054,3.2638641895540177,11.299440112091505,-0.06950393434345925,-0.3539309634667433,-0.11173059529167297,0.12170155265926,-0.2058188757657557,0.0661954758291415,-0.09281489985382718,1.3561615961217304,-2.4388270692414475,-7.1645072431152546,-355.11569253237394,80.70588131169306,11.6993274133459,-0.013899897665642771,-0.7952255591724227,189.46216,193.97905650621598,6.0,10.836718389807897,0.1699569169982751,-1.2110179234976113,-10.381208496170649,15.806044945974154,1.5574729000000002e-19,2.4617486659536712e-18,11.565359590455403,1.413527558725837,-1.2266663183520736,-6.054374483255657
5993,5993,4.665490000000091,0.0,2500.0,-2500.0,2500.0,-2500.0,11.038778174833677,74.63597398020433,114.96216482292856,105.0,12.0,2.640342945159581,3.2657148572088706,11.195428481221368,-0.038696256947627385,-0.35316385730408006,-0.11662177793533765,0.12071898123169215,-0.2472372604080448,0.049734817693739615,-0.04926226749236767,0.1404814083159876,-2.1059564071801904,-7.584225591923404,-354.00313297611115,80.68736908120296,11.71799913071506,-0.12995177432663413,-0.7736945627591643,189.46216,193.90024396652717,6.0,10.907848820083704,0.1831675899599853,-0.6507342016857578,-10.845208562943144,15.806508146932421,1.5574729000000002e-19,2.4618208082476467e-18,11.596352218714848,1.4138660562577845,-1.148540430832223,-5.656313117428006
5994,5994,4.761420000000044,0.0,2500.0,-2500.0,2500.0,-2500.0,11.071957247159073,75.08530581353281,114.88842645671707,105.0,12.0,2.6408226863103987,3.268113467014733,11.033755713395493,-0.025352710205854875,-0.3517401139901309,-0.1215155108706364,0.11914098995417748,-0.11143630907165024,0.03024994783753685,-0.01756235491917694,-0.732184833459353,-1.8890979172755682,-7.8642696820230285,-352.88371264926576,80.65933507832085,11.736294916081365,-0.2800483674907034,-0.7412961830310754,189.46216,193.8296552095007,6.0,10.972078785391982,-0.21375281712674227,-1.0434389017605077,-10.633104429825188,15.808632385298063,1.5574729000000002e-19,2.462151652616409e-18,11.633456721114236,1.342084681911027,-1.0815213512331745,-5.3113197145883815
5995,5995,4.860228000000006,0.0,2500.0,-2500.0,2500.0,-2500.0,11.17951560947034,76.5512656280648,114.82068138351259,105.0,12.0,2.641929555558816,3.270549321235064,11.088336023882531,-0.030643260275984782,-0.35196484431751873,-0.12389516499847722,0.11719164171722693,0.08548536492027911,0.03277533807517874,-0.005855918531434195,-0.7620815708079379,-1.7334622594603892,-7.9188706746984865,-351.74293200104074,80.60567565356115,11.743884457507772,-0.4417148687076057,-0.7130135869311908,189.46216,193.76038365096198,6.0,11.044872580467553,-0.13858867216755405,-1.263453897748545,-10.034679458988332,15.811193883787244,1.5574729000000002e-19,2.462550599064438e-18,11.665832138956098,1.1941045218750432,-1.0305898385908447,-5.0485511838767385
5996,5996,4.979474000000096,0.0,2500.0,-2500.0,2500.0,-2500.0,11.425503401827354,79.95706063437456,114.74220043899331,105.0,12.0,2.6436792364239294,3.2734655726556436,11.303546187064507,-0.05845571500502236,-0.35812874272944034,-0.12017496198854,0.113821095883295,0.07223972283506866,0.05645064182866252,-0.004532019177166318,0.20655702637264253,-1.3210858722426928,-7.809062252992543,-350.3656097052742,80.52372902136202,11.758677179420175,-0.6194942244535139,-0.632695127279172,189.46216,193.68429804326573,6.0,11.172668149073779,0.3566738916889209,-1.9277635330623737,-10.902348777250689,15.814285216967162,1.5574729000000002e-19,2.463032065829698e-18,11.716097674888367,0.9804118176265991,-0.880362186296518,-4.297200818835728
5997,5997,5.075211000000081,0.0,2500.0,-2500.0,2500.0,-2500.0,11.44969738147608,80.29604600979478,114.70633337559731,105.0,12.0,2.6447712672909494,3.2759281947009087,11.391973024324058,-0.005060866039273998,-0.3483236318355401,-0.12088940540831865,0.1079318760663704,-0.3058792757657973,-0.012415605554917188,-0.044887527634085725,-0.9907588171199032,-1.1282376110418115,-8.004824741729104,-349.2585848059345,80.44664299433994,11.795343411750586,-0.7441609783612282,-0.4768842200685582,189.46216,193.64163420465442,6.0,11.291165754051244,0.8574436382347046,-1.301746886426275,-11.691423024831385,15.81580741530756,1.5574729000000002e-19,2.463269144096057e-18,11.772368389971914,0.9177487298558388,-0.6908830484466886,-3.358655629849031
5998,5998,5.169057000000066,0.0,2500.0,-2500.0,2500.0,-2500.0,11.53976153140512,81.56424040219093,114.67117475947752,105.0,12.0,2.6457510218822424,3.27837736074538,11.45418433030587,0.012429633401401418,-0.32827066709958913,-0.1226683839574919,0.10302424923256973,-0.1359351657324719,-0.0808435746003438,-0.003906750409887315,-2.0588502585512303,-1.4428601093714502,-8.131619655575834,-348.1671856330137,80.36167589784301,11.821636012252851,-0.902410901337344,-0.3611138639448657,189.46216,193.6197549385664,6.0,11.401931167835677,0.34942933804967,-1.6139218741731975,-10.238966696884193,15.81726870630578,1.5574729000000002e-19,2.4634967362089307e-18,11.8175782621729,0.8022281912992187,-0.6388537485903383,-3.09437583393629
5999,5999,5.265408000000093,0.0,2500.0,-2500.0,2500.0,-2500.0,11.564537815317225,81.91486484244841,114.65208415872145,104.64499889816601,12.0,2.6470651388056123,3.280420075407556,11.530705543414712,0.024678749674786345,-0.3169187346426632,-0.12206741259809925,0.09793885433467854,-0.11365735537608712,-0.04057447356209605,-0.018210092509724198,-2.6433897171071865,-1.8112269016596283,-8.230662057923379,-347.03826510208376,80.25480247603262,11.840599152639545,-1.0662587485352175,-0.30644082600189565,189.46216,193.6024984719536,6.0,11.506931415860779,0.060830905490623866,-1.5610066421940745,-9.82507757169004,15.81876900305758,1.5574729000000002e-19,2.46373040336222e-18,11.855665644056632,0.6709182349204833,-0.6605513830855022,-3.1889999193390413
6000,6000,5.385397000000012,0.0,2500.0,-2500.0,2500.0,-2500.0,11.463930884293275,80.49580102754562,114.62940935096131,104.05740799686626,12.0,2.6488279702686017,3.282770556530936,11.631184175127874,0.013786967988990149,-0.3100507053919438,-0.12141208317551867,0.0920664632977546,0.1051124411825244,-0.011833019757760788,-0.03416602438826534,-2.612161599145016,-2.0018322145283656,-8.434204335719208,-345.6300685120847,80.10575377648796,11.859742078187274,-1.2674300028512269,-0.2799696320673896,189.46216,193.58447059174281,6.0,11.593609879009724,0.17095806828958168,-1.5910333984743759,-10.131472766736675,15.820179003830845,1.5574729000000002e-19,2.463950007161554e-18,11.900324049145606,0.5172159603989035,-0.6783975072260277,-3.2627086848694584
6001,6001,5.471220000000017,0.0,2500.0,-2500.0,2500.0,-2500.0,11.335392338924686,78.70081555039717,114.61173726456316,104.0,12.0,2.6497709981836053,3.286083662540765,11.699972958241615,-0.006798114747356131,-0.31241974786539345,-0.12067251475640407,0.09026931660472184,0.16548335477170606,0.022723368710208112,-0.046203639828068986,-1.9169404262355965,-1.960452926081052,-8.626104324013651,-344.61561384169886,79.98304772407613,11.872843073910644,-1.3930177989933834,-0.2755554027661334,189.46216,193.57172915310102,6.0,11.607545571956464,0.28305771741175045,-0.6247229077854209,-10.162973316050744,15.821132735046431,1.5574729000000002e-19,2.4640985482137697e-18,11.931052362504358,0.4261456960330285,-0.6699269572278574,-3.2137755413967217
6002,6002,5.566375999999877,0.0,2500.0,-2500.0,2500.0,-2500.0,11.253896136616898,77.57324703620729,114.59214339050493,104.0,12.0,2.650760823716118,3.2900433111443994,11.77570218440144,0.01893888380561077,-0.3170245580048753,-0.11742998993604195,0.09075048389917352,-0.22043836669756275,0.010332051332517852,-0.12399437548072427,-1.8227194241788918,-1.8089481363157252,-9.063092442785386,-343.49183613440897,79.83876493765182,11.868728546716227,-1.5041458529959673,-0.3605847340624823,189.46216,193.55073737174354,6.0,11.581138921342735,-0.07756977785867293,-1.4550349930907878,-8.274628501604678,15.822190181739636,1.5574729000000002e-19,2.4642632426705557e-18,11.940147585449042,0.4074962204336438,-0.7253634694167764,-3.4764437523757707
6003,6003,5.686809000000039,0.0,2500.0,-2500.0,2500.0,-2500.0,11.041791336633606,74.67676299009824,114.540802895996,104.0,12.0,2.652422059631934,3.2947923538224666,11.81770199386557,0.06386466707261867,-0.3265218341642228,-0.11613542949188928,0.09445113484802344,-0.12044327119352866,0.01257803223993436,-0.14120988123051512,-3.749090373965055,-1.5478669037181811,-10.029937805369396,-342.06040419795727,79.63416876567746,11.854469368501599,-1.6679748789423818,-0.4993434109953938,189.46216,193.5065064979029,6.0,11.497000795636096,-0.22039262659008732,-1.2777226005899451,-7.692009797229778,15.822191960826638,1.5574729000000002e-19,2.4642635197585353e-18,11.945941394571722,0.4757394957925576,-0.8091660344571561,-3.87504737085878
6004,6004,5.785240000000044,0.0,2500.0,-2500.0,2500.0,-2500.0,10.766434687596039,70.99866766121667,114.49655262334913,104.0,12.0,2.653858582124041,3.2986231762362523,11.841644035400689,0.03832741563285378,-0.33289513335291304,-0.11706267804567973,0.1002479303615652,0.14294321161950255,0.0448071682971965,-0.11316965501979485,-3.4497908722627773,-1.4753041477009508,-10.682077737683231,-340.8918434318868,79.4529639861973,11.84200608661733,-1.814019445333005,-0.6002804190257629,189.46216,193.45721606066672,6.0,11.354181863850293,0.1658225720770424,-1.4419503941467449,-9.947514416562306,15.822005069013073,1.5574729000000002e-19,2.464234411865049e-18,11.953615422249221,0.46696288547685494,-0.8960754017479164,-4.287028692283672
6005,6005,5.880939000000126,0.0,2500.0,-2500.0,2500.0,-2500.0,10.634507291682226,69.2693102946664,114.44692868885497,104.0,12.0,2.6548436274337583,3.3023745988387185,11.770187290231647,0.018581113912255316,-0.3430180262305228,-0.11555979512719634,0.10655874949718208,0.09680249064389496,0.021189132354358733,-0.13654491889529502,-2.5811098285316594,-1.226537943551374,-11.419532567168133,-339.75119677087054,79.26270563056548,11.851909671070638,-1.9482004159901576,-0.5785514760576254,189.46216,193.40214152581342,6.0,11.178470434354553,-0.1253535960007117,-0.23550572947948645,-10.738478568103012,15.821823364472161,1.5574729000000002e-19,2.464206111875221e-18,11.987878913723984,0.4744628742952348,-0.8251488128466952,-3.937568266174493
6006,6006,5.977694000000042,0.0,2500.0,-2500.0,2500.0,-2500.0,10.645157332323956,69.40814576930303,114.3967571741893,104.0,12.0,2.655792658027688,3.306170483968652,11.687151265064047,0.003276095721462233,-0.3494361250025504,-0.1142815621463502,0.11122044058084084,0.07743034681877765,0.00798147991949013,-0.16244732841751738,-2.010353323910214,-1.2340377319355156,-12.318706679481554,-338.59843363728186,79.05952328010086,11.855525864386735,-2.094811675942395,-0.5288773603159593,189.46216,193.3558183063568,6.0,11.016852721536996,-0.0036692972711711287,-1.3915240413153225,-9.66325377007822,15.822681581485085,1.5574729000000002e-19,2.464339776849216e-18,12.015310491155567,0.5103133807325458,-0.776943687166103,-3.699755023890389
6007,6007,6.0945140000001174,0.0,2500.0,-2500.0,2500.0,-2500.0,10.908550265923386,72.8853384076409,114.33620929469048,104.0,12.0,2.6574242327718283,3.3103230182358985,11.668525830204127,-0.02156474007002906,-0.35590853313952103,-0.11414328841479457,0.11497059183412806,0.14870780367972675,0.013856453188123551,-0.1753520024560224,-1.1314264978869242,-1.1712053801614712,-13.42954589129852,-337.2109012766557,78.79716175518126,11.840694356436243,-2.2662897472489787,-0.52516390618582,189.46216,193.3023120427649,6.0,10.896804440828431,0.1883186230274572,-0.5600834576777634,-9.422590297739667,15.823762921582158,1.5574729000000002e-19,2.4645081926389038e-18,12.030019572595966,0.5607889023493821,-0.7599142926987448,-3.6144670053118935
6008,6008,6.188636000000088,0.0,2500.0,-2500.0,2500.0,-2500.0,11.166554099392105,76.37382231428094,114.2873426515708,104.0,12.0,2.658825307546317,3.3135920370399217,11.668058353836914,-0.024662126115554052,-0.3666081324433876,-0.11492646345281735,0.11655836900202073,-0.01902147239262502,0.10364529015379112,-0.15283114054074134,-0.7134662414441304,-0.8585346958641765,-14.287427528585301,-336.09464240485363,78.57254657426519,11.824707748167992,-2.406298742281959,-0.5259514332022696,189.46216,193.24922298456002,6.0,10.88683966266927,0.3987191625869135,-2.0354700521790043,-10.55084884902709,15.824612966237526,1.5574729000000002e-19,2.4646405847903556e-18,12.043576416837722,0.5950364361580938,-0.6976482476591606,-3.315267747589056
6009,6009,6.284119000000032,0.0,2500.0,-2500.0,2500.0,-2500.0,11.469375590296687,80.57232191253762,114.23505144425283,104.0,12.0,2.6598697197981087,3.3174786139958137,11.596257442400287,-0.010572048488244142,-0.3724218643457578,-0.11716725335095625,0.1153972634064674,-0.07843342576469764,0.06648744129409129,-0.11454518211764245,-1.2400327837749534,-0.4172026110511127,-15.086321487227915,-334.9666278151185,78.33358642335708,11.794237025430672,-2.5468369816636987,-0.5121895640479446,189.46216,193.19537236995956,6.0,10.96176208559438,0.4319727010295311,-1.0849044741836495,-10.077587099885848,15.824807129242814,1.5574729000000002e-19,2.464670825152248e-18,12.046572726380472,0.6236403446312205,-0.5953354110670303,-2.8292261119077198
6010,6010,6.381494000000089,0.0,2500.0,-2500.0,2500.0,-2500.0,11.721306128216405,84.15080621915011,114.1817240842768,104.0,12.0,2.660880891966414,3.321523808305685,11.512827395510348,0.037648904803887766,-0.3763617362461764,-0.1172996116699287,0.11172688833506557,-0.3796729699361849,0.1109152168192906,-0.1409265872331047,-2.5148484740406984,0.034443966197281566,-15.817498008302634,-333.82036745068217,78.07770963265504,11.766789678188267,-2.7151117797270805,-0.4001438397610054,189.46216,193.1451933809571,6.0,11.104569477070743,0.2431936395190189,-1.625021217128844,-11.094885416297872,15.825005139596904,1.5574729000000002e-19,2.46470166472829e-18,12.06154527690402,0.6122578829289974,-0.3928722852871873,-1.8655958014607563
6011,6011,6.478942000000075,0.0,2500.0,-2500.0,2500.0,-2500.0,11.8807057491841,86.45509122144293,114.16002495619522,104.0,12.0,2.662305188693568,3.3254807596765565,11.650051694538154,0.08160815155220537,-0.36083475455492997,-0.1214804565022904,0.10610740716002373,-0.2910684050508539,-0.038148546780026264,-0.08245019661272568,-4.418848466530158,0.17640496779162826,-16.512136617187455,-332.68033547582803,77.8055142739612,11.745612079021539,-2.9310182351674885,-0.161195667013701,189.46216,193.11193554694918,6.0,11.284541444105802,0.3543888325248229,-1.3455562129309535,-11.82278364302887,15.825203298395216,1.5574729000000002e-19,2.464732527424117e-18,12.094706178033562,0.5377259376364544,-0.1252162620223105,-0.5931609189176977
6012,6012,6.596967000000063,0.0,2500.0,-2500.0,2500.0,-2500.0,11.886759035949007,86.54320416026606,114.13820026758805,104.0,12.0,2.6640626058369348,3.3302819121805984,11.83818384689266,0.16282998841459545,-0.3356421386946253,-0.13787753181922568,0.09647451332086952,-0.05081259636336048,-0.06264831416780832,-0.06242500607007132,-5.1488963893378825,-0.28148377398980856,-17.026367713933894,-331.29931018468415,77.44759815662077,11.717749696209106,-3.2087344314608788,0.1076698328004382,189.46216,193.1024296865157,6.0,11.499328316634244,0.5942724187848248,-0.7159364126178971,-11.618544343518643,15.824916188235335,1.5574729000000002e-19,2.4646878107947835e-18,12.144099563371832,0.3586861706084677,0.04959851126407612,0.23400413922665156
6013,6013,6.692641000000094,0.0,2500.0,-2500.0,2500.0,-2500.0,11.876101153598356,86.38809886077921,114.15411598280556,104.0,12.0,2.665001291128096,3.33450578479719,11.79594465140757,0.2423668362182535,-0.31879977495059936,-0.14056417426378465,0.08673024972291743,0.14643648441087484,-0.08089787460369766,-0.08376616830000591,-4.951755096683737,-0.6274350729220921,-17.4539509433688,-330.1775303018468,77.13101971680133,11.686951644338894,-3.4127611369197632,0.22289694672185795,189.46216,193.11670745259076,6.0,11.645132411975586,0.3852087183260065,-0.6535658534308593,-10.517921002479293,15.824657578831069,1.5574729000000002e-19,2.4646475330809e-18,12.174196600397325,0.2419950495717675,0.09198816227319742,0.43291835479870217
6014,6014,6.787824999999884,0.0,2500.0,-2500.0,2500.0,-2500.0,11.748068489935232,84.53549320847185,114.16995018475453,104.0,12.0,2.6659351688875046,3.33870802460254,11.753921786438534,0.2925535797202559,-0.3090780246761493,-0.13158935289725254,0.07977168744488397,0.39723367248556657,-0.051470496094706934,-0.09751347471768552,-3.224230141833897,-1.1047035940957737,-17.971573981904843,-329.0662388010712,76.7988608427961,11.652048965225573,-3.5803020218852484,0.2235852917620032,189.46216,193.1360067122054,6.0,11.742211717384773,0.42410893409827904,-1.4079553893704515,-9.951948163925481,15.824308123220366,1.5574729000000002e-19,2.4645931063165583e-18,12.190272039895149,0.19017285166891146,-0.0077666089134904035,-0.036504013216877435
6015,6015,6.897804000000065,0.0,2500.0,-2500.0,2500.0,-2500.0,11.478389927401679,80.69900056071201,114.20017967476109,104.0,12.0,2.6670364977706154,3.343145531995972,11.790381664399035,0.39991128103469015,-0.31828229687883003,-0.11278585478487355,0.07554400887319761,0.34890480767980064,0.044131109968208064,-0.19354803257120987,-0.4175822567607196,-1.0062456744666228,-18.949398637343823,-327.78450850127047,76.39553247078756,11.628598497036414,-3.7278375004233313,0.254266436460614,189.46216,193.16132840428193,6.0,11.76226613255966,-0.12559908003366865,-0.4367595409995688,-10.575256323454447,15.81920893309815,1.5574729000000002e-19,2.4637989212738287e-18,12.211529441498213,0.2500505564174621,0.04421701138739567,0.20746271589637366
6016,6016,6.994129000000044,0.0,2500.0,-2500.0,2500.0,-2500.0,11.253261786069704,77.56449688042908,114.22725015591571,104.0,12.0,2.668002299002384,3.347008497059142,11.826893939122828,0.44751021424906223,-0.3296351137603561,-0.09440087069316984,0.07530428888638921,0.4568963828116963,0.05751415517055247,-0.2384218204361188,1.99402696173802,-0.7049701994106141,-20.225382315869826,-326.6628251785687,76.03034091617434,11.606052226516638,-3.827207711194375,0.2597187572647813,189.46216,193.18741286802032,6.0,11.699101901015235,-0.4846875297918846,-0.4857707598173233,-10.164470946776511,15.814742812397634,1.5574729000000002e-19,2.4631033350779102e-18,12.215812614187353,0.4249275612674792,0.11454233124437245,0.5372217174497594
6017,6017,7.113718000000063,0.0,2500.0,-2500.0,2500.0,-2500.0,11.128473071632584,75.85378813529752,114.24880502069635,104.0,12.0,2.669175278423237,3.3517010012909187,11.767065419317634,0.5014778760010783,-0.3487781222044856,-0.06806102098942124,0.07782627354925575,0.3879381283536637,0.0775090255209083,-0.326358532355378,5.247287523288816,-0.15626875487314507,-22.135187929683504,-325.27375508291993,75.570502715936,11.58276803597352,-3.9157491589793993,0.2239826037489164,189.46216,193.21513365203083,6.0,11.571229098949466,-0.07721077515024337,-1.8366599253730849,-9.37145743452783,15.809228887209802,1.5574729000000002e-19,2.4622445561726424e-18,12.205081127620044,0.7545973303544673,0.19190654072761612,0.9008157124443557
6018,6018,7.210541000000035,0.0,2500.0,-2500.0,2500.0,-2500.0,11.08769638456256,75.29892363518852,114.26602716542156,104.0,12.0,2.6702570128809047,3.3555785597060686,11.737079605402519,0.5578990169527832,-0.3680451332036859,-0.05180431307474929,0.08119916671027609,0.3232199860686613,0.07534983153798758,-0.32101778896137434,7.229714101622809,0.4721148380760726,-23.899050379237536,-324.14965121670906,75.18768308102058,11.57810423441067,-3.963800910136555,0.2595295601013149,189.46216,193.23570136481632,6.0,11.456841600888586,0.42969824302720544,-1.4268213875286646,-10.5654840165001,15.804852769333987,1.5574729000000002e-19,2.4615629876727638e-18,12.188693500942133,1.1119146282423054,0.348323972693023,1.6369320657286013
6019,6019,7.3086210000000165,0.0,2500.0,-2500.0,2500.0,-2500.0,11.09327796985564,75.37475038746359,114.2826006521389,104.0,12.0,2.6722356489373493,3.360030342435366,11.830075500055427,0.56028890595035,-0.3796631009025901,-0.03845867577731865,0.08500650861643462,0.300041904592385,0.032305333641306916,-0.3244663969429347,8.947109445704877,1.0548995248226167,-25.69403111235859,-323.0242134814203,74.77593598005241,11.552874058527644,-4.011338076084015,0.2627565348299464,189.46216,193.2539267933901,6.0,11.347038980839427,0.2547905145648064,-2.527176575461035,-9.903477644869577,15.800419838715644,1.5574729000000002e-19,2.4608725707421988e-18,12.142831180010571,1.4696274498353354,0.4548072711704627,2.14499909301782
6020,6020,7.405242000000044,0.0,2500.0,-2500.0,2500.0,-2500.0,11.027679147605856,74.48594673130195,114.2985259923028,104.0,12.0,2.6741833635952506,3.3643208702481764,11.891318384783292,0.5051294735667217,-0.3950722409445184,-0.024368413744871115,0.08954198739772568,0.426658815291142,0.06295624905616752,-0.2704898450966992,10.763656366222188,1.6399166739324156,-27.29424902164372,-321.911312991802,74.37020072174438,11.505111488425207,-4.055546242128172,0.1860048043356428,189.46216,193.26644282421745,6.0,11.245593581943407,-0.4829268750118546,-2.0264162762108,-8.273599609363325,15.797061511386568,1.5574729000000002e-19,2.4603495203617622e-18,12.073610263812224,1.7703962166626457,0.4745471853128465,2.2508232473425656
6021,6021,7.500129000000015,0.0,2500.0,-2500.0,2500.0,-2500.0,11.05372437122606,74.83820055182241,114.30807911707029,104.0,12.0,2.6760821763708296,3.3676436264676286,11.666795474919741,0.4167875866706928,-0.4147312782017747,-0.00671993471678079,0.09693487551731454,0.5675399221790637,0.14949138944052906,-0.16493163775765002,13.576676344278855,2.4045640576448006,-28.29244893009966,-320.81855378050324,73.97226743601455,11.455004847799561,-4.0625781862619785,0.06606789879529745,189.46216,193.2711431862207,6.0,11.149752409385952,-0.2206002394443684,-2.61855747812897,-8.027465745663017,15.79810248585129,1.5574729000000002e-19,2.4605116493136014e-18,11.998788275746666,1.984261986553033,0.4763496768931842,2.273437988807125
6022,6022,7.607596000000058,0.0,2500.0,-2500.0,2500.0,-2500.0,11.128523636214396,75.85449278666992,114.31835442889923,104.0,12.0,2.6782337643181258,3.3712335759963423,11.432410101269829,-0.18701970297490225,-0.4509415141586856,-0.02403256347702963,0.10762757939363854,0.4658080573600911,0.1556026568685631,-0.10391581878642067,16.774316668826312,3.5158783446135766,-28.916688693772716,-319.5902168322928,73.52342111143359,11.409521754316184,-4.021324993936632,-0.04599955960707862,189.46216,193.26816129091918,6.0,11.060290701960405,0.13320724930144173,-1.8490367291607541,-8.674446305195467,15.79928147141096,1.5574729000000002e-19,2.4606952731194697e-18,11.911849921736831,2.1911302616189503,0.5341418081129129,2.5674923675562593
6023,6023,7.725987000000032,0.0,2500.0,-2500.0,2500.0,-2500.0,11.211975651268705,76.996402253927,114.32051370465376,104.0,12.0,2.680613447036477,3.3736133776988284,11.355069818002743,-0.4574987750248533,-0.5072601122794378,-0.07722603624252611,0.11335136943002372,-0.3446750682767282,0.14125851341292875,0.01809042866345983,17.75932459734562,4.666278790703711,-28.92247197010273,-318.2513238107235,73.03548885157366,11.39055408806398,-3.8964058807666935,-0.14165784361652914,189.46216,193.2660718458096,6.0,11.014870991609971,0.2864113908046616,-2.276350043368498,-10.145417630269133,15.800837091210573,1.5574729000000002e-19,2.46093755668753e-18,11.82650073071193,2.342469002228208,0.6132477374309978,2.968339233522265
6024,6024,7.819284000000039,0.0,2500.0,-2500.0,2500.0,-2500.0,11.169212904872392,76.41018090487236,114.32343247226576,104.0,12.0,2.6824749505213146,3.3758310549550483,11.391423785594707,-0.3705012907873684,-0.5108211255015322,-0.09801034429048718,0.1056484616080272,-0.846482489516803,0.02611868020467897,0.17604070683952885,14.288241359480116,4.990824059707927,-28.298384682621194,-317.197909759602,72.6675704275755,11.388122261467204,-3.771913786264435,-0.11310778750339348,189.46216,193.2700605588004,6.0,10.986899708412885,0.26810831882282915,-1.927119497335111,-10.114141272256663,15.802509111665126,1.5574729000000002e-19,2.4611979693421507e-18,11.780306253101944,2.2955524242889336,0.7061538713114558,3.4304100027700803
6025,6025,7.91565700000001,0.0,2500.0,-2500.0,2500.0,-2500.0,11.202503168658247,76.86634919716631,114.33337766718935,104.0,12.0,2.6843574081222434,3.3791255204799504,11.71428140703507,-0.2630100060418213,-0.4822214872774636,-0.11999586544670468,0.09665666911319536,-0.747229922535402,-0.15140230273566674,0.3499902873772559,9.680968660279547,4.291457577732035,-26.969876072298455,-316.1122314431652,72.30221977750848,11.358965982079475,-3.6968912814071015,-0.07008381973085097,189.46216,193.2813414012316,6.0,10.968035414306023,-0.05675675803966596,-1.3554007900384497,-9.449262810002104,15.804236258596607,1.5574729000000002e-19,2.4614669677961613e-18,11.77240417992666,1.9882356792703482,0.6626088503268198,3.2214894618458816
6026,6026,8.01201500000002,0.0,2500.0,-2500.0,2500.0,-2500.0,11.124844376928447,75.80433574308094,114.34325277626085,104.0,12.0,2.6863098848583142,3.382619944926831,11.976787969242725,-0.19112281879817092,-0.4390444982432783,-0.13243371086526004,0.0910887603317654,-0.479751314220197,-0.24577870393206205,0.4175626078247206,6.661384129040401,2.844322301826808,-24.98805914197443,-315.01983430794144,71.9455096532608,11.333055307401555,-3.6692891883167,-0.04365336618192777,189.46216,193.29817801258991,6.0,10.955061111061163,0.3563014689796952,-0.9853609571995492,-9.961259255284727,15.805704243014436,1.5574729000000002e-19,2.4616956023909997e-18,11.809851518351614,1.5227807489499667,0.4668552917235526,2.26378099631025
6027,6027,8.10982799999988,0.0,2500.0,-2500.0,2500.0,-2500.0,11.034120244307926,74.57302795084945,114.35109542985347,104.0,12.0,2.688781207128707,3.387562391769744,11.823572611357124,-0.14721377682810122,-0.3974067578245951,-0.13828201959999634,0.08760001798596742,-0.26782785637539946,-0.23652078954862155,0.4282210668387609,4.412604742503887,1.2748819615854892,-22.784607681085586,-313.9005101066855,71.5901106688093,11.318428377896659,-3.6687040452755393,-0.06881377014292818,189.46216,193.3127328125,6.0,10.933240361111126,-0.056523600692806486,-0.8895684288452611,-9.189465115707307,15.806353357960214,1.5574729000000002e-19,2.4617967002847038e-18,11.854587554707933,1.0155935986545723,0.17214213101872758,0.831941590185218
