,Unnamed: 0,timestamp,thrustinput,Position state,Position state2,PA-ON,PA-ON2,Airspeed[m/s],Differential Pressure[Pa],GPS Altitude[m],GPS Noise Magitude/ms,GPS Satellite Num.,Horizontal accuracy[m],Vertical accuracy[m],Groundspeed[m/s],Roll control,Pitch control,Yaw control,Thrust control,Roll Angular Rate[deg/s],Pitch Angular Rate[deg/s],Yaw Angular Rate[deg/s],Roll angle[deg],Pitch angle[deg],Yaw angle[deg],Local X[m],Local Y[m],X-velocity[m/s],Y-Velocity[m/s],Z-Velocity[m/s],altitude set position,altitude(Tecs),airspeed set position,airspeed(Tecs),X-acceleration[m/s^2],Y-acceleration[m/s^2],Z-acceleration[m/s^2],Battery Voltage[V],Battery Current[A],Inst. power[Ws],Body_Uvelocity[m/s],Body_Vvelocity[m/s],Body_Wvelocity[m/s],A.O.A.[deg]
8017,8017,0.0,0.0,2500.0,-2500.0,2500.0,-2500.0,11.302088844881409,78.23904413536981,90.03360984903924,104.0,12.0,1.3729491345626583,1.5379491003799008,8.138440508848143,-0.5496898018918168,-0.038112329565803627,-0.09170437188552656,0.28219584473447284,-0.03392712118178344,0.18821415970721173,0.4189904327158245,8.528904399152955,4.811379764545651,9.01119057940311,-306.91784891504307,52.287617757309725,8.534956541698334,0.1726377800115153,1.6746328533258437,166.2518,169.98900772515492,6.230076015512531,9.943865262895438,-1.777824559856623,-0.06977017622095533,-13.073108582891068,15.267738595653418,1.5574729000000002e-19,2.377908910701426e-18,8.286395433052434,-0.8095077894524997,2.449566275198209,16.468364733803867
8018,8018,0.09671900000000733,0.0,2500.0,-2500.0,2500.0,-2500.0,11.06743402249575,75.02420970129361,90.18642710666828,104.0,11.864778528253845,1.3756762073587308,1.540946636780076,8.09600724493977,-0.4961606593221771,-0.013086597009010771,-0.09163214061575027,0.25744804019889794,-0.23668911826009176,0.3508635055170522,0.3541261712569481,7.929327333061357,6.0109978410899965,11.346810747806547,-306.0837175691878,52.371784982583634,8.515931521743406,0.4925923804072656,1.772947025253295,166.2518,170.15566849387668,6.023942989362593,10.315734623844307,2.5093419744530943,3.5192361262366303,-11.8254673747895,15.280177706456234,1.5574729000000002e-19,2.3798462684989743e-18,8.214295638285256,-0.8207107375103879,2.7472657462404872,18.49247771386402
8019,8019,0.19058399999983067,0.0,2500.0,-2500.0,2500.0,-2500.0,10.529251114809039,67.90497815273422,90.34218636277046,104.0,11.374831664770232,1.3781259416761489,1.5443762158297751,8.443869518013136,-0.25790437213362594,-0.06930111933683468,-0.12584670019861582,0.2424548004719006,-0.5565289239948612,0.4044509723515191,0.3895003275104881,6.2992350172547225,7.566107544743748,13.281380335475426,-305.2908419940272,52.490490999999984,8.453117631518504,0.7864505562301438,2.0127669393061858,166.2518,170.32687263692497,6.000172368328023,10.504560631970751,0.6916061447356334,-1.2461820084530268,-12.424662162608488,15.293282912379887,1.5574729000000002e-19,2.3818873688064757e-18,8.069479144675004,-0.8259187383594659,3.238471062216962,21.866747786868032
8020,8020,0.2868929999997363,0.0,2500.0,-2500.0,2500.0,-2500.0,9.963424637804902,60.802782893149185,90.516706044178,104.0,10.882217190001606,1.3810601335117043,1.5481778280999838,8.660531219800676,-0.2445306881588105,-0.12095390982887888,-0.1224718107796149,0.23372236817619135,0.2152526447143409,0.2463897144751272,0.16990067143510465,5.918146462413191,8.972675386109508,14.898397175983277,-304.484494749514,52.64108728515754,8.343456064064933,1.050751965914962,2.2837516699907723,166.2518,170.50675925251917,6.0000078359753335,10.496702554369065,1.3532668938773615,1.7661349443659142,-12.143325166849882,15.309411364369199,1.5574729000000002e-19,2.3843993314957054e-18,7.874975129753686,-0.7493011714000875,3.712713865624192,25.241872124296908
8021,8021,0.4065469999998186,0.0,2500.0,-2500.0,2500.0,-2500.0,9.626423091098797,56.75917672061946,90.7925591585817,104.0,10.306938214266964,1.3862375867654186,1.5539306178573302,8.418914049992125,-0.3315721066268328,-0.17625258496854027,-0.10795791678787256,0.22919052469449716,0.3289112469653685,0.20551954319589827,0.1709863699401156,7.831076223627647,10.374844641441703,16.221029175924038,-303.49677491782995,52.849637743228996,8.145243037673527,1.3730661023116515,2.7087447534480056,166.2518,170.7699179629074,6.0,10.309649323235401,1.028152902108226,-0.5792194617766113,-14.172061674274971,15.329449302613062,1.5574729000000002e-19,2.387520186074374e-18,7.582598328695737,-0.3769113894932401,4.275693725906886,29.417886014985946
8022,8022,0.5053090000000111,0.0,2500.0,-2500.0,2500.0,-2500.0,9.4427669710674,54.614081448286036,91.04785530793808,104.0,10.0,1.3907424605313077,1.5585682319027825,8.241559597229639,-0.4630340382126486,-0.19366381992598594,-0.0961032758865568,0.2272703040984196,0.6405434753121033,0.03060554107682485,0.10113017375316803,11.332499056609574,10.820452130054063,17.089062123425325,-302.70611914660185,53.053422852358715,7.937320248166724,1.7329793292222917,3.1835926413650406,166.2518,171.03225429854783,6.0,10.104805181314449,2.457149448418689,-1.3427147237330317,-14.74384026709107,15.343883295295756,1.5574729000000002e-19,2.389768241318584e-18,7.354521476576138,0.2491665611618445,4.683195248019082,32.48807497590272
8023,8023,0.6005559999999832,0.0,2500.0,-2500.0,2500.0,-2500.0,9.426906134797546,54.430773931930545,91.33832940631432,104.0,10.0,1.3954950202582683,1.5628455831826442,8.10943843682014,-0.4987172134236339,-0.17324952107034794,-0.08236479027094999,0.2242920077594898,0.10944463509773487,-0.16208495454997882,-0.0019321268996015915,13.563821004754242,10.393920551047382,17.39457758603648,-301.9673895926128,53.27702929816478,7.723284498256898,2.114126085995057,3.5280580785848623,166.2518,171.32293018483875,6.0,9.902177257826322,0.940355294460674,3.1932065554068045,-13.509222493787927,15.354985877753485,1.5574729000000002e-19,2.3914974384483768e-18,7.23428364789768,0.8657869712901985,4.82939133390428,33.72588776949081
8024,8024,0.69681700000001,0.0,2500.0,-2500.0,2500.0,-2500.0,9.467528740918153,54.900888224241065,91.63532766023631,104.0,10.0,1.4002917560374972,1.567033504829998,8.029051179694962,-0.40022365430098256,-0.14744435765442213,-0.08568747299265682,0.21501243029604453,-0.5175072380096872,-0.2334009194193061,-0.04187946139035307,11.806969839093073,9.224596309888776,16.896497342439964,-301.24453222976365,53.542370471842844,7.5238346926564015,2.440819888935517,3.6740408799850446,166.2518,171.63319705847158,6.0,9.720757706246149,0.7395813958139336,0.0008292437384094242,-10.372754126020128,15.366206658355116,1.5574729000000002e-19,2.393245044618766e-18,7.217207248282978,1.1482205907223837,4.766902134924424,33.44441231510181
8025,8025,0.8076409999999896,0.0,2500.0,-2500.0,2500.0,-2500.0,9.679740110000935,57.38967863728853,91.98664537699699,104.0,10.0,1.4057942187003492,1.5714354749602797,8.101683686844611,-0.4397063605517961,-0.15985952985616872,-0.06414621884390688,0.2027046558565472,-0.4933793624442205,-0.013414934058934435,-0.005848469272790445,8.550862008606941,8.385901975470002,16.734205587175552,-300.43653980458464,53.87643122714582,7.330378830771045,2.6940313201155983,3.499964756678331,166.2518,171.98669069395118,6.0,9.575927715915311,-0.281278434163724,0.9054500863229116,-6.436893909037717,15.378796750502147,1.5574729000000002e-19,2.3952059173515163e-18,7.201858983106737,1.1481518384064011,4.479890096383814,31.883526954439546
8026,8026,0.899185999999986,0.0,2500.0,-2500.0,2500.0,-2500.0,9.781053785734628,58.597281270416616,92.25625879288141,104.0,10.0,1.4104981860753223,1.5752258774636505,8.131061374081186,-0.5024069159028716,-0.20338721160437528,-0.0601268319951261,0.19535553111984424,-0.4658145340033107,0.14593378575957602,0.06788113052343582,5.9740933963073175,8.693028122944929,16.98904999001942,-299.7797813791575,54.16918055285598,7.1905987098939415,2.828418640280152,3.2055168077623204,166.2518,172.24605844500184,6.0,9.504879217689506,0.0005106639883327159,0.5686745269466247,-6.221058307786157,15.388780327676615,1.5574729000000002e-19,2.3967608324409456e-18,7.130261903829298,1.0480061200848765,4.218147120176049,30.607869633015515
8027,8027,1.0160119999998187,0.0,2500.0,-2500.0,2500.0,-2500.0,9.809135698772003,58.93422700044379,92.54521594173212,104.0,10.0,1.4169859570900607,1.5805340054927268,8.07503172356627,-0.5171724282913296,-0.27686925689465225,-0.08739103079503305,0.1881380804105928,-0.04553432743855615,0.20373695661569316,0.2227403373982608,4.02930125823204,9.897788350400306,18.062123848893567,-298.9520869111979,54.55238296217353,7.007826368208684,2.975710549787141,3.0355790026149165,166.2518,172.53862140031958,6.0,9.450773626448266,0.9889622833842218,0.6001403564770073,-9.756947628891748,15.401520962194985,1.5574729000000002e-19,2.3987451517400616e-18,6.950414278237703,0.9482785993218008,4.17078069733678,30.96698187895258
8028,8028,1.1117069999997966,0.0,2500.0,-2500.0,2500.0,-2500.0,9.594510098418262,56.38351925417379,92.77633841621991,104.0,10.0,1.4218821715639511,1.585300435248554,7.946949617133724,-0.5737420975505422,-0.2906855220542121,-0.08414059028977802,0.18155873635186354,-0.007133877841959117,0.015789146811188176,0.2699792560629227,4.385578877171697,10.435238253513072,19.611403608143167,-298.28209200605244,54.87456447466713,6.838681669315988,3.1249132194522784,3.059831571673969,166.2518,172.76766232812417,6.0,9.396331365220453,0.2690886474924559,2.49829786219706,-11.925950716207216,15.410102542003784,1.5574729000000002e-19,2.4000817095392006e-18,6.812712072730384,0.9714463315749704,4.235781695012824,31.871149173778488
8029,8029,1.207911999999851,0.0,2500.0,-2500.0,2500.0,-2500.0,9.154820785424118,51.33417130561814,93.00021102166627,104.0,10.0,1.4262537086558758,1.5906434843947856,7.7099121877250445,-0.5555802875539498,-0.2751193513068643,-0.08355211397066035,0.17697273626217655,-0.26954272163176496,-0.21292120725825384,0.2294385549040169,3.935296216611521,9.748802609294788,21.042392904492605,-297.62024210371743,55.20460353764244,6.6778967037492825,3.274007530235252,3.01946969063248,166.2518,172.98715227217738,6.0,9.271351267540332,-0.026756495833618887,1.2144202824306698,-10.522080889753664,15.416721435152635,1.5574729000000002e-19,2.4011125842099344e-18,6.789881791570647,0.9387470649599332,4.1089001265465175,31.180248816655308
8030,8030,1.303909999999746,0.0,2500.0,-2500.0,2500.0,-2500.0,8.696967138126675,46.32780448915854,93.2141438925003,104.0,10.1794409878339,1.4302561048589362,1.595973932922074,7.535340184907455,-0.5611736425297713,-0.2779705749052031,-0.09935270043523887,0.17468647254253813,-0.21041956717492824,-0.14921605370893504,0.26592254287982753,2.5111943562612766,8.633722203178001,22.322531523462068,-296.97559685715976,55.545424043331,6.535813593950228,3.406808578391579,2.9201650304015785,166.2518,173.1933849060376,6.0,9.052837291783293,0.7826385360061333,0.9468806097657162,-8.458056636462873,15.423326086724837,1.5574729000000002e-19,2.402141240793698e-18,6.818453869645397,0.8362629850568863,3.884664675941752,29.671379805275144
8031,8031,1.402924999999982,0.0,2500.0,-2500.0,2500.0,-2500.0,8.205174259644812,41.23682603740085,93.4134243098901,104.0,10.67908523446942,1.4337536645498097,1.60146996967064,7.463890907745303,-0.3919361327427404,-0.29382585187027616,-0.1512739436681333,0.1753917162610173,-1.1053605502253117,-0.156863796673801,0.06466599276322459,-0.7829024053021366,7.752010905677153,23.26920674131644,-296.3283176457421,55.90668741008695,6.39299984814913,3.5380520258135584,2.644131116172151,166.2518,173.38918525997713,6.0,8.750204040157639,-0.08357173685740338,1.3052714229747684,-8.169804793499111,15.429566576687606,1.5574729000000002e-19,2.4031131801936716e-18,6.847598483017897,0.6688745832566478,3.50259297335336,27.090051418903673
8032,8032,1.5225009999998065,0.0,2500.0,-2500.0,2500.0,-2500.0,7.599330729738335,35.372045348613064,93.60853808519495,104.0,11.0,1.4374154734128242,1.6078307751331165,7.434135370136068,-0.22445558911894944,-0.32559711671118563,-0.3187986688624073,0.1857589774202177,-0.8206848940356725,-0.03035015428741113,-0.00876697552688695,-8.180045079950714,7.079620300979959,23.492186598850246,-295.5676460318652,56.364420723413744,6.258707854860077,3.659195067714343,1.9970093199399488,166.2518,173.56960636999992,6.0,8.283558449000386,-0.14786793941888832,2.470396672104349,-4.05640576863423,15.435081344618304,1.5574729000000002e-19,2.403972090353857e-18,6.897582715185924,0.44625146328159576,2.733689545256348,21.619697257330245
8033,8033,1.6183379999999943,0.0,2500.0,-2500.0,2500.0,-2500.0,7.161694502151827,31.41513472770107,93.70374694807195,104.0,11.0,1.43983857348008,1.6126770237296295,7.461758904750789,-0.18421905273267605,-0.3816136944033262,-0.427212400841748,0.19928818377296134,-0.3447518873843641,0.06393506255209623,-0.14187218170844124,-11.221932060677466,7.140381954267496,23.03612965825581,-294.9723537455208,56.74118115370579,6.173240874087124,3.704524695551183,1.442330439516733,166.2518,173.65415008199182,6.0,7.850682012828716,-0.096737316035317,1.1523655016922512,-3.176667815932175,15.439501285193124,1.5574729000000002e-19,2.404660484120346e-18,6.896015480657318,0.5347494857941424,2.149687593489221,17.313767773000414
8034,8034,1.7095509999998058,0.0,2500.0,-2500.0,2500.0,-2500.0,6.933528531603921,29.44523263448932,93.76534853969878,104.0,10.779929029749454,1.4418803618739051,1.6172008097025057,7.375968375358865,-0.1507329990858771,-0.3966885183481038,-0.4893497662842142,0.21096507674833892,-0.2475585102797048,-0.004868566767130564,-0.3072250932517256,-12.715231156179843,7.079785706598416,21.832507945543107,-294.4121278822392,57.10691522304407,6.096732949888067,3.721734242091258,0.9684248890850496,166.2518,173.6945721021905,6.0,7.4319825323590445,0.09082472069811386,1.1307925446594926,-5.464903351075757,15.443534037207318,1.5574729000000002e-19,2.4052885743177994e-18,6.870474122667449,0.7757874232921491,1.6379534310326818,13.409277077743075
8035,8035,1.8240059999998266,0.0,2500.0,-2500.0,2500.0,-2500.0,6.896740396292633,29.133582223430533,93.76850545275244,104.0,10.223566012055512,1.4441057583083792,1.6227644398794452,7.1256047948513865,-0.11825366251780048,-0.3737943074221929,-0.5267757066085296,0.2251911772429799,-0.1639571664028709,-0.055113493937919575,-0.473980600474092,-14.265252827036242,6.301420153472799,19.367540164035667,-293.71679754262976,57.566492145195475,6.028337538027652,3.703315451417147,0.4584286814257976,166.2518,173.6909939725206,6.0,6.991896319115738,0.3078550410428826,1.8343164612329728,-6.102808531465591,15.448155876035619,1.5574729000000002e-19,2.4060084131901243e-18,6.823219021582258,1.1862495463941196,1.013178091897902,8.446120113749737
8036,8036,1.9198829999997997,0.0,2500.0,-2500.0,2500.0,-2500.0,6.768403447973733,28.059430394112283,93.74616215324892,104.0,10.0,1.445771379620752,1.6265427821061127,7.024485815484291,-0.1269719955213786,-0.3193838725841861,-0.5452062406567505,0.23409171755522634,0.003656185949124704,-0.14392598318939734,-0.5508036143852968,-14.818220703408663,5.1133110429262425,16.78401121472125,-293.1441478552512,57.94188270205397,6.006588546988566,3.647162099555212,0.11431789419660793,166.2518,173.65134632342162,6.0,6.708598706182604,0.6711793631084424,0.946596758709515,-5.9909375631673765,15.452027511537269,1.5574729000000002e-19,2.4066114099273736e-18,6.766614547479607,1.5660999603101255,0.5396881921585369,4.560114556180709
8037,8037,2.014284999999745,0.0,2500.0,-2500.0,2500.0,-2500.0,6.66600147885039,27.216797666396204,93.69067076153877,104.0,10.0,1.4472311326318452,1.629462142157864,7.023512776561727,-0.07599473079129926,-0.2441559871992292,-0.5695383940744175,0.2413432478175733,-0.19997707256066452,-0.12263192621425067,-0.6018664898730852,-15.52276293019643,3.52067004836748,13.897063698032055,-292.5822626759844,58.30032932097414,6.041011411552558,3.544265878185504,-0.07440385803283447,166.2518,173.59412527840087,6.0,6.479969463037668,0.4619871285775101,0.5442198981030553,-8.997102048187118,15.455013529488014,1.5574729000000002e-19,2.407076474131093e-18,6.707334495907278,1.895357423749332,0.20361050347458728,1.7387594200863592
8038,8038,2.1095619999999826,0.0,2500.0,-2500.0,2500.0,-2500.0,6.678935456325169,27.32251510692654,93.62118335919114,104.0,10.0,1.4480001,1.6312272537256547,7.0341345872944725,0.06403593270308633,-0.1724892382474934,-0.4920639975617514,0.2472694589868316,-0.19844489100016388,-0.20674137601538367,-0.6338957957122031,-16.22685430201624,1.6642989340317773,10.906360094812946,-292.0104801600893,58.64894629974413,6.08467188895346,3.4283915903080406,-0.3106033446963125,166.2518,173.52109038170312,6.0,6.3217238182760775,0.6592793929560526,-0.10938491125919596,-6.336336376685003,15.456618974724565,1.5574729000000002e-19,2.40732651787593e-18,6.6296626341527976,2.2472889996945717,-0.17773771855046222,-1.5357014269486322
8039,8039,2.230430999999726,0.0,2500.0,-2500.0,2500.0,-2500.0,6.9192255900847375,29.32389813165853,93.48811640779543,104.0,10.0,1.4480001,1.6318303083178678,7.063681488539167,0.2508195963658815,-0.19126091607408016,-0.2393630495760923,0.2515445875275993,0.5939080603672272,-0.03373772028113809,-0.5945341481078573,-15.407919355435824,-0.22393959475527456,6.935059215755718,-291.27757082010515,59.070971913818376,6.166701022883701,3.2347144826587084,-0.6338899430216951,166.2518,173.38924065908162,6.0,6.259165677429272,1.190981309256929,-0.8837661704612784,-7.593690770341889,15.458655652624758,1.5574729000000002e-19,2.407643724939488e-18,6.5096292452622055,2.6416144438095888,-0.6260001603369805,-5.492972281873731
8040,8040,2.324667999999747,0.0,2500.0,-2500.0,2500.0,-2500.0,7.2362503792060755,32.07258065124631,93.36690638885277,104.0,10.0,1.4494889765789916,1.63378675189479,7.018698569584442,0.2974440248006611,-0.15626065628703933,-0.09598519094932527,0.2471818740071821,0.7269796216195427,-0.060314942088578426,-0.5692378039239565,-11.73964368902864,-1.1531591806160404,3.9763108850587834,-290.69121409055316,59.37474026848872,6.266080237306403,3.0695992924182063,-0.8280039521586091,166.2518,173.2604732023029,6.0,6.342892047250407,1.3667021277088776,-1.5902528820674453,-8.496016160206775,15.462135401758724,1.5574729000000002e-19,2.4081856864369826e-18,6.445882171007848,2.8220661243185505,-0.8850016747667128,-7.817673102995268
8041,8041,2.4207349999998087,0.0,2500.0,-2500.0,2500.0,-2500.0,7.541177998761951,34.832536237347924,93.21523706389112,104.0,10.0,1.4518646850850196,1.6366376021020237,6.933647967497789,0.1532722802295073,-0.08018538233984783,-0.06691220652752994,0.2419207251868127,0.7546758770564523,-0.12511276934696106,-0.5599769684877866,-7.5897584913948455,-2.2322329386221944,1.0432493960126967,-290.079505389798,59.66630760750719,6.389518356881603,2.9146976395572817,-0.9855980889201006,166.2518,173.1098076811517,6.0,6.539326498984697,1.2449566254637825,-1.7921077623564832,-8.934946321058465,15.467828823204696,1.5574729000000002e-19,2.40907242139802e-18,6.398250410294466,2.9589730987623764,-1.115943933954001,-9.893660172425085
8042,8042,2.5387179999997898,0.0,2500.0,-2500.0,2500.0,-2500.0,8.051639582487617,39.70818398199568,93.02429925110559,104.0,9.636483773668978,1.4562717096853566,1.6401811610063637,7.010415959214656,0.013172629687359159,-0.02047148585391004,-0.06304412339067543,0.2356404268163765,0.30552678140896505,-0.009588368116999804,-0.5396226271441311,-3.4539470400180203,-3.0024743072192113,-2.6038223569171306,-289.313053034314,60.00207618710354,6.565241534919333,2.7494256265780934,-1.0992969234353926,166.2518,172.9116569204815,6.0,6.91303998962573,1.6687938190532758,-2.027667501162433,-9.086371869063512,15.474821098829624,1.5574729000000002e-19,2.410161449377536e-18,6.367146121982585,3.1271033361392795,-1.2726794371725056,-11.303444750323427
8043,8043,2.634321,0.0,2500.0,-2500.0,2500.0,-2500.0,8.648201650763191,45.810614044932926,92.8645206723856,104.0,9.154268680204444,1.4606115973050282,1.6430744033456417,7.166171723732758,-0.020124624474281025,-0.01663882121077424,-0.07514816267788042,0.2300468062893105,0.2077553722991564,0.11568582091881532,-0.4959180216396555,-1.96251963412158,-2.7834675468731667,-5.514277073028512,-288.67629466597305,60.25722038340088,6.7012039160837675,2.60624814285357,-1.1497256451005935,166.2518,172.7520843751871,6.0,7.338902374093897,1.0771766593178056,-2.0906400988175715,-9.7264952165348,15.48012309108975,1.5574729000000002e-19,2.410987220303652e-18,6.356341849236577,3.2843137899813466,-1.3020170584368416,-11.576189875552108
8044,8044,2.7310879999999997,0.0,2500.0,-2500.0,2500.0,-2500.0,9.392034688203992,54.02906413939285,92.70582992962434,104.0,9.324534519367138,1.4658944466858577,1.6459472395696548,7.192309385365487,-0.07019881450359475,-0.04019523514253355,-0.09216913384799172,0.2220290570546268,0.21811031649284868,0.2808215782473569,-0.3365591238868705,-0.7406369759996109,-1.6472005550612412,-7.867223720112517,-288.0113085546448,60.50087537911083,6.814489382712389,2.450197284198223,-1.1778184154329183,166.2518,172.58583796386668,6.0,7.897987084705738,1.149333031476076,-0.9970501744870116,-10.222563010232212,15.485209026747755,1.5574729000000002e-19,2.4117793409995006e-18,6.378465696593776,3.3761024382289238,-1.265036683205669,-11.217861009470766
8045,8045,2.828736999999819,0.0,2500.0,-2500.0,2500.0,-2500.0,9.97774045183458,60.9779053755013,92.5502121248922,104.0,9.803372742473833,1.4716405532469603,1.6488203167921172,7.1573539077757635,-0.105501435821462,-0.07038415863075781,-0.09795188726226564,0.21102577976596215,0.2177584947016292,0.3894750522153748,-0.20598796722400145,0.6154560151466958,0.2415069042715115,-9.45346267305512,-287.32886274872504,60.73200562199646,6.9110957429528295,2.3066354053116784,-1.1218941914024758,166.2518,172.42501227370425,6.0,8.547695386164722,1.4522480508835247,-1.1674759355345532,-11.248878045609453,15.490341319069195,1.5574729000000002e-19,2.4125786816200528e-18,6.443053425175625,3.3986432359919982,-1.1090580255396325,-9.766747157897766
8046,8046,2.9247359999998253,0.0,2500.0,-2500.0,2500.0,-2500.0,10.362451980341794,65.77053493944993,92.40669022247278,104.0,10.284567455024726,1.4762766396401978,1.6500001,7.257111549464916,-0.11861705256085095,-0.09803216303013816,-0.1069734878902494,0.19781151616977047,0.09796908693211147,0.3435458327904,-0.11315586761091187,1.1999555862544058,2.1873256023618333,-10.35762736905184,-286.6547923106059,60.95046563019511,6.980480320638742,2.184072202300443,-1.0429880866812091,166.2518,172.2852842768801,6.0,9.195291551266637,1.191305178995905,-1.5454769902396324,-8.833631629724492,15.494814616747384,1.5574729000000002e-19,2.4132753856107943e-18,6.5091436374119285,3.3843832661746367,-0.9248612574127038,-8.086824648478926
8047,8047,3.0448869999997896,0.0,2500.0,-2500.0,2500.0,-2500.0,10.40152790558501,66.26747773420318,92.2548786859006,104.0,10.896203459545172,1.4811697276763611,1.6500001,7.502377587277612,-0.19642347244346586,-0.12815306437961788,-0.12098185422924446,0.18080819712781349,0.4693150449694975,0.25451446978423264,0.12816490980901935,3.2665970170841594,4.401751714185608,-9.99244285526632,-285.80434209125207,61.2108786246056,7.064143653404603,2.059853912679886,-0.8528729822805994,166.2518,172.13332382308857,6.0,9.898463899549792,2.1840547566804758,-0.8684896769667855,-12.38068849683938,15.499593647792912,1.5574729000000002e-19,2.414019706744961e-18,6.645554413577376,3.2251733616457523,-0.5930564034239785,-5.099627687364519
8048,8048,3.138424999999984,0.0,2500.0,-2500.0,2500.0,-2500.0,10.442597937633675,66.79180870305419,92.15237475860044,104.0,11.366669507200918,1.4838334475360049,1.6507334390144015,7.527866725017913,-0.2510708231288242,-0.12430432366338053,-0.12056165856566008,0.17004383058185074,0.28011780142215376,0.14084451596691255,0.17274058742514825,5.505175808408261,5.395769285533478,-9.04539038859397,-285.1270421445277,61.39973682137944,7.116013113271115,2.0060889214392508,-0.6731742511046246,166.2518,172.0401528093595,6.0,10.31766267936617,1.1136349869089397,-1.7234697372710728,-11.799788813615685,15.50331414122149,1.5574729000000002e-19,2.4145991635139244e-18,6.7456878353455885,3.082419621457939,-0.3303361228024441,-2.803532954773017
8049,8049,3.235265999999797,0.0,2500.0,-2500.0,2500.0,-2500.0,10.483585661554796,67.31715801245043,92.0695813137847,104.0,11.852105086393626,1.486260625431968,1.6517043101727873,7.506507802251225,-0.2221687197348678,-0.11117547444996337,-0.11958827353719124,0.16038817887401471,-0.19328045613802394,0.01879819823557119,0.13667620890630752,5.601546404711295,5.700201645529427,-8.260071010847057,-284.4205395094762,61.589977042632505,7.143380922575247,1.967965401910588,-0.5141191685165305,166.2518,171.96216315826302,6.0,10.654310413722321,1.4108859100215088,-1.2451645623517262,-11.44467463988255,15.506656407984032,1.5574729000000002e-19,2.415119712504648e-18,6.8040517265051905,2.9749703251796458,-0.13366006139803727,-1.1253842363650557
8050,8050,3.3467359999998507,0.0,2500.0,-2500.0,2500.0,-2500.0,10.565099412345043,68.36806419225893,91.9925489767925,104.0,12.0,1.4890531507965128,1.6520001,7.42075253394953,-0.1837546511254263,-0.1024756612253709,-0.1270086529735734,0.15017215275897075,-0.2128561137384312,0.028552166296047177,0.2517658706350033,4.3434911822628335,5.811670619335557,-7.04749057375126,-283.60419339059905,61.80151087039036,7.162826275849144,1.9133023690599016,-0.3252012294552512,166.2518,171.8902909288233,6.0,10.939794298415652,0.9973814779569776,-1.7209770126913748,-10.546522840082714,15.510062664685195,1.5574729000000002e-19,2.4156502277548973e-18,6.871560874352437,2.7916045394682167,0.09018680892822256,0.7519436912586275
8051,8051,3.440127999999845,0.0,2500.0,-2500.0,2500.0,-2500.0,10.56888132252861,68.4170259583685,91.95055174090379,104.0,12.0,1.4913923953611856,1.6520001,7.330457459828698,-0.1711203516528127,-0.10277371617247624,-0.13212571083642366,0.14319493317145512,-0.13172408426722584,0.0456306421259534,0.32075494512409336,3.5885634093273757,5.945727499037177,-5.514986411632772,-282.91923412659264,61.97439444068616,7.172873149200129,1.860930265301593,-0.13977209004552224,166.2518,171.8532647118019,6.0,11.105006934538915,1.235421029638725,-1.8408887357047683,-12.274324827733126,15.51291650092664,1.5574729000000002e-19,2.4160947050156075e-18,6.937856302778728,2.564429871367397,0.3176023959507758,2.6210662721283358
8052,8052,3.5359459999998535,0.0,2500.0,-2500.0,2500.0,-2500.0,10.659607249907626,69.5966949200199,91.91891341924914,104.0,12.0,1.4923510722131474,1.6498940210159962,7.286641751298692,-0.17647121033093532,-0.10154891331570952,-0.13504515384397592,0.13685934961274152,0.02292991552687721,0.030266169467544214,0.3557562060970832,3.4969042894235765,6.094818874559207,-3.638709588997236,-282.2237017560227,62.152235276506694,7.174198993762193,1.8140407525788025,0.04188758870784511,166.2518,171.8317291668324,6.0,11.226801552594912,1.2874765476231895,-1.7617548334493895,-12.136076514194894,15.516542508831416,1.5574729000000002e-19,2.416659445920294e-18,7.000341990523981,2.3010477679912333,0.5475780094104248,4.472660690566109
8053,8053,3.6322569999998677,0.0,2500.0,-2500.0,2500.0,-2500.0,10.800052201417413,71.4426959474081,91.91199543797079,104.0,12.0,1.4928234642532343,1.6470593380679774,7.259240509045459,-0.20436684923945406,-0.09797068229557973,-0.13541681161386432,0.13168886760691134,0.14819227667314502,0.037315690552878485,0.3848633635596471,4.275745071334327,6.132727198093809,-1.5623499181571023,-281.5289544587831,62.329895178071325,7.171517443667465,1.7832854201880624,0.1890144588786269,166.2518,171.8246830281958,6.0,11.327647631987812,1.4620685692081732,-1.60505669216568,-11.285495723311168,15.520722754033981,1.5574729000000002e-19,2.417310507782129e-18,7.059289266053313,2.037555935483105,0.7346311787770239,5.941150564305482
8054,8054,3.7544189999999844,0.0,2500.0,-2500.0,2500.0,-2500.0,10.68246837142858,69.89554282938789,91.91741589908472,104.0,12.0,1.4938831913878543,1.6473247208457389,7.221181273924754,-0.2691969220735724,-0.09520953306293548,-0.1337211354994051,0.1270002307464268,0.2931373373598052,0.032078976429537526,0.3647340753388342,6.309859950743824,6.0975725041901585,1.0215365353576835,-280.6544573820487,62.55258951869629,7.164782026586219,1.7651137962453691,0.33638672162601874,166.2518,171.8366867556427,6.0,11.39133167234706,1.0572376473590095,-0.4041170992834566,-11.100874101808042,15.526025025990828,1.5574729000000002e-19,2.4181363222702514e-18,7.118673754245122,1.7485957692247158,0.9182104330706896,7.349781700917563
8055,8055,3.8511259999997947,0.0,2500.0,-2500.0,2500.0,-2500.0,10.566765713919462,68.38963882783946,91.93872830532581,104.0,12.0,1.4948743807756355,1.6488114305919241,7.189960270140892,-0.3128703469450088,-0.09721230985651827,-0.13838185112619542,0.12632923682061614,0.12548307602087186,0.036706824755511125,0.4025720313728079,7.8390681912853095,6.026291445051143,3.155784552143129,-279.96739006421825,62.72965426957543,7.153779767094791,1.78101114156963,0.4352507576024943,166.2518,171.85797118161926,6.0,11.356938238512056,0.8961524091638109,-1.0347067257864635,-10.391763869160716,15.529868223830233,1.5574729000000002e-19,2.4187348899186726e-18,7.155268174063416,1.5395565522675474,1.0365391343721728,8.242742495046256
8056,8056,3.9462899999998626,0.0,2500.0,-2500.0,2500.0,-2500.0,10.516687116462194,67.74293383446263,91.96664678839998,104.40048503821363,11.59951496178635,1.4970025251910684,1.6510024251910684,7.1687793232113,-0.2978668500367365,-0.09465348805214463,-0.13899679222392813,0.12578326002528922,-0.17988240834657493,0.01514398994022469,0.40188860754399797,7.948944504938017,5.894743990630095,5.359106082693876,-279.29690653260764,62.90903616268789,7.134475896382037,1.82060097194571,0.5019443813256699,166.2518,171.89354078905316,6.0,11.280024777467018,0.6114663168451033,-0.8134424085388906,-9.734368518521089,15.533514109962745,1.5574729000000002e-19,2.41930272680346e-18,7.183320286868592,1.3125852949610377,1.1165696541830905,8.835306012281832
8057,8057,4.0575000000000045,0.0,2500.0,-2500.0,2500.0,-2500.0,10.549101433677233,68.16116460022111,92.01227520424544,104.9377469878355,11.062253012164508,1.4996888349391777,1.6536887349391776,7.145676898198977,-0.30605776219094466,-0.08580994707080966,-0.14384086185669784,0.12517663727545664,0.028001904097237396,-0.004693198804099978,0.4696006597406194,7.670349584064271,5.477926920385171,8.100617727754067,-278.51855578695444,63.124532615650615,7.108272301320436,1.870026741182237,0.5581249601808228,166.2518,171.9423286081135,6.0,11.171921955335732,0.6874061697630534,-1.0538488902863172,-10.341036691901877,15.537774744202546,1.5574729000000002e-19,2.41996630903999e-18,7.214233448382566,1.0130266800915142,1.1602082369472655,9.13619864199008
8058,8058,4.150952999999845,0.0,2500.0,-2500.0,2500.0,-2500.0,10.531330694903515,67.931722696634,92.05008864670299,105.0,11.403870928932626,1.503231027044368,1.6564232659606888,7.1971188660253445,-0.31193799520064114,-0.08524113902845999,-0.14458042064647586,0.1252489597012716,0.0008101083298526768,0.02800919697552639,0.4763443327279816,7.903249489740347,5.189433681803454,10.573540688432793,-277.8711701567261,63.31163290660364,7.076500099601446,1.92976485489406,0.5853822396451916,166.2518,171.98614508719334,6.0,11.080098974716439,0.5261858291147926,-0.7977078510704214,-9.873398371904711,15.540969467301748,1.5574729000000002e-19,2.4204638785049907e-18,7.227537325813314,0.7671043743681317,1.1782554681532371,9.259083617114364
8059,8059,4.2487249999998085,0.0,2500.0,-2500.0,2500.0,-2500.0,10.48650286504368,67.35467219899465,92.08875167324902,105.0,11.893988079423512,1.5071519152365802,1.6593640178753493,7.262794760237982,-0.34795512907325565,-0.08425375652996847,-0.14489028127585002,0.12603026126603573,0.16251544379883767,0.025693070111852186,0.4746324002397939,8.765982676168344,4.956162388302384,13.279713030523546,-277.1962549950523,63.514508457253335,7.035434711154214,2.0197427866117312,0.598255314806631,166.2518,172.03432274616523,6.0,10.979985383795192,0.33715356916675465,-0.4181255879168482,-9.336467041666916,15.544158453640936,1.5574729000000002e-19,2.4209605544851668e-18,7.232232870293253,0.5354472951565787,1.1831148430364613,9.290674100830033
8060,8060,4.36553699999979,0.0,2500.0,-2500.0,2500.0,-2500.0,10.254311199859648,64.40494296361739,92.125155227685,105.0,12.0,1.5139892190197894,1.6639928794066978,7.249050744514145,-0.3933167862047066,-0.08168648577602387,-0.1443148205642753,0.1293590979765721,0.14364704382526622,0.02076977615992569,0.457444455411003,10.142327911252046,4.5746383023633586,16.393825966160144,-276.39604617457195,63.77615354260495,6.973687367695483,2.169299971073765,0.5655870883561729,166.2518,172.0798603203024,6.0,10.821376239431071,0.602108202488701,-0.23290809524427974,-9.343741581740893,15.547968459289311,1.5574729000000002e-19,2.421553952539786e-18,7.234053532513117,0.31434675909152665,1.1192967264607008,8.795405956018483
8061,8061,4.462323999999853,0.0,2500.0,-2500.0,2500.0,-2500.0,9.968553105192225,60.86538855638964,92.14455856172108,105.0,11.992341243439336,1.5200498819176445,1.6680383937828034,7.221084248236856,-0.3954435277061707,-0.07777251859864033,-0.1426282331904369,0.1338225970052525,-0.10839971912485608,0.0021928932710213525,0.39968281467843264,10.474784344575847,4.2015929993369685,18.74665165634259,-275.7362729006176,64.00775540648671,6.9129017464849465,2.320047836221409,0.5058463912037923,166.2518,172.10052095671986,6.0,10.634115998446859,0.44958752378231903,0.1051398242301086,-9.154046536274448,15.55011930638916,1.5574729000000002e-19,2.4218889411467916e-18,7.2351329131665185,0.16417976019759978,1.0232282477136725,8.04966835809377
8062,8062,4.55733599999985,0.0,2500.0,-2500.0,2500.0,-2500.0,9.672520611371583,57.304306412567065,92.1531483493032,105.0,11.05582415416107,1.5261372429979532,1.6727209792291946,7.23138617034819,-0.3741652360251908,-0.07500889689096034,-0.1363214719150422,0.1381243922841778,-0.30145765599576263,0.0011156682959057775,0.3667042583159085,9.355900130373561,3.8689882876871295,20.755724189656245,-275.09333520373417,64.24881637697824,6.851635779346131,2.4592996652870642,0.4009749628631023,166.2518,172.10843399449902,6.0,10.402533834983505,0.5644329937043097,0.020491280236340684,-8.757374013917117,15.55201098555158,1.5574729000000002e-19,2.422183565049888e-18,7.23485690797155,0.01674613788138271,0.8879904886097474,6.997361108300788
8063,8063,4.6549239999998235,0.0,2500.0,-2500.0,2500.0,-2500.0,9.24997882065533,52.40693167341356,92.14588401890884,105.0,10.093915871960242,1.5323896468322584,1.6775305206401987,7.24196740192947,-0.3757310878782297,-0.08055224568624962,-0.13388945593563184,0.14474844917225155,-0.18099573638917169,0.018515632682405875,0.38911059403099496,8.04307121428287,3.5884872817073803,22.82569334079471,-274.4373000270811,64.50752220131932,6.792739619993694,2.595036574575708,0.28173769739570304,166.2518,172.10073840745838,6.0,10.099297541036217,0.6252943204585483,0.3465771516463907,-8.852530510242524,15.553953952609445,1.5574729000000002e-19,2.42248617690371e-18,7.235601976038318,-0.13981864350503384,0.7440436498441965,5.871141875328162
8064,8064,4.751808999999753,0.0,2500.0,-2500.0,2500.0,-2500.0,9.021762890120089,49.85275846890009,92.13323463252752,105.0,10.868683654444013,1.5382122019266642,1.6832121584924813,7.182627029450325,-0.4133836089633308,-0.08338557988236805,-0.12307535878762713,0.15344811609395134,-0.047795135871832775,0.006005986165719698,0.4000152424861197,7.58324790456017,3.342740177018248,25.015440598480282,-273.7906289853743,64.77790858147443,6.734558880159534,2.7456899445590626,0.1837999237192853,166.2518,172.07587168057788,6.0,9.766106818958336,0.8100593621894236,0.5422444780231884,-9.25347209635867,15.554994529513793,1.5574729000000002e-19,2.4226482439365987e-18,7.240789314045457,-0.2789448096431191,0.6226965549363699,4.915253922839173
8065,8065,4.848504999999818,0.0,2500.0,-2500.0,2500.0,-2500.0,8.584132551454182,45.133618897718584,92.10764465200776,105.0,11.830234928527133,1.5439815095711629,1.6889814180594165,7.115799263979111,-0.4481798727218003,-0.0934314610154222,-0.09902290705067923,0.1625992080417774,-0.17294659122533426,0.031095601890947306,0.3532133276560117,7.20565189437822,3.1990252963648995,27.120372030558997,-273.1524677907253,65.06385288802356,6.663148168596827,2.912995510035393,0.06931758287476421,166.2518,172.04285969878617,6.0,9.414481205454855,0.4186041737957281,0.8840958995032011,-8.712315683678042,15.555666668640995,1.5574729000000002e-19,2.4227529277841635e-18,7.243283411913921,-0.3845775637642215,0.4953385062894921,3.9121329045287347
8066,8066,4.967637999999852,0.0,2500.0,-2500.0,2500.0,-2500.0,7.969874592113568,38.90542840190089,92.05858622656505,105.0,10.980139597395503,1.5495894208187002,1.6976489530195338,7.188648962423153,-0.3797699778577595,-0.12961096625836016,-0.07011339793112648,0.17482633531404135,-0.7031642607946227,0.03955298096693086,0.22606382877222705,4.3159892066884895,3.1889759421903405,29.10466287916783,-272.3792031944511,65.4414582005106,6.552725679345883,3.1044015087327312,-0.19468532122175453,166.2518,171.98627419672619,6.0,8.893480472610502,0.293198902010808,0.9932860187875184,-6.944231573528915,15.556494768569033,1.5574729000000002e-19,2.422881902103804e-18,7.234957566236334,-0.4584740337764131,0.23393991216945784,1.8519944426708932
8067,8067,5.063060999999834,0.0,2500.0,-2500.0,2500.0,-2500.0,7.5185224449083785,34.62358478028603,91.99413210024431,105.0,10.026610441325463,1.5538802543445576,1.7048004216900592,7.2677918347005095,-0.2987392080199978,-0.1895395135500494,-0.13068646280396218,0.186784793881251,-0.484529736281552,0.10020729191740196,0.21860438416752956,0.6408800322551182,3.5649284008987747,30.235421183095475,-271.76831071464244,65.75780727276214,6.480205719212023,3.220764892484909,-0.4200186684535554,166.2518,171.91644480778837,6.0,8.420621050424542,0.6614736640330057,1.1470036658347205,-7.513603950110356,15.558084708007081,1.5574729000000002e-19,2.4231295308625444e-18,7.232636590723294,-0.4792480250179403,0.059637478922950286,0.47242777419852
8068,8068,5.159043999999994,0.0,2500.0,-2500.0,2500.0,-2500.0,7.013805733360844,30.13151521648989,91.91865577403972,105.0,10.920933170173788,1.55676284555718,1.7100651784826144,7.263553967808784,-0.38042472139713707,-0.2260127448817515,-0.15134669380693178,0.20084896632560406,0.16061777208381567,0.0049408734087311645,0.2777740608119199,-0.02088813310108159,3.925167649597853,31.67957029404507,-271.1586645181065,66.08644822930141,6.4192518300405474,3.3234775611991374,-0.6251050610549237,166.2518,171.8278604314606,6.0,7.91784378696617,0.6168097362895507,1.1226750793964662,-7.338537228303899,15.559888246612468,1.5574729000000002e-19,2.423410427112744e-18,7.234040569084184,-0.5415921000947352,-0.09305060383235708,-0.7369481585468903
8069,8069,5.279982999999788,0.0,2500.0,-2500.0,2500.0,-2500.0,6.353360667116097,24.723725148671218,91.79436590299332,105.0,12.0,1.5601740215215687,1.7164059110862762,7.248579836818303,-0.6308097948805252,-0.1943000797437362,-0.04734043801777054,0.2195010443562697,0.542003403815595,-0.20240281908369406,0.19466194886756816,2.966815346588232,3.160869227242588,33.25840277828057,-270.39537890824766,66.51084875891532,6.356486404842648,3.4840220247413347,-0.8044596579482244,166.2518,171.69570958013546,6.0,7.223337082227286,0.921118897970594,1.2591983261585693,-9.338350982558401,15.562160713147133,1.5574729000000002e-19,2.423764357617133e-18,7.2593876723102015,-0.5927188813575572,-0.3726781582667334,-2.9388369150896327
8070,8070,5.37759699999981,0.0,2500.0,-2500.0,2500.0,-2500.0,6.183895272810288,23.422365171533365,91.69495208330437,105.0,12.0,1.5616382022379545,1.7198222839518191,7.186108028640463,-0.7522917012004164,-0.09959243348165853,0.08509948379152732,0.2360524222175475,0.30486852561824385,-0.3097550936955721,0.0829544894406256,5.573436346280557,1.6289772839361816,33.86547016165089,-269.78132612676023,66.86432403702311,6.316602138357188,3.664129376907333,-0.9089285410487976,166.2518,171.58263718403435,6.0,6.700891652812595,1.0316698270091549,1.0084876524263655,-8.543111864512133,15.557177600130988,1.5574729000000002e-19,2.4229882512691047e-18,7.309690078725221,-0.5453200133554742,-0.6845312919770762,-5.3499807281812695
8071,8071,5.4738509999997405,0.0,2500.0,-2500.0,2500.0,-2500.0,5.994503757002727,22.009718006362014,91.59797758911243,105.0,11.97372727185235,1.5630789181844431,1.723210184452454,7.128105393539864,-0.726359089964125,-0.041492844243124535,0.12354360397153863,0.2462479450042972,-0.06158992791483307,-0.2789292628673501,0.007171115862037475,6.3340612209256575,-0.035899397716954384,33.91939374214509,-269.17856594741835,67.22792780356879,6.296463674683861,3.8896791788194287,-0.9958680036427304,166.2518,171.4707187398902,6.0,6.276630083674536,1.1729638457568057,1.2374996558098126,-9.637406077804917,15.551915879489751,1.5574729000000002e-19,2.4221687525384958e-18,7.394869984762027,-0.396224052400652,-0.994573131508568,-7.660030098216508
8072,8072,5.570391999999856,0.0,2500.0,-2500.0,2500.0,-2500.0,5.805120345444427,20.64092495020248,91.49912442041916,105.0,11.50910088458096,1.5644727973462569,1.7269272420132642,7.129963945551587,-0.5657249076124692,-0.01160779679588414,0.07863790800931852,0.25220961744812803,-0.4705371579549112,-0.2065604013362491,-0.011080566344883068,4.823252943420002,-1.4329412954031775,33.74795681486958,-268.57483204576096,67.61087888561696,6.302556930404634,4.1223644841979965,-1.0760621356138262,166.2518,171.37033378725945,6.0,5.910902113049447,1.4375066880407583,1.4864327170494869,-9.294034840165471,15.546638470006249,1.5574729000000002e-19,2.4213468103132197e-18,7.501386174714629,-0.179884331985675,-1.2614090098702082,-9.54537227897353
8073,8073,5.663968999999838,0.0,2500.0,-2500.0,2500.0,-2500.0,5.734917048031787,20.144682370097858,91.40078427755779,105.0,11.058739448075373,1.5658238816557741,1.7305301785414522,7.131765436333754,-0.3982812609498356,-0.014980153585302138,-0.041866893229032066,0.2562338906596858,-0.6261729302476661,-0.16790910878225765,0.014495187728197882,1.9228694256295904,-2.413240906690969,33.65442576024048,-267.9904780609981,67.9996341245327,6.3330331167523415,4.308755443715207,-1.1809655724557582,166.2518,171.27622209086368,6.0,5.624741051947066,1.4482809280111375,0.5382927583770895,-7.902981650932379,15.54420864728699,1.5574729000000002e-19,2.420968372009515e-18,7.6029038590913975,0.02645028349347349,-1.498344747618558,-11.148715740132339
8074,8074,5.783948000000009,0.0,2500.0,-2500.0,2500.0,-2500.0,5.856480722794182,21.007770917928127,91.25636947442268,105.0,11.572538103156226,1.5677177143094687,1.7344353286189371,7.41426174210983,-0.2468830540442587,-0.0042025809087788725,-0.2358620014538125,0.2626567433962275,-0.7589893306164084,-0.07716832890445993,-0.035907379793154164,-3.0997771536003484,-3.1384444472835926,33.58894353844576,-267.2415976712149,68.51877367928411,6.393943609609681,4.479729490301266,-1.4022976217041505,166.2518,171.1414368524901,6.0,5.3907119287076775,0.7522069632785245,0.4611029941219804,-8.00765009401711,15.541760618465734,1.5574729000000002e-19,2.4205870981547614e-18,7.716178660722597,0.29294337506827306,-1.8141723498899855,-13.23067562120534
8075,8075,5.880857999999989,0.0,2500.0,-2500.0,2500.0,-2500.0,6.126617657118348,22.990558808606107,91.11601653595928,105.0,11.921035825582685,1.5694738771500865,1.7380266342674249,7.63447619303366,-0.2532738174886233,0.0034911075166328123,-0.3571468468467032,0.2702348130757187,-0.51066301306949,0.02708218581740165,-0.04263363058704863,-6.730578706086384,-3.291853035951373,33.40088283848785,-266.6308705532502,68.9501730243777,6.470507613200232,4.560141740084734,-1.6543918615232411,166.2518,171.00746339695698,6.0,5.332759545656702,1.3655665109587058,-0.7816719263576153,-6.894168786285948,15.539783285156837,1.5574729000000002e-19,2.420279133850475e-18,7.804109688766173,0.4914328159794451,-2.0774117551427707,-14.906161765824475
8076,8076,5.978615999999988,0.0,2500.0,-2500.0,2500.0,-2500.0,6.432862922891263,25.346388391853964,90.95414712100614,105.0,11.451629941563265,1.5722902655136146,1.7441289107596776,7.690804852175402,-0.3239112184682251,-0.00976440144244027,-0.3670224615371786,0.2761850016284308,-0.1911282508707238,0.10330588608825304,-0.08946332800181345,-8.22089399690708,-2.8740251895776714,33.03412090455481,-266.00375013889555,69.39332600030043,6.564287114592117,4.6189454467993185,-1.8956738892867189,166.2518,170.84794975062343,6.0,5.401401555610986,0.6999720126150062,2.456708591980201,-8.088981916484531,15.53610899913964,1.5574729000000002e-19,2.419706873760612e-18,7.915970362310642,0.6216891618773066,-2.2571486750197582,-15.914896077429036
8077,8077,6.073130999999989,0.0,2500.0,-2500.0,2500.0,-2500.0,6.656419048008338,27.138632820925288,90.76540625594826,105.0,11.002252915537648,1.5750180235495927,1.7500316405922356,7.745917335722656,-0.3085974864783837,0.004280519198174029,-0.3611308205868786,0.2818588072850782,-0.2326597418390101,0.093926945747279,-0.1621151771831539,-9.3490571083583,-2.4739513507112703,32.24501422510626,-265.38825744048296,69.82740703065734,6.675834345171832,4.663948896248276,-2.065274149124308,166.2518,170.67083606473847,6.0,5.546442018582359,1.3811585014806278,-0.0318161481199839,-8.475021229353425,15.532472437005415,1.5574729000000002e-19,2.4191404890632894e-18,8.037926545009796,0.774689969847491,-2.3658871464226308,-16.40129042802211
8078,8078,6.195036999999843,0.0,2500.0,-2500.0,2500.0,-2500.0,7.014200693098787,30.1344306320253,90.51118037561676,105.0,11.600605685789375,1.5798049055468837,1.7584085195404826,7.989446673874003,-0.3130370938984682,0.046080711686165315,-0.3391090373503948,0.2876780733438172,0.016742340455494345,0.0422071404893537,-0.13801270542496544,-10.03217053389398,-2.1221019658538864,31.02817354869152,-264.57666608467514,70.39345069336375,6.8753636918405725,4.699044407409291,-2.1653577985267933,166.2518,170.41454558098846,6.0,5.840851450122553,1.7753289503253984,0.42111779636278746,-9.926614941758134,15.527927931578846,1.5574729000000002e-19,2.41843269465871e-18,8.227878908519711,0.912951257368287,-2.4160580976300867,-16.364500992718483
8079,8079,6.283880999999724,0.0,2500.0,-2500.0,2500.0,-2500.0,7.1764191676485725,31.544497864268216,90.3157984835467,105.0,11.963743893031616,1.5833264049627154,1.7644350769092314,8.15316019542299,-0.28656719827615984,0.0859724363862541,-0.3126619245976298,0.2894621903018019,-0.057491831168608,0.019590084838186046,-0.18893860393005926,-10.111777890351627,-2.1199208115615527,30.154962851539487,-263.9673989113143,70.80867776048899,7.041504186525469,4.711175931651939,-2.183560066301768,166.2518,170.2221617949991,6.0,6.099479293699044,1.4071427676999462,3.157966593912517,-10.233326387965024,15.525876396340164,1.5574729000000002e-19,2.418113173604946e-18,8.36863188954934,0.9740283917104352,-2.4362396428756954,-16.231104194984223
8080,8080,6.374842999999828,0.0,2500.0,-2500.0,2500.0,-2500.0,7.358480145631003,33.1652108729692,90.1187720547084,105.0,11.522431434573738,1.5872982170888363,1.7697308705419716,8.167282194093639,-0.28438367748323423,0.0966864853445504,-0.2913760142878349,0.29022271503487085,0.13716499433079096,0.08101201795678434,-0.21830688968849496,-9.950699711821619,-1.9886220291962982,29.152755040031487,-263.3262755964975,71.23484808800987,7.231187295779343,4.7147529223244105,-2.1546648262391046,166.2518,170.02122450004998,6.0,6.389049693587036,1.620171785860416,3.844194304713101,-11.442094064906767,15.52377595344722,1.5574729000000002e-19,2.4177860353165707e-18,8.53195743950441,1.0182940583576812,-2.3946764286901234,-15.67791189251633
8081,8081,6.49513300000001,0.0,2500.0,-2500.0,2500.0,-2500.0,7.469754147433307,34.175843279447825,89.86523766590524,105.0,11.066564595322335,1.5925326101061192,1.7766657459532234,8.224404709360655,-0.2527144705036413,0.11099105861068674,-0.2822039540082885,0.2908768217355257,-0.1791415776517156,0.11206690175416703,-0.23275928158932374,-10.417537831493668,-1.5183415185184757,27.53339685081163,-262.45116464283655,71.79166068633069,7.497497019951156,4.696398911127348,-2.0671712729344143,166.2518,169.7643551040886,6.0,6.768250221431859,2.372018432739964,-0.4737321761252149,-9.877967533425835,15.521038189522931,1.5574729000000002e-19,2.417359636004704e-18,8.761455231087405,1.1143221306037152,-2.243703506701247,-14.364068113176536
8082,8082,6.5815450000000055,0.0,2500.0,-2500.0,2500.0,-2500.0,7.628955633792646,35.648203045458814,89.68657408352476,105.0,11.52278126814857,1.5961822978670617,1.7812279126814858,8.501328229766182,-0.24501675406943102,0.1054941734855461,-0.2812870147268957,0.29167047713660177,0.0032688042522250604,0.14815484964735692,-0.2423416280207277,-11.052854110275138,-0.9506114967849768,26.295622814320875,-261.80322196650366,72.18300227304469,7.668595668154957,4.6592030579605215,-2.041739273321008,166.2518,169.58625040071843,6.0,7.027129712261315,1.117180566042824,-1.856820465586908,-8.758484635254796,15.519405211809412,1.5574729000000002e-19,2.4171053041511918e-18,8.903987186402285,1.1995632046952125,-2.136205827053299,-13.491163226087766
8083,8083,6.701247999999737,0.0,2500.0,-2500.0,2500.0,-2500.0,7.844361797010473,37.68970304035884,89.44637277435305,105.0,11.854970858607366,1.6010152184926627,1.7865802165655706,8.804342681008123,-0.21444597545233632,0.0889690400980224,-0.27998170763968944,0.29324704962902115,-0.17911787499274934,0.23620973481966026,-0.19644491921122467,-11.724491680666995,0.03306454379995083,24.574866420138683,-260.883544984846,72.72008447256755,7.873491529367909,4.587933181181928,-2.0368702166624995,166.2518,169.3399561337862,6.0,7.372263655448,0.4671491449976247,-0.290149146487966,-11.094635865684106,15.517143114748334,1.5574729000000002e-19,2.4167529886642128e-18,9.069512192061826,1.3107495794906592,-1.9897668533089017,-12.374116965097176
8084,8084,6.789608999999814,0.0,2500.0,-2500.0,2500.0,-2500.0,8.081341719792677,40.00129588120776,89.27830739744846,105.0,11.417795545176869,1.6040754894042075,1.7883289178192927,8.844562809843726,-0.18439558347484136,0.04692557561468552,-0.27856176079034073,0.294146555868276,-0.034893643774861906,0.29937234355853226,-0.25741271928370946,-12.266963209357266,1.2368939538998138,23.16174202803647,-260.18724683591057,73.1142820805446,8.009123158781426,4.522965359912312,-1.9752045649088508,166.2518,169.16645535592738,6.0,7.621204437151383,0.9984217970058092,2.9459357799347763,-13.25744085352591,15.515490116907356,1.5574729000000002e-19,2.416495538730104e-18,9.183089429333766,1.3855949452613878,-1.7585728535013851,-10.840960998002377
8085,8085,6.8864159999998265,0.0,2500.0,-2500.0,2500.0,-2500.0,8.411958638144032,43.34120146551428,89.10526132237486,105.0,11.0,1.6073149397151836,1.7903149397151836,8.908439111954769,-0.1199696334556841,0.01972556177283393,-0.2705865972569169,0.29466550468243397,-0.14737900206398089,0.2963641976234269,-0.332139989086132,-13.212573109722161,2.600101718425705,21.33664416721649,-259.4081859561802,73.52915395768099,8.167369093552114,4.393835919134595,-1.8452164162452969,166.2518,168.98870282788525,6.0,7.906551764475697,1.7008670603424485,-1.4675158161712305,-11.020577056148932,15.514333753983625,1.5574729000000002e-19,2.416315438338476e-18,9.280481142815443,1.44570893358815,-1.4387919870365666,-8.812646624046726
8086,8086,7.0054709999998295,0.0,2500.0,-2500.0,2500.0,-2500.0,8.82813085560655,47.73574984233725,88.91977354487663,105.0,11.0,1.6103468286006777,1.7933468286006775,9.153416340280453,-0.0341971944589939,0.009414815992067394,-0.2631316787834362,0.2944104607931239,-0.316134568281339,0.26945041733148245,-0.3320522450944831,-15.502814391256026,3.966782800469833,18.612306220282658,-258.42515062347235,74.00571432319984,8.400925767292883,4.126665622640175,-1.57122956369117,166.2518,168.80487194495785,6.0,8.30583162384483,1.755148798704549,1.1244085703031232,-15.292434976066318,15.512911637939483,1.5574729000000002e-19,2.416093947618536e-18,9.365100892517619,1.474027431491673,-0.9769713547706628,-5.955578353636558
8087,8087,7.102922999999805,0.0,2500.0,-2500.0,2500.0,-2500.0,8.913852367462358,48.66727093454207,88.79466411916826,105.0,11.0,1.612671926580892,1.7955039825327324,9.279778515736659,0.038711265741112166,0.03204653011345217,-0.2535668474596963,0.2922391263007783,-0.3557957530846937,0.11203531943614617,-0.3892707264387963,-17.318026468430553,4.416268973149622,16.394178680289112,-257.5939659813377,74.37426340923092,8.617839848056484,3.838435049606862,-1.3172537004917717,166.2518,168.6860283238481,6.0,8.619701865009088,2.851514119079903,-2.338258133669391,-11.707572997805185,15.511547382859039,1.5574729000000002e-19,2.4158814685868883e-18,9.424504622623877,1.4229427202917908,-0.6626677895721143,-4.0220343888289625
8088,8088,7.1999559999998155,0.0,2500.0,-2500.0,2500.0,-2500.0,8.920983280343751,48.74516050665164,88.68886733107624,105.0,11.0,1.614675779667816,1.79700690992111,9.258236055527448,0.1288741344912599,0.0676034361104032,-0.2435806882784856,0.2927845667554237,-0.3991743331190675,0.0646065016171087,-0.4104069965159271,-19.833074118754013,4.2133353401148605,14.179610062077026,-256.7469658684935,74.71911404555226,8.804078092704632,3.519341121614085,-1.1198170451722609,166.2518,168.59350305780168,6.0,8.878059052111446,0.8966487802426424,-0.5016967887432151,-12.593311165547727,15.509150362016586,1.5574729000000002e-19,2.415508139086602e-18,9.454821216266337,1.3966975229196137,-0.4932715122106069,-2.9864949211954874
8089,8089,7.296550999999795,0.0,2500.0,-2500.0,2500.0,-2500.0,8.864790664063227,48.13301373181383,88.60556345244422,105.0,11.0,1.6161579473911518,1.7978421526088482,9.243684294735614,0.15974717522243054,0.0622822776601311,-0.23725156114820944,0.2954451082051805,0.033725963315100034,0.20984220940477272,-0.4034634984242499,-21.653934003297262,4.125041749321556,11.857270587490364,-255.88677008946885,75.02446035831679,8.938031564379873,3.200338530193044,-1.047076865611227,166.2518,168.5114956188763,6.0,9.053672764247047,1.2506831276820396,1.872870498466664,-9.71402516228266,15.50676416115423,1.5574729000000002e-19,2.415136494768895e-18,9.455859655420968,1.4278906395163793,-0.4350700989678549,-2.634357237336296
8090,8090,7.411016999999788,0.0,2500.0,-2500.0,2500.0,-2500.0,8.795808637153106,47.38683602605251,88.51753976425749,105.0,11.0,1.6167147226460057,1.7972853773539943,9.242571412289406,0.07834508700746651,0.008338358494403245,-0.2453583264326993,0.2906530781875846,0.3856153267999397,0.3690919498355238,-0.3947462296276508,-19.959493330072263,5.2014383246228055,8.796218028306876,-254.85314272860919,75.34013923948764,9.047541306618557,2.81043590413518,-0.9788676999231076,166.2518,168.42067458906303,6.0,9.158296795330957,1.0220467249787153,-2.5889804660645432,-9.549317834487775,15.504728451655366,1.5574729000000002e-19,2.41481943853122e-18,9.421055561939456,1.4308554733628212,-0.2441285219599427,-1.4843776600164729
8091,8091,7.5015609999998105,0.0,2500.0,-2500.0,2500.0,-2500.0,8.881391154542671,48.313470273467715,88.45732377472186,105.0,11.0,1.6173223541818529,1.7971611432036356,9.228949544507858,0.022450807523393547,-0.02245499552775837,-0.23891087505975775,0.28507793769470946,0.2854643679436604,0.3532192439706235,-0.4443118516608971,-17.917299535318712,6.074033729645295,5.953863038331972,-254.03089631164818,75.55437776179626,9.111741253264325,2.485129225077232,-0.7855232192431676,166.2518,168.3639199626122,6.0,9.197889979312047,2.2930662521945395,0.6505606950181928,-11.505259006448815,15.505709470218694,1.5574729000000002e-19,2.414972229513897e-18,9.351161044710711,1.4549146936250117,0.03362614726440827,0.20603088815551954
8092,8092,7.59829099999979,0.0,2500.0,-2500.0,2500.0,-2500.0,9.014980461826056,49.77787578982989,88.41757476308372,105.0,11.0,1.6183003188869618,1.797650174454425,9.18934148496861,-0.0233450789883564,-0.036558626972412515,-0.235686171235014,0.2783180719969993,0.2676740867025409,0.2381351250069247,-0.4365189736191775,-16.242023471561886,6.765966774172045,2.828711844970268,-253.1485050996769,75.75016817468178,9.170374572907571,2.103934332758769,-0.45669580120148207,166.2518,168.3298263738187,6.0,9.243859089754467,1.9611657422323183,-2.4069077050240355,-12.470227708338706,15.506757512337778,1.5574729000000002e-19,2.4151354592337507e-18,9.252324884208633,1.4589374268595832,0.41809216652031533,2.5873098952339735
8093,8093,7.715260999999828,0.0,2500.0,-2500.0,2500.0,-2500.0,9.434088118793566,54.513756443929566,88.41680633656084,105.0,11.0,1.6197234779348642,1.7980001,9.184630586998203,-0.06016247102718795,-0.04840566588210458,-0.21443021571312,0.2662736776587037,0.2933104677985829,0.16536095472166282,-0.353443092499225,-13.792571655599385,7.093555612791276,-0.1865707042368494,-252.08159145960545,75.9456826165232,9.213496557754588,1.6561508677081704,0.006013806813271183,166.2518,168.33985654042618,6.0,9.357908137454148,1.2669644588290878,-0.4579798962755688,-15.263671811181972,15.508100665187593,1.5574729000000002e-19,2.4153446516501648e-18,9.136832214557117,1.4007213439043176,0.9018873755857966,5.637346114494482
8094,8094,7.811771999999792,0.0,2500.0,-2500.0,2500.0,-2500.0,9.605650304921333,56.5144792558541,88.43982550642882,105.0,11.0,1.621185396642261,1.7980001,9.232387085412736,-0.0077626990882222685,-0.042535187594670426,-0.2002371242961537,0.2567661830905304,-0.1941439324971792,0.07598660905540851,-0.3722282705174236,-13.603947949178231,7.112119309207747,-2.469799994932808,-251.20312782752998,76.0744874651181,9.216795204593613,1.3284059437273734,0.3205898182688004,166.2518,168.38051457839452,6.0,9.500685376842986,1.6343660481382287,1.4483104861029268,-12.359073292140634,15.509422711643474,1.5574729000000002e-19,2.415550556802923e-18,9.040886295584382,1.3697653487997985,1.1969140917016818,7.541476800586988
8095,8095,7.907235000000014,0.0,2500.0,-2500.0,2500.0,-2500.0,9.723642108389225,57.9113917460139,88.4874092471457,105.0,11.200782337667556,1.622401664675335,1.797598535324665,9.248760899996617,0.007820681739144691,-0.0504497568528547,-0.1991768173884058,0.2504632613819672,0.12766605313979285,0.1165356257543296,-0.37325229634363416,-14.153675996550596,7.127853564394896,-4.589831117865004,-250.33238329320113,76.16737850841268,9.188599289285387,1.0238825862887722,0.5026760448825305,166.2518,168.4345465628282,6.0,9.636645805965417,1.081181065878543,2.46836247206258,-11.875010440566314,15.510730402174275,1.5574729000000002e-19,2.415754226059254e-18,8.94467418686179,1.3449380194321623,1.3579143660838349,8.632308291253299
8096,8096,8.00550799999985,0.0,2500.0,-2500.0,2500.0,-2500.0,9.726627354669667,57.946971578056825,88.54426297261497,105.0,11.674197790763184,1.6233484955815265,1.7966517044184738,9.224616238473287,0.012934371978656416,-0.07749739765052774,-0.20231470797309006,0.2449779493140169,0.1637515333511667,0.21207145925959595,-0.3709514448573557,-14.2831256215541,7.6455686746199385,-6.6720599709969015,-249.4364848489953,76.23263461359585,9.131324975179073,0.7152383903435275,0.6092366468345884,166.2518,168.4960730653421,6.0,9.739787265721064,0.993876747913894,2.588120938824976,-12.153393993266947,15.511979754345887,1.5574729000000002e-19,2.4159488092742373e-18,8.825437148443052,1.3116440276805033,1.5081221639159783,9.697240720917577
8097,8097,8.123339999999985,0.0,2500.0,-2500.0,2500.0,-2500.0,9.869785311503392,59.665266215495606,88.62582818053285,105.0,12.0,1.6245143023472712,1.7960001,9.135750957756263,0.030335011635607343,-0.10688538541442126,-0.2055583319764593,0.2390644192643448,-0.028725943413310463,0.1993205878537804,-0.3101608141396077,-14.74035056033642,8.625583281660237,-9.184845511739526,-248.36910569709264,76.27732669986159,9.03168974575125,0.3366697530389592,0.7376659241224591,166.2518,168.58280934688096,6.0,9.83569742607674,0.9845102678610981,-1.398860416157218,-10.831172337953095,15.512913090269787,1.5574729000000002e-19,2.416094173815045e-18,8.651282815116135,1.2301800291522054,1.7246363359290449,11.274137928588026
