,Unnamed: 0,timestamp,thrustinput,Position state,Position state2,PA-ON,PA-ON2,Airspeed[m/s],Differential Pressure[Pa],GPS Altitude[m],GPS Noise Magitude/ms,GPS Satellite Num.,Horizontal accuracy[m],Vertical accuracy[m],Groundspeed[m/s],Roll control,Pitch control,Yaw control,Thrust control,Roll Angular Rate[deg/s],Pitch Angular Rate[deg/s],Yaw Angular Rate[deg/s],Roll angle[deg],Pitch angle[deg],Yaw angle[deg],Local X[m],Local Y[m],X-velocity[m/s],Y-Velocity[m/s],Z-Velocity[m/s],altitude set position,altitude(Tecs),airspeed set position,airspeed(Tecs),X-acceleration[m/s^2],Y-acceleration[m/s^2],Z-acceleration[m/s^2],Battery Voltage[V],Battery Current[A],Inst. power[Ws],Body_Uvelocity[m/s],Body_Vvelocity[m/s],Body_Wvelocity[m/s],A.O.A.[deg]
2647,2647,0.0,0.0,2500.0,-2500.0,2500.0,-2500.0,11.645747262352257,83.06937206054957,83.98755453042203,107.0,11.0,1.4930281589418577,1.5717747538056523,15.115505065162596,0.3052953823800839,-0.13643372803096582,-0.11471193600334036,0.3032004292643703,0.8242096262507563,0.16164368977326887,-0.4415574557732795,-23.10039811963861,5.7608876551895865,7.4667066518198,285.7854219602859,-39.707297402967036,-16.189915388074354,-2.1175018250633757,-0.18192077516336586,166.2518,163.90854444599998,6.699426,11.8758041983,2.5966617583515528,-0.2182181601815657,-7.865890274591239,15.896138796921784,1.5574729000000002e-19,2.4757805390844285e-18,-16.227078267518117,0.7183537175941416,-1.6744499890032278,5.891421675697598
2648,2648,0.11981900000000678,0.0,2500.0,-2500.0,2500.0,-2500.0,11.766472150061855,84.80054227709591,83.99081132311652,107.0,11.0,1.4940859870416163,1.5763437309799162,15.08673937872793,0.2559897603586335,-0.14645509809163665,-0.09951840158610743,0.278972327990258,0.6564695818323965,0.28756699350067605,-0.4591477972162897,-18.203152932314875,6.390841628552757,3.935764033777805,283.94822344741954,-39.9093032475228,-16.161233854041086,-1.6258950246769484,-0.15155788681647747,166.2518,163.89987943963575,6.0,11.893709656126507,-1.0283619123637215,-3.123986217112526,-10.782968828265163,15.8968701570677,1.5574729000000002e-19,2.4758944464451688e-18,-16.116960971179694,0.1019629322428214,-1.802652135035652,6.38190212385234
2649,2649,0.21736799999996492,0.0,2500.0,-2500.0,2500.0,-2500.0,11.895956154749285,86.67722614372241,83.9935073866694,107.0,11.007360494740405,1.4950295419789617,1.5800294427150112,15.067419513555016,0.257798650983854,-0.18155144042435012,-0.09352668909643697,0.273168363322128,0.19542336468838709,0.4405916050624479,-0.328723329756084,-14.854045803063526,7.545391453483362,0.9737871226935058,282.45626585678593,-40.03403809624432,-16.09531784246807,-1.2474897741764024,0.03159898943340311,166.2518,163.906699807644,6.0,11.936222890261648,2.1932194828318488,2.273000044000668,-13.179365238010654,15.906384553461494,1.5574729000000002e-19,2.4773762878994883e-18,-15.97881314859731,-0.4309210817159987,-1.8871230027073855,6.735521801137332
2650,2650,0.31099899999998115,0.0,2500.0,-2500.0,2500.0,-2500.0,12.010467470527706,88.3539463868881,84.04017218787506,107.0,11.488288954634898,1.4969532558185394,1.581953204647435,15.029425684294887,0.20791743849632502,-0.20392718093677314,-0.09917427447272292,0.2685428337596052,0.5566357003860614,0.2739733819159236,-0.41415951089610864,-12.160445468967858,8.660842806253955,-1.7182624451753985,281.05943699615847,-40.12978708723113,-15.977630755211866,-0.912303725526806,0.27619725213706703,166.2518,163.94426637569825,6.000003809455308,11.982340249999964,1.7647728877643871,3.4508178654794346,-14.383701123775804,15.915516809545588,1.5574729000000002e-19,2.478798612036172e-18,-15.802883836784988,-0.9269092431105632,-1.8705418141201813,6.750526520015284
2651,2651,0.4077029999999695,0.0,2500.0,-2500.0,2500.0,-2500.0,12.061555071119207,89.1071890484843,84.09725419625231,107.0,11.985001643655405,1.4989401065746215,1.583940105074786,14.99018488514958,0.1558416489420455,-0.22058885314416293,-0.10381143546392672,0.2616048611120354,0.5298666538830483,0.19231908002539425,-0.3882258589119446,-9.963721076145406,9.549990365142275,-4.2108464069412666,279.62159284282745,-40.19974010466931,-15.83064525324713,-0.6022241282598547,0.5086667017709804,166.2518,164.01150818236627,6.00000035548857,12.019065587992976,1.3238526874460512,2.9810657954444015,-14.084634752090896,15.924948789256975,1.5574729000000002e-19,2.4802676173155557e-18,-15.609896008253667,-1.3734131302435804,-1.7860634290733164,6.527320822850562
2652,2652,0.526994000000002,0.0,2500.0,-2500.0,2500.0,-2500.0,12.149991999234896,90.41867403417507,84.21757642964296,107.0,12.0,1.5998735894646714,1.6884548967829438,15.008697190250496,0.11942068494522888,-0.24041708234817846,-0.1073566928480503,0.2525675078178792,0.35025894382815553,0.1366603898228475,-0.37741801165369226,-8.150793063981233,10.439571525176897,-7.057664031489191,277.8775014871825,-40.25315388356403,-15.62259147903658,-0.2477305079587053,0.7151830443555596,166.2518,164.13500585223332,6.0,12.059392572546287,2.0817765629351443,-3.485747012961064,-9.547810948779436,15.937465399501246,1.5574729000000002e-19,2.4822170454410867e-18,-15.347226571622715,-1.8317252415989895,-1.6868996811870876,6.272520732123172
2653,2653,0.6253179999999361,0.0,2500.0,-2500.0,2500.0,-2500.0,12.26941103541266,92.20483260094758,84.33001133473351,107.0,11.90596628683362,1.6819170895486242,1.7736693592539552,14.958245236506908,0.09947637364317767,-0.2569801090875373,-0.1120754296897982,0.2457899089653829,0.12303560508170215,0.15902778715407584,-0.2561849704965485,-7.32800388162813,11.125527084136687,-9.053268043263316,276.4515614013759,-40.269099364686646,-15.422195963820926,-0.0017636744978398735,0.8597595178494261,166.2518,164.2596603407749,6.0,12.09239293187067,0.7119853915850938,-0.13566805921409353,-12.995292653811047,15.947813465445796,1.5574729000000002e-19,2.4838287286686916e-18,-15.109477806966273,-2.115594399938631,-1.6094194471557046,6.080061218838817
2654,2654,0.7213849999999411,0.0,2500.0,-2500.0,2500.0,-2500.0,12.357322930273128,93.5308614235914,84.4555135733538,107.0,11.448131573805421,1.7496766270767978,1.8450915744863543,14.647833758908506,0.062012865204043324,-0.2737203347057685,-0.11624031416181535,0.23900194401993044,0.4041485043899725,0.12858842621380318,-0.2210486034251956,-5.912820540985888,11.766028476903776,-10.493628990274091,275.0772441566747,-40.270782914564144,-15.218360987260098,0.2102488271572447,0.918292494667947,166.2518,164.38911337407092,6.0,12.138530790242932,0.15687064144965246,-0.6380529941743565,-11.317381976797414,15.957636272139265,1.5574729000000002e-19,2.485358604191393e-18,-14.874164689446394,-2.2885063453720838,-1.625648870854626,6.237297437112669
2655,2655,0.8173219999999333,0.0,2500.0,-2500.0,2500.0,-2500.0,12.280736615260002,92.375111586737,84.58295972722637,107.0,11.0,1.8225865079502963,1.9218483529547183,14.341422823731651,-0.15848058819054522,-0.2902350661808113,-0.13500563295763934,0.2333511838878989,0.1879084398673458,0.13635602086501936,-0.1188687476642746,-4.7899697170952,12.503561056448998,-11.560940116366904,273.7077178577295,-40.256754019235785,-15.014282938557685,0.3885510218115108,0.9557221239306636,166.2518,164.5214294503404,6.0,12.158421921856227,1.04710558085274,-3.499931760166324,-9.631224418901484,15.964592464792002,1.5574729000000002e-19,2.486442012345775e-18,-14.643735553392188,-2.3765842768714167,-1.6914926726488522,6.589014015316943
2656,2656,0.915820999999994,0.0,2500.0,-2500.0,2500.0,-2500.0,12.199967466181095,91.16404224245629,84.7176674789707,107.0,11.0,2.1629614275042752,2.2757549992083552,14.208186840391686,-0.38699795167505546,-0.3019223344774885,-0.1376609865783987,0.22883506881146565,0.018913874314968267,0.0729073362334289,-0.053549732672767705,-3.669791135728739,12.962966657893755,-12.274525955124455,272.3441212198583,-40.247677151300245,-14.7881965918046,0.5181537603593216,0.9955932839338006,166.2518,164.66515208590144,6.0,12.143778078476107,1.0479100084161037,-0.2121456069194476,-10.546462067769708,15.971734422744632,1.5574729000000002e-19,2.4875543529421902e-18,-14.412565924624689,-2.423427685857892,-1.6995851328545049,6.725478259332818
2657,2657,1.0325399999999831,0.0,2500.0,-2500.0,2500.0,-2500.0,11.965401376993306,87.69222742027539,84.87872503843994,107.0,10.866222132611792,2.4409702027767595,2.564364895123674,14.02833507114486,-0.4124885959002783,-0.30817052942174783,-0.15242230351404806,0.2263666267140595,-0.52604498845162,0.015605266026089637,0.058829677968813235,-5.0960744991604505,13.215611884290615,-12.47266264609672,270.73299928172474,-40.219401075532176,-14.54153889961998,0.6630821367117828,1.0367238896567874,166.2518,164.8351199999999,6.0,12.07040176250005,0.8845814367852521,-0.701312829559215,-9.517096745830148,15.980148305510195,1.5574729000000002e-19,2.488864792381304e-18,-14.198754134011226,-2.2255453116376835,-1.6904959926739214,6.7896435008130185
2658,2658,1.1294189999999844,0.0,2500.0,-2500.0,2500.0,-2500.0,11.582553064057885,82.17059200033438,85.00723447860379,107.0,10.401146379399897,2.3400487643297776,2.4578626406533006,13.820911285212354,-0.3207417893799315,-0.2972328006456137,-0.18268844373456095,0.22825936113357298,-0.7852879776460562,-0.09836884316500012,0.17058849829549172,-8.526293666695253,13.082838258501866,-11.926559503482242,269.4293386241346,-40.197994621922504,-14.330132345728224,0.7854460136936325,1.0974484372841462,166.2518,164.97332014109261,6.0,11.940690607325704,0.4074661925547327,0.51530175136046,-9.884878103425391,15.986912613983106,1.5574729000000002e-19,2.4899183150946854e-18,-14.06338896666667,-1.818512970035849,-1.62145818846198,6.576956920274477
2659,2659,1.2259279999999535,0.0,2500.0,-2500.0,2500.0,-2500.0,11.171471853258119,76.44124976454918,85.13465888967413,107.0,10.0,2.2407047816831422,2.3522862891353524,13.617544743211624,-0.227056664844226,-0.27462166028092844,-0.21775361967577456,0.23532559210109155,-0.7036180800024654,-0.15145108606799626,0.21457987771429984,-12.139872894214161,12.598337417810733,-10.702282301458832,268.13406773552845,-40.15583908901632,-14.130739210242352,0.9448706874098504,1.1010141139468896,166.2518,165.1028017403505,6.0,11.72085360877856,0.1458898833835168,1.1547492001838808,-9.358308652486603,15.993651088228429,1.5574729000000002e-19,2.4909678141971288e-18,-13.962025016836462,-1.2359223818844018,-1.577863889811893,6.4477033090059575
2660,2660,1.3233050000000048,0.0,2500.0,-2500.0,2500.0,-2500.0,10.676501932926874,69.81761264281188,85.26050775391636,107.0,10.0,2.1482299632659885,2.249141197741694,13.433611821276507,-0.15558955613442702,-0.2562313182746452,-0.2562533326275361,0.2464173569831616,-0.5113298891256156,-0.11959851384097007,0.2616386242893602,-15.208388172448725,12.143189075943464,-9.212964102491194,266.85641814936287,-40.11120840285408,-13.940535027992325,1.099086313291902,1.0170809157436431,166.2518,165.22805278840372,6.0,11.418967554207107,0.9125918479222336,0.6789899433066274,-9.142491943572447,15.999800741026899,1.5574729000000002e-19,2.4919256059549316e-18,-13.838786617849092,-0.6131484797961761,-1.6281983446093755,6.7102688692838095
2661,2661,1.4431720000000041,0.0,2500.0,-2500.0,2500.0,-2500.0,9.907628369532707,60.124053782100894,85.41453557064067,107.0,9.808238056857324,2.0422357277047927,2.13116753661451,13.18546236203066,-0.0990371200253168,-0.24135730305415826,-0.30471019851408443,0.2630758293930613,-0.2582789541677865,-0.12164299989930336,0.1826703722803762,-17.559368427710528,11.756366534469429,-7.608242217139247,265.29398882314996,-40.02409576479351,-13.748038798269418,1.3089858359698845,0.8650407717319082,166.2518,165.36997207755962,6.0,10.905425399959842,1.214422630308178,-0.5685850474553376,-7.924386600902277,15.999531250145905,1.5574729000000002e-19,2.4918836334805366e-18,-13.687077443362426,0.08100846065884887,-1.7668576846262305,7.355604115745224
2662,2662,1.5389299999999935,0.0,2500.0,-2500.0,2500.0,-2500.0,9.284911773158246,52.803843968157494,85.50326073054605,107.0,9.331815875100807,1.9707724480835336,2.052081502085147,12.950586226424699,-0.0551689499290174,-0.2284715010871325,-0.3420079324317545,0.2734225481895818,-0.1754223423890403,-0.13017079931787326,0.07530105799167683,-18.455035040667802,11.371210215609205,-6.791181964162946,264.077799626004,-39.93618323654454,-13.609165126063859,1.4624313605046448,0.7153435883126321,166.2518,165.46566764723642,6.0,10.402099961190324,0.6683494003126996,2.3972821360960124,-8.796668520363944,15.999315962303694,1.5574729000000002e-19,2.4918501029825425e-18,-13.558990953137114,0.4781949308520832,-1.8635237774643387,7.825603241469703
2663,2663,1.6303399999999897,0.0,2500.0,-2500.0,2500.0,-2500.0,8.715153240437692,46.5222038291925,85.58533614789464,107.0,9.12422163588394,1.9150374614775711,1.9896710234828476,12.793336179208445,0.07436698804021641,-0.2193317823843133,-0.3595009291080411,0.2842865067562509,-0.2396246721993784,-0.11354751608873973,-0.06211846388064536,-19.614507998934904,10.81810203390871,-6.633901128177268,262.9175198123379,-39.83637482654026,-13.50220526933671,1.6133753209339594,0.5461309474427848,166.2518,165.5372345057632,6.0,9.862133144603535,0.9161175422219958,-0.7166522991142097,-7.404762477575206,15.998047848745134,1.5574729000000002e-19,2.4916525977323844e-18,-13.459024653891781,0.7186707186003141,-1.9068873438462024,8.064048207313155
2664,2664,1.75033499999995,0.0,2500.0,-2500.0,2500.0,-2500.0,8.126444604310128,40.44897862593897,85.657854636496,107.0,9.727287347656807,1.8860903073124733,1.9540901464882483,12.824091927443149,0.2449022351492461,-0.22015811212788228,-0.34261201782459283,0.2987969685494356,-0.14165177300349774,-0.03426418056600177,-0.17176759228514338,-21.096434951071323,9.979196577032985,-7.385752751819166,261.42270886842107,-39.701524395162686,-13.367721149799399,1.824411711979784,0.2961695454221389,166.2518,165.60510091181612,6.0,9.123371673794903,0.21660483859856272,-1.2063226967748986,-7.833339733192326,15.988971134086446,1.5574729000000002e-19,2.4902389240221907e-18,-13.338546999118275,0.8260115106014742,-1.924832823934928,8.211440871096709
2665,2665,1.8495459999999184,0.0,2500.0,-2500.0,2500.0,-2500.0,7.898357651681052,38.210235500242355,85.71143566810309,107.0,10.226975710750759,1.9374611791556444,2.003142128985468,12.820523097247904,0.2860597262325365,-0.2094170359261984,-0.3105752162447618,0.3092655062084138,0.04965869872431695,-0.07276703092512478,-0.2743371366471825,-20.83903736813597,9.074535521995204,-8.695735703098153,260.190155930575,-39.56767864845958,-13.277965566962964,2.0044428337276656,0.07231614639233605,166.2518,165.64003053588374,6.0,8.544991780552465,0.1703813143769215,-0.6794223747956201,-8.967257156620983,15.981466571913007,1.5574729000000002e-19,2.489070108801041e-18,-13.271719445291732,0.7022998199697728,-1.9085182134202376,8.183226806017736
2666,2666,1.9445969999999875,0.0,2500.0,-2500.0,2500.0,-2500.0,7.978516398479209,38.98976648602147,85.72713748034968,107.0,10.70695854163499,2.0737762551284833,2.1408972014492416,12.783564899252648,0.2918993287398676,-0.18269609900481107,-0.2597901214892409,0.3162289467100385,0.2624253453931489,-0.12884360712057755,-0.4189458647284536,-19.870083532669717,7.890395114609678,-10.427311404616928,259.0218984274609,-39.425986492953015,-13.20736521712883,2.1802297962015307,-0.12343946695380754,166.2518,165.66031901768758,6.0,8.104409862296427,1.3086645117646292,3.644402958927625,-8.52485534787407,15.975473946659115,1.5574729000000002e-19,2.4881367736577614e-18,-13.240187768464965,0.42222068857238665,-1.8091313488693317,7.780677252299564
2667,2667,2.0407920000000104,0.0,2500.0,-2500.0,2500.0,-2500.0,8.111077338677385,40.29613110001853,85.74045887664894,107.0,11.184365368450806,2.1402227514709766,2.208038486102526,12.788102709162269,0.2738396934563265,-0.13942077820131554,-0.2209355079457932,0.3204271463070995,0.40708196902630334,-0.1764307813741858,-0.5601810242772155,-18.93203155864021,6.397478189993036,-12.634634939549592,257.82773698240976,-39.25639602426767,-13.16566757249527,2.3850154367249945,-0.275101354709845,166.2518,165.6627271029721,6.0,7.809565004968277,1.6488769767812137,4.2778056092703585,-9.531017953062287,15.972193180071313,1.5574729000000002e-19,2.4876258031525887e-18,-13.254637657983846,0.02292679984034318,-1.6060472252534963,6.9087753253005495
2668,2668,2.1349440000000186,0.0,2500.0,-2500.0,2500.0,-2500.0,8.161163766767157,40.79531892916367,85.73084964688347,107.0,11.639201553608501,2.0988326586216264,2.1661935570680177,12.85496362838045,0.21899867850110746,-0.08999248000173175,-0.19861430960138954,0.32257688145906976,0.6008949063842015,-0.1999967112527561,-0.5493812361543027,-17.6920070130157,4.917628773056957,-14.970622306909338,256.66636241927034,-39.07755929326549,-13.130198198281365,2.5832541607519643,-0.4551552369876038,166.2518,165.65461367185938,6.0,7.640730905681965,0.5206744893526083,1.9839096486862084,-11.085373288844757,15.968982090765483,1.5574729000000002e-19,2.4871256846952587e-18,-13.263688132289813,-0.40732160591294064,-1.445634543972414,6.220222805175366
2669,2669,2.2543640000000096,0.0,2500.0,-2500.0,2500.0,-2500.0,8.272476766769623,41.915756757435005,85.71132997739255,107.0,11.772417863065755,2.0355039936508112,2.1025040936508117,12.943048421505734,0.1007137770623118,-0.055791474821163284,-0.18296748553436806,0.3232827627611993,0.24272692761686784,0.042070709361782574,-0.36339154290777975,-14.950383218670002,3.3583608716725863,-17.876344579665858,255.18440447445045,-38.81550174690181,-13.099577213546116,2.8163623285257544,-0.6841243650906723,166.2518,165.62316171543517,6.0,7.550012461730665,2.1007726378770686,3.2980180365097804,-8.07952433378731,15.967570600857432,1.5574729000000002e-19,2.4869058489672167e-18,-13.268695072954252,-0.9607321984248156,-1.335836260438522,5.748926695987492
2670,2670,2.3472600000000057,0.0,2500.0,-2500.0,2500.0,-2500.0,8.526434000086264,44.52904950883885,85.65855706420233,107.0,11.299813799207994,1.9721750490938712,2.0391751490938708,13.015828974735768,-0.06330385304741834,-0.0569957233732168,-0.20758046272606048,0.3224393684862273,0.6412173031308368,0.0013624985381048345,-0.4871180348289713,-12.206202905244567,2.891883503922529,-20.254012088513157,254.03662340453084,-38.58979597032084,-13.084123305227747,2.9973227962592546,-0.8635747830323238,166.2518,165.58423169558438,6.0,7.580897176869133,3.208174957747865,0.4541606231577848,-4.71695366913298,15.970820431579682,1.5574729000000002e-19,2.4874120012951658e-18,-13.252193269311778,-1.3909608308367711,-1.4127883262596237,6.085198209874668
2671,2671,2.460187000000019,0.0,2500.0,-2500.0,2500.0,-2500.0,8.922449658139223,48.76120115809877,85.59152588190659,107.0,11.0,1.9065475428389465,1.9712337293406408,13.002096681728716,-0.15996146728773364,-0.06734629580572088,-0.18964011628655505,0.3199085323408974,-0.08361716909000373,0.16067955166743705,-0.25407260512242896,-9.81418476297841,2.946157049817309,-22.895841529170113,252.62899937668362,-38.282462767351106,-13.063246994273994,3.2392303564824916,-0.9911723781884104,166.2518,165.5080965094198,6.0,7.772983865663992,-0.31473408548339643,-2.4729799154873158,-12.141114602161682,15.97477101754648,1.5574729000000002e-19,2.4880272943534066e-18,-13.225771774273564,-1.810357169673848,-1.5408211593909442,6.6450839298328965
2672,2672,2.5558260000000246,0.0,2500.0,-2500.0,2500.0,-2500.0,9.236389073665839,52.25294360142754,85.50981648509584,107.0,11.0,1.861464710161446,1.9220523621124583,12.895992534008794,-0.16769467604866142,-0.0660246372926515,-0.17826549302109115,0.316227479115667,0.3174434240692308,-0.030018793410692805,-0.3396582383888734,-8.775955965624348,2.971812651475088,-24.71732547869172,251.43435749407558,-37.99685348901772,-13.066234817389306,3.450094964899662,-1.0232107035884557,166.2518,165.4330636022485,6.0,8.03735885824999,-0.13879113715142372,-2.338302953324357,-13.282236214272812,15.976880727442456,1.5574729000000002e-19,2.4883558759523908e-18,-13.240808274332796,-2.065203941266069,-1.5711613079114066,6.767104859334832
2673,2673,2.651707999999985,0.0,2500.0,-2500.0,2500.0,-2500.0,9.548331969954383,55.8420900856712,85.42643756442611,107.0,10.817294181228721,1.8147294998522905,1.870902378205741,12.892947219275769,0.1435926321066839,-0.07324325247215488,-0.11681818473712058,0.3117425415147611,-0.35627915315843217,0.12535092267492134,-0.06933322302135357,-8.391160079121143,3.0042135374773467,-25.947589165625743,250.23473588606728,-37.6905992990273,-13.064808247356885,3.6404611886788505,-1.0719626979431838,166.2518,165.34877422292146,6.0,8.36723372127445,2.0603759794528305,2.7245058476805064,-10.076873756842815,15.97714732916811,1.5574729000000002e-19,2.4883973984486713e-18,-13.266170072959097,-2.1814022412224063,-1.6226856372093823,6.973639087921794
2674,2674,2.7598659999999313,0.0,2500.0,-2500.0,2500.0,-2500.0,9.831986895961725,59.209143574716435,85.31027356905552,107.0,10.260596546310707,1.7590596806907255,1.809665694034523,13.087791948194706,0.17152158126742328,-0.07425541837732008,-0.10399202473992857,0.30646089826166645,0.33197269139289765,0.008689004734895957,-0.14520398733700318,-7.976877091754794,3.107346678789984,-26.783799604254604,248.8892326766053,-37.330971250750274,-13.035458457574528,3.8472705498249993,-1.1783992381779658,166.2518,165.238596484703,6.0,8.781476811162937,2.00325894027886,3.847576916424905,-11.260419925481427,15.977448064545381,1.5574729000000002e-19,2.4884442371686883e-18,-13.287067836796082,-2.172138935761458,-1.7508040623931915,7.506478285102902
2675,2675,2.8567679999999314,0.0,2500.0,-2500.0,2500.0,-2500.0,10.020802881454562,61.505118591030524,85.2022878566682,107.0,10.0,1.700847528290628,1.7458620186658491,13.121126550923133,0.119085619477565,-0.08491487322715245,-0.10866492434778642,0.30226513291610424,0.4614911841391065,0.08577815631197462,-0.11567417416754053,-6.725115230045935,3.5797494810344594,-27.33136833568236,247.6851629601392,-36.99441602266886,-13.002170083721614,4.025596330737914,-1.2673179327912556,166.2518,165.1232728927356,6.0,9.150265320242307,0.7003752565322263,1.106500950727595,-12.69091119869351,15.979824832096655,1.5574729000000002e-19,2.4888144122737597e-18,-13.29371012211078,-2.1427988023827416,-1.9375399966904083,8.29239265906453
2676,2676,2.9520860000000084,0.0,2500.0,-2500.0,2500.0,-2500.0,10.229209505133342,64.08999264120696,85.08218690593691,107.0,10.0,1.6346150486400484,1.6734793328816588,13.001908087552087,0.06355115328563905,-0.09493267920376113,-0.11298079400660027,0.29773752156064826,0.0707702528186423,0.1757000754671138,0.02067948573666032,-5.029749940387428,4.2165625591407485,-27.71824809048551,246.4947630666983,-36.646536738357675,-12.988069238670835,4.172974676282257,-1.2930797968023175,166.2518,165.00369392473382,6.0,9.502875570768394,1.2752251496559883,2.6625242812625602,-12.995464530989699,15.985190329069606,1.5574729000000002e-19,2.4896500738867998e-18,-13.307130699858842,-2.140912805448391,-2.096337432254366,8.95250956420767
2677,2677,3.0478369999999586,0.0,2500.0,-2500.0,2500.0,-2500.0,10.2795643811852,64.72254775773419,84.95935051434157,107.0,10.174256781052703,1.5938712839052638,1.6276514864378946,12.953836370025337,0.02371092691989597,-0.09512106615818376,-0.11574468220522335,0.29268234988800684,0.02219073280866481,0.11877899761845707,0.008954751420842856,-3.5008246642097878,4.73265010387102,-28.05635018327392,245.30640422087788,-36.289704433582976,-12.972759710944707,4.3043440721547075,-1.290325361175305,166.2518,164.87813388112238,6.0,9.830401366868065,0.7352050994968624,-1.8303172738341127,-10.718807661681478,15.990580199824944,1.5574729000000002e-19,2.490489531650393e-18,-13.320380405802524,-2.148831451787081,-2.203023539545987,9.390993769588858
2678,2678,3.170751999999993,0.0,2500.0,-2500.0,2500.0,-2500.0,10.117791764936149,62.701451647999704,84.8093721822385,107.0,10.771528810363824,1.5968576440518192,1.6264569423792723,13.045815665267217,0.01694431090457473,-0.09394215977194938,-0.11598951878688822,0.28834905560028096,0.04125151549805625,0.051013108168970686,-0.06424252389901051,-2.6317868213558455,5.205372235095576,-28.54935621432739,243.78089617754728,-35.81530770633985,-12.97552820968782,4.436321511164897,-1.2113257801650703,166.2518,164.71983006437452,6.0,10.134899827536248,2.367484023865938,-0.08665833376602672,-8.376869894312946,15.99694794778414,1.5574729000000002e-19,2.491481291138442e-18,-13.352317735350365,-2.183108523689472,-2.2211331942385057,9.444564199822056
2679,2679,3.2677189999999996,0.0,2500.0,-2500.0,2500.0,-2500.0,10.009460738652885,61.36596838116418,84.69272749039581,107.0,10.731439662774036,1.6009541905655194,1.6270742682049375,13.156465454760495,0.0016990311192889625,-0.08890750970940726,-0.11976899692147487,0.28743601971119875,-0.014673024921071975,0.0708021270080286,0.01165769846176877,-2.274163793733178,5.458900258468971,-28.76627252185513,242.58728998258044,-35.44197184330148,-12.948627039224725,4.5402503290350715,-1.151122539647214,166.2518,164.602286957858,6.0,10.273125390946495,0.8543129730737657,-3.114020722234928,-10.443259229460967,16.001373496377134,1.5574729000000002e-19,2.4921705583385638e-18,-13.364682084100552,-2.1446518161781136,-2.2174654533955085,9.420681725754765
2680,2680,3.364304999999945,0.0,2500.0,-2500.0,2500.0,-2500.0,9.971091095383736,60.896387773359,84.606240237611,107.0,10.212126588812133,1.6066666863104078,1.6291515724320926,13.302392428543794,-0.009264731454729629,-0.0976728929479679,-0.12022896686063934,0.28698916592995705,-0.037917422870675614,0.1072803623754556,0.0020130285111098906,-1.7356565749994013,5.858557333543753,-28.886326190320183,241.39045047554995,-35.05231632306453,-12.948579847889382,4.6374918920312425,-0.9697761243911378,166.2518,164.50272345495387,6.0,10.35103633960566,2.81960323171919,-1.984402690368028,-10.381618228415778,16.005781656229487,1.5574729000000002e-19,2.4928571172894547e-18,-13.407858701938533,-2.111961169418524,-2.125544441962121,9.008121513897118
2681,2681,3.4575159999999414,0.0,2500.0,-2500.0,2500.0,-2500.0,10.162466904916833,63.25641843783365,84.52512887006101,107.0,10.519692194659818,1.6121182271833492,1.6315591505993696,13.399158251764277,0.0061399473146885675,-0.0972444025728774,-0.12116613115719348,0.28514333456561697,-0.035889999775591576,-0.001558751703696893,-0.039034714553360064,-1.8607497697806048,6.218655069646772,-29.025297187916756,240.24161473044757,-34.67592034770359,-12.940223031050316,4.7223582856998325,-0.7046378829575106,166.2518,164.43341474044144,6.0,10.420803081649543,1.4006866509631166,-2.7229146481421487,-11.167905002129736,16.009382927036118,1.5574729000000002e-19,2.4934180054581435e-18,-13.449879929422545,-2.066035001254949,-1.9404006497522648,8.2093618989253
2682,2682,3.5781000000000063,0.0,2500.0,-2500.0,2500.0,-2500.0,10.503466470047464,67.57274573310822,84.4742669877592,107.0,11.685408248100135,1.6191124652181883,1.6350562404738882,13.482507532443284,-0.0019553174017111433,-0.08251901924553555,-0.12440631265590613,0.28076195545398586,0.08808548736020994,-0.04179547475165462,0.05806974142008301,-2.2380202357045254,5.997518516700612,-28.863861868397574,238.73649493298697,-34.15963748102181,-12.917081711646702,4.8125772599586245,-0.4289626113369017,166.2518,164.37519575473618,6.0,10.564819601955511,2.2899501519708885,-0.4857606024587526,-9.577317656381462,16.012832987020044,1.5574729000000002e-19,2.493955342950977e-18,-13.516102280407065,-1.9374005088444284,-1.6387794610660995,6.913165700146574
2683,2683,3.6734010000000126,0.0,2500.0,-2500.0,2500.0,-2500.0,10.629156999783024,69.19963602551887,84.4413966769818,107.0,12.0,1.623185343262349,1.63381468795684,13.446932995408538,-0.015214237963369253,-0.1003379715250766,-0.1253191978924622,0.2762765441279613,0.1130427688908432,0.0925778603612599,0.04227293752055508,-1.7270822473014866,6.224173307574924,-28.55433261762877,237.55906530701137,-33.74946655772885,-12.874441647228727,4.865670373142108,-0.3142507665460086,166.2518,164.3521593685499,6.0,10.692760270071773,0.9567295041245294,-3.166875342014124,-9.730776614933387,16.015559668557632,1.5574729000000002e-19,2.4943800162111487e-18,-13.519760124447288,-1.814999429504906,-1.58595578136963,6.690590016590242
2684,2684,3.7718059999999696,0.0,2500.0,-2500.0,2500.0,-2500.0,10.592191150341279,68.71914576706462,84.4351043466977,107.0,12.0,1.6266119227765434,1.6303881573937822,13.355883393091455,-0.04435131866860907,-0.12978299091669204,-0.12675414816834268,0.2726815578974259,0.21175258232546545,0.16805353984345622,0.058635308746722736,-1.015299844863461,7.108285510325604,-28.287211303633537,236.3373840742696,-33.30989274192208,-12.829560406637947,4.9003709438359735,-0.2002227792663373,166.2518,164.34469576582882,6.0,10.788175059267397,0.7305178219324246,0.08359265854789877,-12.626948168088019,16.01753209679408,1.5574729000000002e-19,2.4946872165636956e-18,-13.490282540247176,-1.7176904396286763,-1.665397387177912,7.03764962535328
2685,2685,3.8661109999999894,0.0,2500.0,-2500.0,2500.0,-2500.0,10.558638707897575,68.28446296673008,84.43069514831234,107.0,12.0,1.6293884363594633,1.6284447365634835,13.356764991364846,-0.08787825052593519,-0.1487766233200512,-0.12269709562453207,0.26998335211951546,0.2580274744991816,0.12648556847066375,0.06927609346507349,0.4868112831850413,7.9811909235227825,-27.92908169813609,235.17892850287373,-32.89341086517998,-12.791343832723925,4.89610475563222,-0.05344548523360074,166.2518,164.34953906770662,6.0,10.831344910001382,1.3440060946014365,2.3383866069088017,-12.015598769173069,16.01872399106042,1.5574729000000002e-19,2.4948728508656446e-18,-13.455636416749588,-1.665698991919124,-1.7092308113124868,7.239346532051318
2686,2686,3.9830579999999145,0.0,2500.0,-2500.0,2500.0,-2500.0,10.580687762059917,68.56998056942561,84.45513621850182,107.0,12.0,1.6323709400685504,1.6272517589394009,13.437888066291261,-0.11707159916177715,-0.16153274520231986,-0.11910639080382633,0.2676913962347816,0.10873784390263078,0.06836866212140008,0.04444209215233154,1.945636703693671,8.691541351196147,-27.60627429370887,233.73818161178792,-32.36920338762721,-12.741354144440749,4.86791566064897,0.1556026079292222,166.2518,164.37737675261394,6.0,10.841033728250938,1.4840103637042732,-3.183892215761248,-10.089775706668949,16.020202051171392,1.5574729000000002e-19,2.495103054722386e-18,-13.414493721204972,-1.6365514489219215,-1.651823530449455,7.019905204822991
2687,2687,4.079705999999987,0.0,2500.0,-2500.0,2500.0,-2500.0,10.518169997472377,67.76205220338657,84.47893509237177,107.0,11.646365789189119,1.6347682710540543,1.6252319289459456,13.428478434189186,-0.11864385146867815,-0.16984838513679507,-0.11718183512912267,0.26628453225773435,-0.1910180807061333,0.08833966893445631,0.049053152565014815,2.3670302828197274,9.053989069103435,-27.505050412634287,232.557329848873,-31.944834675116102,-12.697783576923095,4.810070948744625,0.3019046648808034,166.2518,164.41407158456968,6.0,10.828135941839768,1.253940721997532,-3.140218204074196,-9.68292332604362,16.022975956711463,1.5574729000000002e-19,2.4955350829929672e-18,-13.363480012297867,-1.6532026016255366,-1.5707715811135463,6.703905462497607
2688,2688,4.174998999999957,0.0,2500.0,-2500.0,2500.0,-2500.0,10.442889301136363,66.79555718750002,84.51728418076883,107.0,11.17818294372574,1.6371091852813713,1.6228910147186286,13.39336472077943,-0.08480693847946606,-0.17114996281699416,-0.11526593860394607,0.26597919006541,-0.09048103713481304,-0.001823002843837275,-0.058383135365337735,1.4655783613672817,9.179220817780754,-27.636540374122983,231.3835545062606,-31.52034384143735,-12.64943022858829,4.760659129999404,0.3610926946589692,166.2518,164.45550684281525,6.0,10.778762099130144,1.194344772625813,-3.2977617182544448,-8.77605069376557,16.02668809756423,1.5574729000000002e-19,2.496113238870884e-18,-13.300334070714204,-1.6745570005997603,-1.5196491517823794,6.51814748171133
2689,2689,4.273518999999965,0.0,2500.0,-2500.0,2500.0,-2500.0,10.299648892176034,64.97571007188256,84.5577867294445,107.0,11.0,1.6389149090303898,1.6210852604749593,13.336088702798051,-0.09445645001629964,-0.18280772524263655,-0.11781212514362245,0.2675930230970952,0.08678541164256201,0.0539787768253627,0.03723832310172786,1.2773109175375073,9.427135644819089,-27.57374297477613,230.17472579881618,-31.098757623322157,-12.588132794053957,4.712335644393116,0.38457353977486464,166.2518,164.49887255312825,6.0,10.686947517758961,0.6161512291603424,-0.22295074527822625,-10.870297771973613,16.030525946271005,1.5574729000000002e-19,2.496710973406395e-18,-13.222447274596774,-1.667797327485772,-1.5348782679503519,6.621331585135883
2690,2690,4.369979000000001,0.0,2500.0,-2500.0,2500.0,-2500.0,10.079838419922064,62.231971956139404,84.60440679394854,107.0,11.0,1.6403323905826277,1.6196677316717616,13.268047320244554,-0.10340399458264447,-0.1940114416503384,-0.1185650928161566,0.2704691755057629,0.15802858269614706,0.046320261862275655,0.010547402354906546,1.688436324858809,9.797817243999887,-27.313862938841005,228.98887348997255,-30.684316119038826,-12.535008921194216,4.658083567747839,0.4296361410845732,166.2518,164.5405361587811,6.0,10.549821678348136,0.5271379892583027,-0.7353661168108473,-10.831305880081999,16.033689171565314,1.5574729000000002e-19,2.497203637173643e-18,-13.154352921029265,-1.6436925349775848,-1.5603324940609262,6.764656700966303
2691,2691,4.489488999999992,0.0,2500.0,-2500.0,2500.0,-2500.0,10.086762225139356,62.31746461607614,84.66379479602848,107.0,10.233216023186165,1.6429169599420346,1.6220672359072554,13.148204234654814,-0.1124733450594244,-0.19679660971785315,-0.11873999768359535,0.2742089025577274,0.06247431681400779,-0.016691534350638408,0.0311597992297796,1.9372888476566492,9.976332333134073,-26.979044475949816,227.5296889023515,-30.193306774104663,-12.472481165690676,4.560391284828147,0.4900249781056615,166.2518,164.60030226661704,6.0,10.356861915838794,0.8819843263640338,2.8208141445806008,-11.651152450184767,16.03690313482878,1.5574729000000002e-19,2.4977042032420872e-18,-13.069562655713568,-1.6310195613826963,-1.5241862986889738,6.651847259925966
2692,2692,4.576167999999939,0.0,2500.0,-2500.0,2500.0,-2500.0,10.105257804688929,62.546199679892034,84.71698677349906,107.0,9.33601076493127,1.6451599730876718,1.625656056940275,13.045474232584631,-0.1063596134753182,-0.19618039055608155,-0.1176450430468621,0.2756594338160097,-0.06978204077266717,0.004624735884412652,0.04516877174378618,1.9053268381179445,9.965167154280495,-26.781436863974047,226.47052263372615,-29.83763535719114,-12.425587817037414,4.501992399048685,0.5065174804775004,166.2518,164.64923807027185,6.0,10.25121083771498,0.4008852739820956,0.17451684782533985,-10.865331383598043,16.03923417927455,1.5574729000000002e-19,2.498067257097386e-18,-13.010957144194903,-1.6148267153990639,-1.49739656565477,6.56513575689738
2693,2693,4.695497999999986,0.0,2500.0,-2500.0,2500.0,-2500.0,10.154819928565637,63.161238022596514,84.79071928176464,107.0,9.450086268089057,1.64915064888525,1.6301507038766234,12.94848978514842,-0.08506302434105623,-0.1987017405177409,-0.11626561089500355,0.2767208908363505,-0.11735223785450255,-0.008403084692752309,0.011480000012264423,1.3671982821713384,9.932182837685373,-26.64248431749661,225.02007656520558,-29.3679569695905,-12.370085858478012,4.3973549470277735,0.4936718877355079,166.2518,164.7213033584681,6.0,10.13535462486358,1.055457026987817,3.0546066444292235,-9.352431945568883,16.043092224898412,1.5574729000000002e-19,2.498668137247999e-18,-12.918411212664184,-1.634352906752885,-1.4815878788594503,6.542557784130911
2694,2694,4.791129999999953,0.0,2500.0,-2500.0,2500.0,-2500.0,10.10652804109814,62.56193327223406,84.84760563879252,107.0,9.945581156769725,1.6526191626555038,1.6336191680973882,12.884075449619935,-0.07884858521720216,-0.20434655323773898,-0.11757154289113532,0.2771019559804165,0.041455699218092716,0.01692097728206047,0.02608927951744623,0.9029460927741156,9.984829940720054,-26.531021741472568,223.85943550609372,-28.996772984721197,-12.313965553310931,4.331409188479329,0.44019428557364176,166.2518,164.77787454649484,6.0,10.065325544554444,1.3442172773097945,2.071835800630549,-7.936599933451637,16.04651322895546,1.5574729000000002e-19,2.4992009493589637e-18,-12.832127740285443,-1.6290931122909456,-1.5301775182180382,6.800171361896865
2695,2695,4.8846509999999626,0.0,2500.0,-2500.0,2500.0,-2500.0,10.036768721185153,61.701248311783075,84.90323627493527,107.0,10.396488731177016,1.7636204163495144,1.7418450348801484,12.808011960775199,-0.0848440206734948,-0.2117208336241339,-0.1164040163512614,0.2783025185108722,0.03151140780806872,0.014735798726579276,0.013274462990747195,1.178761472237136,10.162973138194204,-26.35501676183361,222.7284227040994,-28.649872933800157,-12.251423623449474,4.284420672579467,0.3587860735212365,166.2518,164.83120992522132,6.0,9.986711118119818,0.6816764853358649,-2.3551978211952576,-8.121574193862473,16.04985871708098,1.5574729000000002e-19,2.4997220000682395e-18,-12.741226232979749,-1.6140844761156867,-1.6368332444776899,7.3205477015504785
2696,2696,4.981308000000013,0.0,2500.0,-2500.0,2500.0,-2500.0,9.920710903771106,60.28255420025978,84.95141686834121,107.0,10.85811646599813,1.8924145082018315,1.867407778751491,12.727688734916324,-0.10607124632107906,-0.2087290141160993,-0.1185403409048426,0.28002716029742064,0.03323487299650665,-0.002381661364815612,0.08518155235478257,1.2558780750797705,10.180251948457704,-26.21946426656261,221.56043242453305,-28.288045019364148,-12.186577252595551,4.248020291900208,0.31816701296484273,166.2518,164.88205681221277,6.0,9.889944598927476,0.5196480492368236,-2.3211674894193157,-9.433955459821645,16.050368237035258,1.5574729000000002e-19,2.4998013564203195e-18,-12.664069857363383,-1.5912151248725233,-1.6723346122552103,7.522582525286914
2697,2697,5.100697999999966,0.0,2500.0,-2500.0,2500.0,-2500.0,9.949814880795774,60.63677425605448,85.0100540640795,107.45376671608334,11.0,2.1684124590794216,2.1378748465419166,12.59001263392853,-0.20421044676663933,-0.20151236778233905,-0.1243832393180934,0.28108519439944724,0.7701149071430918,-0.06551921936943474,0.09952768949532892,3.75614394015828,9.920165468538283,-25.529416320608,220.12997545918526,-27.857995675559145,-12.137281674642088,4.179519271340248,0.4534575800698404,166.2518,164.9452086797335,6.0,9.795276689533672,1.152103791761624,-0.2621588568693332,-12.911058272761126,16.04716387352253,1.5574729000000002e-19,2.4993022854870368e-18,-12.64095250900867,-1.5522616696654696,-1.4952628529736038,6.746010678181097
2698,2698,5.19969500000002,0.0,2500.0,-2500.0,2500.0,-2500.0,10.135189189468443,62.91730873022292,85.07449161478594,107.9546648181786,11.0,2.429380370271057,2.393833726622788,12.465288505608706,-0.3244228008300107,-0.1856660351982207,-0.1264990428689523,0.2793450326031993,0.5742071931412431,-0.06067678190750415,0.18045955148176152,7.742797895125028,9.542877325227103,-24.614519660054054,218.9346484907037,-27.494232734068,-12.140191345141801,4.060860960808047,0.6541987643622769,166.2518,165.01372210634153,6.0,9.790648733546561,2.2310175430401253,-0.14899212950833868,-9.78501380872013,16.04450684718305,1.5574729000000002e-19,2.4988884608352047e-18,-12.660731926322342,-1.5431679352224303,-1.2254422324451781,5.528482177085941
2699,2699,5.29191400000002,0.0,2500.0,-2500.0,2500.0,-2500.0,10.314875679197254,65.16799479373411,85.13451733767242,108.0,11.0,2.694268431165266,2.65422708526345,12.415203483477168,-0.3150298622685979,-0.1663551602710305,-0.12447920126678305,0.2757889973794053,-0.1231395684470798,-0.10689991391102656,0.12829870228711202,9.313361788758844,8.968933040269746,-24.062023858044096,217.82835255533155,-27.186351244114576,-12.140282026517596,3.927759508080247,0.6622007956538117,166.2518,165.07972870609984,6.0,9.848471811460307,1.3827266250372303,-2.4739465560287703,-8.050265282867862,16.042249916207098,1.5574729000000002e-19,2.4985369499519828e-18,-12.634909849085902,-1.5610026151612808,-1.0937439042974362,4.947488985314361
2700,2700,5.3886309999999185,0.0,2500.0,-2500.0,2500.0,-2500.0,10.464903194934685,67.07748978223225,85.20144304308336,108.0,11.0,2.974535535706361,2.9297996000114264,12.370135890922187,-0.2766181739602447,-0.16243463325863775,-0.12711326919544153,0.26998597168614363,-0.2303533206981832,-0.03959062254529745,0.1368860284798853,8.394183437830964,8.443334400296159,-23.518296848121462,216.66506837215326,-26.86628541211021,-12.141012487024838,3.7905045443814256,0.6511447003960028,166.2518,165.14240282978722,6.0,9.949030325531904,0.4641821667482556,-2.4085713547755283,-9.39914332307318,16.040019882677342,1.5574729000000002e-19,2.498189628273114e-18,-12.603617058567336,-1.5313147337741568,-0.9985800613717998,4.530060981483427
2701,2701,5.506277999999952,0.0,2500.0,-2500.0,2500.0,-2500.0,10.672753384106525,69.76845469473913,85.28308379994003,108.0,10.52762665979118,3.2436733167229503,3.196256196702324,12.50632622882557,-0.2277211689861902,-0.17723740204950272,-0.12931231357409542,0.2606225239795349,-0.3403050915341699,0.080498983147957,0.20945463745228127,6.875123191795608,8.624116793513396,-22.380991104322625,215.25361383864205,-26.500814235789687,-12.137135170642969,3.598838587997084,0.6706538948661234,166.2518,165.22255477420322,6.0,10.118090114397036,0.32765572800072923,0.21209893598572727,-11.248279876583279,16.037307259718855,1.5574729000000002e-19,2.497767144598538e-18,-12.551359732777732,-1.4256810985333646,-1.0225027041178216,4.657344058241862
2702,2702,5.602267999999924,0.0,2500.0,-2500.0,2500.0,-2500.0,10.822743523902187,71.74321679773914,85.34374694631077,108.0,10.0326414851099,3.446617287840793,3.3977152122961227,12.661751573675492,-0.2103522402251855,-0.18742972394407645,-0.12977187736667814,0.25294732858380736,0.05853736166922674,0.057568543860874975,0.1532874942067567,6.0506859786675715,8.983896276176402,-21.20105679126093,214.09795578516184,-26.20941256701659,-12.127519861082265,3.4425223047074742,0.663476786237066,166.2518,165.29004560528944,6.0,10.279419488872303,0.9698813239915391,2.6682415087406297,-9.990405050266991,16.03807276442231,1.5574729000000002e-19,2.4978863698815838e-18,-12.501280506864488,-1.2993896961749256,-1.1137345196569242,5.091019406243877
2703,2703,5.698815999999965,0.0,2500.0,-2500.0,2500.0,-2500.0,10.767883215251748,71.01778470262336,85.40476273395319,108.0,10.459737665487829,3.625965459319806,3.5723680826649282,12.670161589600385,-0.20394340784423864,-0.1945538308232181,-0.12719129450991914,0.2466190366893673,-0.17777055405317665,0.10701599535701632,0.21167513502080093,5.615879465991756,9.293703597498773,-20.123984686066176,212.93174234387337,-25.927409468236483,-12.11476832007689,3.3190288951043017,0.6695771451156158,166.2518,165.3522652329534,6.0,10.433729080383896,1.5418547023449076,0.6438533983278747,-9.51572212351762,16.040172207372734,1.5574729000000002e-19,2.4982133524316214e-18,-12.460914279008078,-1.1710639297426209,-1.1842855260961982,5.429084884264049
2704,2704,5.796510000000012,0.0,2500.0,-2500.0,2500.0,-2500.0,10.424889853128963,66.56563795019123,85.45790131354627,108.0,10.95757192796499,3.8056834787237834,3.747107759444133,12.668169754716212,-0.1965200120633112,-0.19242878124005172,-0.12556936966641893,0.2418276966311401,-0.13594630307660305,0.021696830949748367,0.17028253861983494,5.298554174207063,9.457644710833078,-19.212368362546094,211.74931989153413,-25.647818977466287,-12.092777876766045,3.208787214964908,0.6921042484314759,166.2518,165.40811987016232,6.0,10.507712186267176,0.8699339197072072,1.2244486520608588,-10.676357372504485,16.042296570172578,1.5574729000000002e-19,2.4985442161806742e-18,-12.419346615328534,-1.0626534011970945,-1.2053778441930276,5.543562457977678
2705,2705,5.917284999999936,0.0,2500.0,-2500.0,2500.0,-2500.0,10.08140640489976,62.25141435421506,85.52741851709166,108.0,10.449650798001167,3.6432372627892975,3.579284064936388,12.385671409723802,-0.1643707700175723,-0.17859653468375103,-0.12511910578864566,0.2385291132688652,-0.3084935148495805,-0.059943533805889675,0.11083891652024074,4.3446585916672875,9.198615377805757,-18.243031632538727,210.28339086944743,-25.32781494365097,-12.09022037786597,3.0888114659926713,0.8695112295354073,166.2518,165.48106003810483,6.0,10.4621174086738,2.1730608151932524,-1.4617666488391896,-11.857976273634618,16.042711728260073,1.5574729000000002e-19,2.498608875927724e-18,-12.428378349746414,-0.9260580567508184,-0.992477983347104,4.565711140084128
2706,2706,6.0103129999999965,0.0,2500.0,-2500.0,2500.0,-2500.0,9.841075747430494,59.318692618960384,85.6212343875779,108.0,10.0,3.4962174589116546,3.428223263465596,12.158719753356895,-0.07676141253405618,-0.15314906598477052,-0.1251403057580607,0.23433099610743266,-0.544645490831734,-0.13278578559125326,0.13745696748961886,1.8922026684520472,8.589988572105634,-17.659077613395677,209.15284873076453,-25.08680452119509,-12.105052676710025,2.9964729473592064,1.1652904592417672,166.2518,165.56297736400418,6.0,10.368609509515927,1.361171608462545,1.7338738825648854,-13.352541188127839,16.042205929978437,1.5574729000000002e-19,2.4985300992160716e-18,-12.478095116469488,-0.8309862550088151,-0.5840057306972342,2.6796288609447245
2707,2707,6.098254999999995,0.0,2500.0,-2500.0,2500.0,-2500.0,9.777177466885684,58.550832516427285,85.70992118383606,108.0,10.0,3.360369085787248,3.2928248541909904,12.442111961069331,-0.07620541970943669,-0.13700946600179442,-0.13342206411905086,0.2304854346608503,-0.2810852269824179,-0.12755299776370846,0.15830588948327182,0.04906108622973998,7.908438327207688,-16.882975085623812,208.09178084714114,-24.866265607904392,-12.10351510281059,2.928394453233723,1.4334078839720723,166.2518,165.66397217193668,6.0,10.262455243918264,1.5164553187407777,0.6006200802556305,-12.732680767570555,16.041727784554652,1.5574729000000002e-19,2.4984556293620912e-18,-12.511292838707108,-0.7063654708784055,-0.19270399222779044,0.8824229922689384
2708,2708,6.218917999999917,0.0,2500.0,-2500.0,2500.0,-2500.0,9.739788380667386,58.103884099927406,85.8821847654505,108.0,9.93113008868402,3.178851392082321,3.1124025513728486,12.759174783256507,-0.2444412048248896,-0.12847106633287672,-0.13260876635576174,0.2252554988424207,0.006096092862327636,-0.0642654889406832,0.08481722267789626,-0.4559921004883624,7.25293507756605,-15.884955686416314,206.63222661213254,-24.565019753265037,-12.073845100318565,2.847224473861786,1.6260259097430612,166.2518,165.82948529083657,6.0,10.125870579282948,0.6710566580571694,0.5574524875481637,-9.443135931316887,16.041883917661874,1.5574729000000002e-19,2.498479946670421e-18,-12.498218012239619,-0.5620496797957283,0.11999709701717087,-0.5500876971256109
2709,2709,6.314881000000014,0.0,2500.0,-2500.0,2500.0,-2500.0,9.753163321300859,58.26356580852688,86.02509052074144,108.0,9.467603415963037,3.0634332505747963,3.000692623247092,12.585352280986138,-0.20175679899492344,-0.14216136113864042,-0.13433541087493833,0.22252299415436075,-0.2472545717271151,0.025455278868349637,0.01236003151590627,-1.326717539598376,7.1905980985373485,-15.631375936981671,205.46612396883816,-24.332986625597538,-12.034766430625837,2.7679924567734093,1.6088754112886785,166.2518,165.97249656820688,6.0,10.023803687406382,0.1205131362250902,1.3399889510930398,-8.65196363581817,16.042318159637993,1.5574729000000002e-19,2.4985475786814048e-18,-12.439858510556785,-0.573785036737471,0.12440718950405395,-0.572978324052229
2710,2710,6.407571999999959,0.0,2500.0,-2500.0,2500.0,-2500.0,9.721788422885124,57.88931787620334,86.17111382982904,108.0,9.019881368704072,2.9519504608073137,2.8927916098576816,12.417456513264025,-0.1508491289760546,-0.17564759791135146,-0.1460371643929897,0.2210511719022762,-0.3985457232433166,0.1372287206336944,-0.009834522091388732,-2.9493592993796875,7.661021718255559,-15.667192410950141,204.34520153957592,-24.108763698149577,-11.986134576564153,2.7134476475660905,1.572855617368062,166.2518,166.11124781403709,6.0,9.927316008963595,0.09231747025071596,1.7206463028885317,-9.123503975031502,16.042737595493566,1.5574729000000002e-19,2.4986129046792387e-18,-12.373700498302293,-0.6146579415627735,0.005919604611511975,-0.027410420576880676
2711,2711,6.52347599999996,0.0,2500.0,-2500.0,2500.0,-2500.0,9.688590820278755,57.494633681310674,86.35499952304302,108.0,10.11504777864214,2.8360528017774964,2.7692476115746123,12.122318673110328,-0.03308606550708357,-0.21539500133484693,-0.1542165784709232,0.2191395144922792,-0.16313326635765588,0.13765030328950267,-0.04634159130691814,-4.767128247191635,8.615351439431207,-15.924722501806214,202.94558279404944,-23.85381073523973,-11.904159428142544,2.6794442780280527,1.5894696274719091,166.2518,166.29106776395338,6.0,9.809843977364764,0.7180364711876975,1.6820374817267485,-11.176067909014382,16.04381104958317,1.5574729000000002e-19,2.4987800922446344e-18,-12.283123151719785,-0.6607381419719088,-0.14922908552043654,0.6960588150089836
2712,2712,6.614070999999967,0.0,2500.0,-2500.0,2500.0,-2500.0,9.697002876905142,57.59452591971353,86.51715560135773,108.0,10.99035811255533,2.745695687936535,2.6727922058467932,11.892747554632194,0.03256111280512791,-0.2311617657911108,-0.13786707079111926,0.21595437300078027,-0.04220683804075756,0.060037758611097336,-0.06599124655331531,-5.4776564812149156,9.10453961570825,-16.269359635317823,201.8678829791819,-23.648950029448084,-11.821725494945412,2.675790946373915,1.6606529824030458,166.2518,166.44561824818976,6.0,9.730309804194752,0.6101952108382088,2.117491021568965,-11.432771562992047,16.04479943773854,1.5574729000000002e-19,2.4989340310213016e-18,-12.208316027255535,-0.7076796332463872,-0.15574125623944246,0.7308815273177498
2713,2713,6.708384000000024,0.0,2500.0,-2500.0,2500.0,-2500.0,9.63524704522527,56.86329183613029,86.6859665314764,108.0,10.505368602928675,2.6297831466368136,2.561729511144387,11.829698918380725,0.0484434537291378,-0.23731116946531755,-0.11959725014227145,0.21081519039578764,0.2520687748649061,-0.003508704235968035,-0.11900063059945433,-4.929329187169478,9.214253589149694,-16.774533272251464,200.7679347031377,-23.463766933181013,-11.725462850938726,2.6693629535681334,1.733483710811587,166.2518,166.62101517248277,6.0,9.657262576306662,0.3691924065229799,1.7518968876045489,-10.389107106222175,16.045828389138705,1.5574729000000002e-19,2.4990942874134188e-18,-12.119688771173685,-0.7995415108645129,-0.07650738501964316,0.3616835481350035
2714,2714,6.825497999999982,0.0,2500.0,-2500.0,2500.0,-2500.0,9.460099820033687,54.8147721922561,86.90109559626787,108.0,10.0,2.488738792167632,2.4262121848739957,11.76721997572473,0.0072997470559873,-0.2395227909808328,-0.11144892139882358,0.20436427669965096,0.2939971521466813,-0.01293823503868026,-0.16288646929513131,-3.171952639348597,8.961465347836931,-17.766528514058756,199.4159008484452,-23.225248621995984,-11.607843479093807,2.6477267952759465,1.758140652525266,166.2518,166.84621112529922,6.0,9.542138240822062,0.4289438902770215,0.1765619783606216,-8.65107435237888,16.048241751214448,1.5574729000000002e-19,2.4994701620165047e-18,-11.99123311938448,-1.001950604286711,0.04805060490892443,-0.2295912439847951
2715,2715,6.922097000000008,0.0,2500.0,-2500.0,2500.0,-2500.0,9.590999539620487,56.342242629016674,87.07885188636044,108.0,10.0,2.384841753447767,2.324742647058801,11.783726496376305,-0.03377246148609226,-0.24072861498861586,-0.10840134210936564,0.19935276928761572,0.3505190857515838,-0.04847704673240996,-0.236092586220059,-1.7359731871269781,8.780747760113075,-18.910168799816272,198.3115001157013,-23.047128876174305,-11.513225973086383,2.616865365622586,1.7760585032804597,166.2518,167.02970359076318,6.0,9.461365307131544,0.6884392843435789,-0.24988988247341076,-7.985744752579576,16.050542238380253,1.5574729000000002e-19,2.4998284566582585e-18,-11.873447137261973,-1.2398057400938791,0.1547946927250472,-0.7469254763319997
2716,2716,7.018775000000005,0.0,2500.0,-2500.0,2500.0,-2500.0,9.63145956009441,56.81857285493828,87.25445031561148,108.0,10.0,2.2833008078868917,2.225432259483668,11.800431920266163,-0.07995640824983058,-0.23584604252895,-0.10391473711825808,0.193630495177897,0.20709923414330103,-0.07206823181044232,-0.22959423325679865,-0.2690004744862912,8.442297660415297,-20.153124369036163,197.20983002170303,-22.85799524867216,-11.436960055879455,2.5784971315083327,1.7687571738515482,166.2518,167.20887181183986,6.0,9.429028653179175,0.9342261963385259,-0.09475557407074772,-9.86618263982016,16.052844606916313,1.5574729000000002e-19,2.5001870443183314e-18,-11.758814882754045,-1.5034833606408522,0.2659902783085095,-1.2958382198854566
2717,2717,7.115746999999942,0.0,2500.0,-2500.0,2500.0,-2500.0,9.57346359666205,56.13636794186393,87.43058274368533,108.0,10.0,2.1970078089067937,2.140108844761773,11.818369713835056,-0.12475857142798755,-0.231523354247762,-0.09955302747416946,0.18787573473991007,0.11729187673161373,-0.06633380531817308,-0.2354782386334637,0.3673545360431354,8.033383991288389,-21.492185598697752,196.1102363152589,-22.68023338542148,-11.367799095521484,2.5368364110190686,1.7233193727489773,166.2518,167.38754855380154,6.0,9.405358268458393,0.09308031834409593,0.04821406612369675,-7.817053115993496,16.056138408601722,1.5574729000000002e-19,2.5007000450046307e-18,-11.634715436750195,-1.786088158913718,0.3504986613125416,-1.7255275727218864
2718,2718,7.233378000000016,0.0,2500.0,-2500.0,2500.0,-2500.0,9.636355777777801,56.876400720238344,87.61006117543242,108.0,10.0,2.1017166594837007,2.0450403907565393,11.795237058867958,-0.1802753309251836,-0.23026196182244105,-0.09997418091651523,0.1824042477485085,-0.03826596630657169,-0.03553841442706586,-0.20926988393681945,0.5323355532930086,7.6492074112536175,-22.925002162645683,194.77883954862412,-22.45399834448005,-11.285135393780177,2.4892535786309478,1.5644186006933556,166.2518,167.5828053356266,6.0,9.379642900737108,0.40057196753965896,0.8171539908665695,-9.453530752580154,16.060450054977665,1.5574729000000002e-19,2.5013715722431222e-18,-11.470533236856426,-2.0841435072016092,0.3178925615419763,-1.5874799175411312
2719,2719,7.329609000000005,0.0,2500.0,-2500.0,2500.0,-2500.0,9.843767613699294,59.35111196194688,87.75430533125378,108.0,10.0,2.0486638082744903,1.9896400171505533,11.657205033073586,-0.1858853886435186,-0.23761608920857266,-0.10826201163090374,0.17807394211990746,-0.026499267108119142,0.025232498252362453,-0.12363771258883813,0.09153729890394073,7.567120115484069,-23.892745998837466,193.68750002349412,-22.280885518095907,-11.21271905418803,2.4712062714362726,1.4005962350621752,166.2518,167.7177560628493,6.0,9.410993646774426,0.5390371463364809,0.607736814330865,-9.370849226609984,16.06397730580783,1.5574729000000002e-19,2.5019209320010708e-18,-11.339194145100643,-2.262279979692172,0.207063387402372,-1.0461536859662248
2720,2720,7.426665999999955,0.0,2500.0,-2500.0,2500.0,-2500.0,9.851093596958476,59.43948105515725,87.87317480215029,108.0,9.916445754582027,1.9966474180477938,1.935480209556958,11.536655179238265,-0.1848988537379026,-0.244300916078813,-0.1141508354067382,0.17341600551027014,-0.1310916162264992,-0.008808532087928051,-0.10326228287807876,-0.07805339498458966,7.627523817427847,-24.53353168024041,192.59611139598863,-22.089972481509303,-11.142939754129904,2.4598561507875174,1.2832935712802418,166.2518,167.83559774035086,6.0,9.477293028771918,0.638157308984574,0.17978203904411946,-9.181364501663534,16.06658809870055,1.5574729000000002e-19,2.5023275559188635e-18,-11.229937764853624,-2.3676351315576256,0.10797101234046913,-0.5508572564768075
2721,2721,7.535484999999937,0.0,2500.0,-2500.0,2500.0,-2500.0,9.877109522659488,59.7538459266749,88.00465032635816,108.0,9.349700792158544,1.9467738046800316,1.8844731062643485,11.507184441192242,-0.11092767144669463,-0.2413223004124917,-0.13052975378926598,0.16785155557058276,-0.3312619178346005,-0.022515332163544455,-0.06511686047306048,-1.7137601752998064,7.568707265135371,-25.1439379344563,191.37665308425738,-21.88747262518571,-11.061915978096797,2.465238898792668,1.1734301349900047,166.2518,167.95998322349675,6.0,9.547208881654255,0.3089609840716423,0.35626446461789674,-9.486934584567427,16.069401403373465,1.5574729000000002e-19,2.502765720497615e-18,-11.119378279805524,-2.438207577882945,0.0315517856398444,-0.16257917087569942
2722,2722,7.631106999999986,0.0,2500.0,-2500.0,2500.0,-2500.0,9.902159620268137,60.057324793375365,88.0964340223715,108.0,9.140453760788887,1.9050446926130904,1.8412018840937332,11.445740382130785,-0.0806813605666393,-0.23281282231940506,-0.14470810486001368,0.16351554687867909,-0.08103246641167874,-0.0491508093586036,-0.02115488413169089,-2.929807184201972,7.3383113552157075,-25.415225962237354,190.31142795665545,-21.703403840624986,-10.987591367686964,2.5006628507118225,1.0616626189233804,166.2518,168.06032190342899,6.0,9.614145638208537,0.7351635797470888,-0.4838927711657982,-7.627871340701589,16.071873525148465,1.5574729000000002e-19,2.5031507467646203e-18,-11.042975275953353,-2.4188483564577363,-0.037432795987339285,0.19421695306916267
2723,2723,7.726781999999957,0.0,2500.0,-2500.0,2500.0,-2500.0,9.861008083311082,59.559179973062754,88.18826859094446,108.0,9.612340320591656,1.868237493759819,1.801563413070301,11.300399793598089,-0.0711622303231731,-0.21871881693431555,-0.14421535958696272,0.15882181807275952,0.11177792502941973,-0.10400029304270196,0.00944523746941808,-2.7638576229641107,6.915193339180885,-25.37838834808267,189.24359192885518,-21.529914100711636,-10.918630022400382,2.533509417372812,0.958624022633588,166.2518,168.14139296952553,6.0,9.676191455727619,0.6266787699336182,0.22977058541682335,-8.884807165740998,16.07384777569997,1.5574729000000002e-19,2.5034582309377985e-18,-10.986553856854318,-2.35556600701569,-0.0785659296692579,0.4097207834006756
2724,2724,7.848344999999995,0.0,2500.0,-2500.0,2500.0,-2500.0,9.705376459820343,57.69403525273125,88.26971451179544,108.0,10.0,1.825403611554195,1.7566171310132568,11.165842634243184,-0.054059325241697515,-0.202900261986732,-0.13252359962553736,0.15470370992279073,0.08945039242394319,-0.0873671459226646,0.0031185920128681145,-2.043669924646285,6.288316559257681,-25.264886407887424,187.89672635218184,-21.29956850522432,-10.845693492538024,2.5703291483328243,0.8274875527410409,166.2518,168.22889716830778,6.0,9.703416075322306,0.8893876578951161,-0.09339713396391712,-7.737811226653607,16.07628633639172,1.5574729000000002e-19,2.50383803015704e-18,-10.930289425740238,-2.277389611582175,-0.11930840678011613,0.6253811252145729
2725,2725,7.945283000000018,0.0,2500.0,-2500.0,2500.0,-2500.0,9.830010398767863,59.18533304945606,88.33010550771543,108.0,10.0,1.796983532346461,1.7286787962329069,11.13164219994235,-0.038396126691103497,-0.1922662889986685,-0.1245175565864816,0.1515708057997929,0.12356690230306128,-0.057037325405085264,0.009686197225667327,-1.3472136120345912,5.8399636578986085,-25.2399698956755,186.82412514271903,-21.117570697433923,-10.792960850519764,2.5895602609218327,0.6788506114439177,166.2518,168.28424684530447,6.0,9.730059950764891,0.6915778070577125,-0.2370911548330296,-7.213464565951233,16.078192437193874,1.5574729000000002e-19,2.504134900191442e-18,-10.879444647304986,-2.2380489558561543,-0.20030480521816066,1.054771068161252
2726,2726,8.041893999999957,0.0,2500.0,-2500.0,2500.0,-2500.0,9.84924192129816,59.417142089736096,88.35786259582346,108.0,10.17608119374361,1.8524258577910853,1.7801999915331193,11.104718564187689,-0.03873270058190019,-0.19119530786688996,-0.12175473510497635,0.14902708905501494,0.01815496269549224,-0.0358500868794991,-0.05575140075937627,-0.7623836724655351,5.5825116858445005,-25.358075651175515,185.76168314056198,-20.927962315116574,-10.747509147204463,2.605275920947752,0.5067145820129302,166.2518,168.31826902971437,6.0,9.780060789450898,0.9646560667297164,-0.25863859801986844,-8.598324521643137,16.079327849917927,1.5574729000000002e-19,2.504311737646244e-18,-10.825685203478685,-2.2306545471608206,-0.3302096222253407,1.7471183611869805
